# LAS format log file from PETREL
# Project units are specified as depth units
#==================================================================
~Version information
VERS.   2.0:
WRAP.   NO:
#==================================================================
~Well
STRT .m      132.02721000 :
STOP .m      2054.8579100 :
STEP .m     0.00000000 :
NULL .        -999.250000 :
COMP.           : COMPANY
WELL.  16/1-12   : WELL
FLD.            : FIELD
LOC.            : LOCATION
SRVC.           : SERVICE COMPANY
DATE.  2018-06-09 11:11:56   : Log Export Date {yyyy-MM-dd HH:mm:ss}
PROV.           : PROVINCE
UWI.   6166   : UNIQUE WELL ID
API.            : API NUMBER
#==================================================================
~Curve
DEPT .m                   : DEPTH
DEN .g/cm3                : DEN
DT .us/ft                 : DT
DTS .us/ft                : DTS
GR .gAPI                  : GR
NPHI .m3/m3               : NPHI
DTS_i7 ._                 : DTS_i7
DTS_mlFilled ._           : DTS_mlFilled
LITHesa10 ._              : LITHesa10
LITHesa9_filtr ._         : LITHesa9_filtr
LITHesa9_i4 ._            : LITHesa9_i4
LITHesa9_i8 ._            : LITHesa9_i8
LITHesa9_i8i4 ._          : LITHesa9_i8i4
PHIE_i7 ._                : PHIE_i7
PHIE_i8 ._                : PHIE_i8
PHIE_i8i7 ._              : PHIE_i8i7
PHIE_mlfilled ._          : PHIE_mlfilled
PHIEed ._                 : PHIEed
RDEP ._                   : RDEP
RMED ._                   : RMED
~Parameter
#==================================================================
~Ascii
# ...
 2035.9604500 2.5223000050 65.876899719 146.69329834 145.13090515 0.1173999980 137.62748718 146.69329834 5851.0000000  -999.250000 6793.0000000 6793.0000000 6793.0000000 0.0544600002  -999.250000 0.0544600002 0.0544600002  -999.250000 5.2143998146 3.7829000950
 2036.1127900 2.5251998901 68.407897949 152.20352173 147.45399475 0.1094999984 147.93730164 152.20350647 5851.0000000  -999.250000 6793.0000000 6793.0000000 6793.0000000 0.0602400005  -999.250000 0.0602400005 0.0602400005  -999.250000 4.8843998909 3.5818998814
 2036.2652600 2.5228998661 70.510398865 153.26739502 146.03329468 0.1036999971 148.20326233 153.26739502 5851.0000000  -999.250000 6793.0000000 6793.0000000 6793.0000000 0.0580900013  -999.250000 0.0580900013 0.0580900013  -999.250000 5.7755999565 4.3364000320
 2036.4176000 2.5126998425 70.522903442 146.72279358 144.43440247 0.1005999967 143.61447144 146.72279358 5851.0000000  -999.250000 6793.0000000 6793.0000000 6793.0000000 0.0804599971  -999.250000 0.0804599971 0.0804599971  -999.250000 6.7491998672 5.2651000023
 2036.5699500 2.4998998642 68.530799866 140.57929993 146.82839966 0.1080000028 137.04002380 140.57929993 5851.0000000  -999.250000 6793.0000000 6793.0000000 6793.0000000 0.0985900015  -999.250000 0.0985900015 0.0985900015  -999.250000 8.3072996140 6.5735998154
 2036.7224100 2.4918999672 66.496696472 136.56370544 148.23320007 0.1155999973 134.65898132 136.56370544 5851.0000000  -999.250000 6793.0000000 6793.0000000 6793.0000000 0.0994599983  -999.250000 0.0994599983 0.0994599983  -999.250000 9.3765001297 7.4951000214
 2036.8747600 2.4833998680 65.190002441 135.11430359 145.51570129 0.1190000027 133.75001526 135.11430359 5851.0000000  -999.250000 6793.0000000 6793.0000000 6793.0000000 0.1004699990  -999.250000 0.1004699990 0.1004699990  -999.250000 9.4802999496 7.6248002052
 2037.0272200 2.4688000679 64.940597534 135.23989868 148.88609314 0.1288000047 131.10951233 135.23989868 5851.0000000  -999.250000 6793.0000000 6793.0000000 6793.0000000 0.0697999969  -999.250000 0.0697999969 0.0697999969  -999.250000 7.4512000084 6.0753002167
 2037.1795700 2.4514999390 66.357200623 137.44900513 154.94540405 0.1365000010 138.43116760 137.44900513 5851.0000000  -999.250000 6793.0000000 5868.0000000 5868.0000000 0.0767799988  -999.250000 0.0767799988 0.0767799988  -999.250000 4.0652999878 3.2806000710
 2037.3320300 2.4366998672 68.280799866 139.25878906 156.96969604 0.1377999932 139.46340942 139.25880432 5851.0000000  -999.250000 6793.0000000 6793.0000000 6793.0000000 0.0558799990  -999.250000 0.0558799990 0.0558799990  -999.250000 4.3048000336 3.4512999058
 2037.4843800 2.4466001987 68.778099060 140.26759338 157.46139526 0.1243999973 135.78836060 140.26759338 5851.0000000  -999.250000 6793.0000000 6793.0000000 6793.0000000 0.0586399995  -999.250000 0.0586399995 0.0586399995  -999.250000 4.5117998123 3.6027998924
 2037.6368400 2.4623000622 70.493797302 140.26179504 160.10609436 0.1257999986 140.33172607 140.26179504 5851.0000000  -999.250000 6793.0000000 6793.0000000 6793.0000000 0.0610699989  -999.250000 0.0610699989 0.0610699989  -999.250000 4.9896001816 3.9403998852
 2037.7891800 2.4658000469 72.828002930 140.57980347 161.54829407 0.1368999928 138.53778076 140.57980347 5851.0000000  -999.250000 6793.0000000 6793.0000000 6793.0000000 0.0629500002  -999.250000 0.0629500002 0.0629500002  -999.250000 4.9499998093 3.9031999111
 2037.9416500 2.4535000324 74.086097717 139.95359802 162.32000732 0.1483000070 137.92549133 139.95359802 5851.0000000  -999.250000 6793.0000000 6793.0000000 6793.0000000 0.0446499996  -999.250000 0.0446499996 0.0446499996  -999.250000 4.8238000870 3.8020000458
 2038.0939900 2.4414999485 74.368797302 137.86250305 162.96040344 0.1412000060 138.42745972 137.86250305 5851.0000000  -999.250000 6793.0000000 6793.0000000 6793.0000000 0.0423500016  -999.250000 0.0423500016 0.0423500016  -999.250000 5.2154998779 4.1273999214
 2038.2464600 2.4513001442 68.634796143 134.97821045 160.24800110 0.1275999993 134.08622742 134.97819519 5851.0000000  -999.250000 6793.0000000 6793.0000000 6793.0000000 0.0580199994  -999.250000 0.0580199994 0.0580199994  -999.250000 7.6686000824 6.0486001968
 2038.3988000 2.4489998817 68.045097351 130.83819580 156.57890320 0.1216000021 131.48786926 130.83819580 5851.0000000  -999.250000 6793.0000000 6793.0000000 6793.0000000 0.0648699999  -999.250000 0.0648699999 0.0648699999  -999.250000 5.3572998047 4.1691999435
 2038.5511500 2.4441001415 69.013099670 132.97610474 154.38290405 0.1202000007 133.11540222 132.97610474 5851.0000000  -999.250000 6793.0000000 6793.0000000 6793.0000000 0.0484299995  -999.250000 0.0484299995 0.0484299995  -999.250000 5.1374998093 3.9454998970
 2038.7036100 2.4337999821 70.125602722 136.11360168 154.49070740 0.1194999963 135.70095825 136.11360168 5851.0000000  -999.250000 6793.0000000 6793.0000000 6793.0000000 0.0318300016  -999.250000 0.0318300016 0.0318300016  -999.250000 6.0843000412 4.6694002151
 2038.8559600 2.4326999187 70.633102417 142.72290039 157.03700256 0.1194000021 140.25982666 142.72290039 5851.0000000  -999.250000 6793.0000000 6793.0000000 6793.0000000 0.0396500006  -999.250000 0.0396500006 0.0396500006  -999.250000 6.2227997780 4.7739000320
 2039.0084200 2.4375000000 70.613296509 148.55259705 159.92460632 0.1168000028 144.34289551 148.55259705 5851.0000000  -999.250000 6793.0000000 6793.0000000 6793.0000000 0.0404400006  -999.250000 0.0404400006 0.0404400006  -999.250000 5.4720997810 4.1223998070
 2039.1607700 2.4447000027 71.027595520 147.20658875 162.85719299  -999.250000  -999.250000 147.20660400 5851.0000000  -999.250000 6793.0000000  -999.250000 6793.0000000  -999.250000  -999.250000  -999.250000  -999.250000  -999.250000 5.5820999146 4.1540999413
 2039.3132300 2.4428999424 72.288398743 142.74630737 165.74929810  -999.250000  -999.250000 142.74630737 5851.0000000  -999.250000 6793.0000000  -999.250000 6793.0000000  -999.250000  -999.250000  -999.250000  -999.250000  -999.250000 4.6293001175 3.4597001076
 2039.4655800 2.4377000332 71.576103210 141.22749329 168.65040588  -999.250000  -999.250000 141.22749329 5851.0000000  -999.250000 6793.0000000  -999.250000 6793.0000000  -999.250000  -999.250000  -999.250000  -999.250000  -999.250000 4.2662000656 3.1981999874
 2039.6180400 2.4321000576 71.072502136 141.49349976 165.60330200  -999.250000  -999.250000 141.49349976 5851.0000000  -999.250000 6793.0000000  -999.250000 6793.0000000  -999.250000  -999.250000  -999.250000  -999.250000  -999.250000 4.3575000763 3.2762999535
 2039.7703900 2.4421999454 70.817199707 141.01170349 153.44430542  -999.250000  -999.250000 141.01170349 5851.0000000  -999.250000 6793.0000000  -999.250000 6793.0000000  -999.250000  -999.250000  -999.250000  -999.250000  -999.250000 6.1192998886 4.6501002312
 2039.9228500 2.4696002007 71.028404236 140.50740051 144.06959534  -999.250000  -999.250000 140.50740051 5851.0000000  -999.250000 6793.0000000  -999.250000 6793.0000000  -999.250000  -999.250000  -999.250000  -999.250000  -999.250000 8.0986995697 6.2235999107
 2040.0752000 2.4888000488 70.396400452 138.01240540 142.14979553  -999.250000  -999.250000 138.01240540 5851.0000000  -999.250000 6793.0000000  -999.250000 6793.0000000  -999.250000  -999.250000  -999.250000  -999.250000  -999.250000 10.031900406 7.7925000191
 2040.2275400 2.4993000031 70.306800842 136.93429565 143.11309814  -999.250000  -999.250000 136.93429565 5851.0000000  -999.250000 6793.0000000  -999.250000 6793.0000000  -999.250000  -999.250000  -999.250000  -999.250000  -999.250000 11.053999901 8.6330003738
 2040.3800000 2.4756999016 70.156204224 136.76170349 147.17059326  -999.250000  -999.250000 136.76170349 5851.0000000  -999.250000 6793.0000000  -999.250000 6793.0000000  -999.250000  -999.250000  -999.250000  -999.250000  -999.250000 9.5935001373 7.6827998161
 2040.5323500 2.4396998882 70.066696167 136.68670654 151.92190552  -999.250000  -999.250000 136.68670654 5851.0000000  -999.250000 6793.0000000  -999.250000 6793.0000000  -999.250000  -999.250000  -999.250000  -999.250000  -999.250000 6.9232997894 5.5311999321
