# LAS format log file from PETREL
# Project units are specified as depth units
#==================================================================
~Version information
VERS.   2.0:
WRAP.   NO:
#==================================================================
~Well
STRT .m      132.02721000 :
STOP .m      2054.8579100 :
STEP .m     0.00000000 :
NULL .        -999.250000 :
COMP.           : COMPANY
WELL.  16/1-12   : WELL
FLD.            : FIELD
LOC.            : LOCATION
SRVC.           : SERVICE COMPANY
DATE.  2018-06-09 11:11:56   : Log Export Date {yyyy-MM-dd HH:mm:ss}
PROV.           : PROVINCE
UWI.   6166   : UNIQUE WELL ID
API.            : API NUMBER
#==================================================================
~Curve
DEPT .m                   : DEPTH
DEN .g/cm3                : DEN
DT .us/ft                 : DT
DTS .us/ft                : DTS
GR .gAPI                  : GR
NPHI .m3/m3               : NPHI
DTS_i7 ._                 : DTS_i7
DTS_mlFilled ._           : DTS_mlFilled
LITHesa10 ._              : LITHesa10
LITHesa9_filtr ._         : LITHesa9_filtr
LITHesa9_i4 ._            : LITHesa9_i4
LITHesa9_i8 ._            : LITHesa9_i8
LITHesa9_i8i4 ._          : LITHesa9_i8i4
PHIE_i7 ._                : PHIE_i7
PHIE_i8 ._                : PHIE_i8
PHIE_i8i7 ._              : PHIE_i8i7
PHIE_mlfilled ._          : PHIE_mlfilled
PHIEed ._                 : PHIEed
RDEP ._                   : RDEP
RMED ._                   : RMED
~Parameter
#==================================================================
~Ascii
# ...
 703.67963000 2.1836001873 142.42590332  -999.250000 105.62750244 0.3434999883 359.69943237 359.69943237 5891.0000000 5891.0000000 5891.0000000 5891.0000000 5891.0000000  -999.250000  -999.250000  -999.250000  -999.250000  -999.250000 1.5310000181 1.5062999725
 703.83197000 2.2031998634 142.43840027  -999.250000 108.05149841 0.3307000101 362.04153442 362.04153442 5891.0000000 5891.0000000 5891.0000000 5891.0000000 5891.0000000  -999.250000  -999.250000  -999.250000  -999.250000  -999.250000 1.5248999596 1.5145000219
 703.98438000 2.2128999233 141.87719727  -999.250000 112.08460236 0.3916000128 357.52859497 357.52859497 5891.0000000 5891.0000000 5891.0000000 5891.0000000 5891.0000000  -999.250000  -999.250000  -999.250000  -999.250000  -999.250000 1.5600999594 1.5534000397
 704.13678000 2.2071001530 142.62330627  -999.250000 114.38330078 0.3583999872 360.23028564 360.23028564 5891.0000000 5891.0000000 5891.0000000 5891.0000000 5891.0000000  -999.250000  -999.250000  -999.250000  -999.250000  -999.250000 1.5865000486 1.5802999735
 704.28918000 2.2056999207 141.32679749  -999.250000 114.80120087 0.3892000020 357.69342041 357.69342041 5891.0000000 5891.0000000 5891.0000000 5891.0000000 5891.0000000  -999.250000  -999.250000  -999.250000  -999.250000  -999.250000 1.5923000574 1.5751999617
 704.44159000 2.1893000603 139.94140625  -999.250000 114.11160278 0.3975000083 356.74133301 356.74133301 5891.0000000 5891.0000000 5891.0000000 5891.0000000 5891.0000000  -999.250000  -999.250000  -999.250000  -999.250000  -999.250000 1.5736000538 1.5408999920
 704.59399000 2.1886000633 138.06059265  -999.250000 111.54129791 0.4061999917 351.67687988 351.67687988 5891.0000000 5891.0000000 5891.0000000 5891.0000000 5891.0000000  -999.250000  -999.250000  -999.250000  -999.250000  -999.250000 1.5736000538 1.5408999920
 704.74640000 2.1808998585 139.13760376  -999.250000 108.19779968 0.3855000138 351.43762207 351.43762207 5891.0000000 5891.0000000 5891.0000000 5891.0000000 5891.0000000  -999.250000  -999.250000  -999.250000  -999.250000  -999.250000 1.5882999897 1.5908999443
 704.89880000 2.1883001328 140.18310547  -999.250000 105.27230072 0.3786000013 349.36645508 349.36645508 5891.0000000 5891.0000000 5891.0000000 5891.0000000 5891.0000000  -999.250000  -999.250000  -999.250000  -999.250000  -999.250000 1.5819000006 1.5679999590
 705.05121000 2.1866002083 142.14089966  -999.250000 103.39160156 0.4257000089 352.11169434 352.11169434 5891.0000000 5891.0000000 5891.0000000 5891.0000000 5891.0000000  -999.250000  -999.250000  -999.250000  -999.250000  -999.250000 1.6019999981 1.5950000286
 705.20361000 2.1986000538 140.20880127  -999.250000 103.74680328 0.3819000125 345.95211792 345.95211792 5891.0000000 5891.0000000 5891.0000000 5891.0000000 5891.0000000  -999.250000  -999.250000  -999.250000  -999.250000  -999.250000 1.5752999783 1.6478999853
 705.35602000 2.2138998508 144.46479797  -999.250000 104.72899628 0.3745000064 368.51290894 368.51290894 5891.0000000 5891.0000000 5891.0000000 5891.0000000 5891.0000000  -999.250000  -999.250000  -999.250000  -999.250000  -999.250000 1.6171000004 1.5664000511
 705.50842000 2.2161002159 142.54379272  -999.250000 104.58270264 0.3686999977 359.78430176 359.78430176 5891.0000000 5891.0000000 5891.0000000 5891.0000000 5891.0000000  -999.250000  -999.250000  -999.250000  -999.250000  -999.250000 1.6171000004 1.5664000511
 705.66083000 2.2051000595 141.50430298  -999.250000 102.97360229 0.3630000055 354.76828003 354.76828003 5891.0000000 5891.0000000 5891.0000000 5891.0000000 5891.0000000  -999.250000  -999.250000  -999.250000  -999.250000  -999.250000 1.5282000303 1.5189000368
 705.81317000 2.1888999939 140.86489868  -999.250000 99.180801392 0.3691999912 346.03887939 346.03887939  -999.250000  -999.250000 5891.0000000 5891.0000000 5891.0000000  -999.250000  -999.250000  -999.250000  -999.250000  -999.250000 1.4342999458 1.4319000244
 705.96558000 2.1895999908 143.66340637  -999.250000 95.952301025 0.3686000109 357.11746216 357.11746216  -999.250000  -999.250000 5891.0000000 5891.0000000 5891.0000000  -999.250000  -999.250000  -999.250000  -999.250000  -999.250000 1.4966000319 1.4814000130
 706.11798000 2.1888999939 139.87390137  -999.250000 97.272201538 0.4361999929 346.17559814 346.17559814  -999.250000  -999.250000 5891.0000000 5891.0000000 5891.0000000  -999.250000  -999.250000  -999.250000  -999.250000  -999.250000 1.6035000086 1.5549999475
 706.27039000 2.1942999363 139.84390259  -999.250000 102.33280182 0.3736000061 349.12457275 349.12457275  -999.250000  -999.250000 5891.0000000 5891.0000000 5891.0000000  -999.250000  -999.250000  -999.250000  -999.250000  -999.250000 1.5755000114 1.5482000113
 706.42279000 2.2051000595 141.55299377  -999.250000 109.52829742 0.3635999858 355.02096558 355.02096558 5891.0000000 5891.0000000 5891.0000000 5891.0000000 5891.0000000  -999.250000  -999.250000  -999.250000  -999.250000  -999.250000 1.4927999973 1.4787000418
 706.57520000 2.2202999592 140.84620667  -999.250000 118.47910309 0.3948999941 358.36920166 358.36920166 5891.0000000 5891.0000000 5891.0000000 5891.0000000 5891.0000000  -999.250000  -999.250000  -999.250000  -999.250000  -999.250000 1.4522999525 1.4587999582
 706.72760000 2.1948997974 142.52789307  -999.250000 124.86309814 0.3616000116 362.28244019 362.28244019 5891.0000000 5891.0000000 5891.0000000 5891.0000000 5891.0000000  -999.250000  -999.250000  -999.250000  -999.250000  -999.250000 1.4069000483 1.4363000393
 706.88000000 2.1545000076 143.42959595  -999.250000 123.20179749 0.3720000088 369.78659058 369.78659058 5891.0000000 5891.0000000 5891.0000000 5891.0000000 5891.0000000  -999.250000  -999.250000  -999.250000  -999.250000  -999.250000 1.3862999678 1.3820999861
 707.03241000 2.1258997917 143.78160095  -999.250000 115.89830017 0.3711999953 377.52270508 377.52270508 5891.0000000 5891.0000000 5891.0000000 5891.0000000 5891.0000000  -999.250000  -999.250000  -999.250000  -999.250000  -999.250000 1.3797999620 1.3552000523
 707.18481000 2.1368999481 143.80610657  -999.250000 110.89350128 0.4311000109 377.52728271 377.52728271 5891.0000000 5891.0000000 5891.0000000 5891.0000000 5891.0000000  -999.250000  -999.250000  -999.250000  -999.250000  -999.250000 1.4078999758 1.3973000050
 707.33722000 2.1710000038 142.46839905  -999.250000 111.41590118 0.3919000030 364.31054688 364.31054688 5891.0000000 5891.0000000 5891.0000000 5891.0000000 5891.0000000  -999.250000  -999.250000  -999.250000  -999.250000  -999.250000 1.3610999584 1.3542000055
 707.48962000 2.1896998882 141.81950378  -999.250000 110.72630310 0.3759999871 355.73062134 355.73062134 5891.0000000 5891.0000000 5891.0000000 5891.0000000 5891.0000000  -999.250000  -999.250000  -999.250000  -999.250000  -999.250000 1.3314000368 1.3203999996
 707.64203000 2.2166001797 142.56059265  -999.250000 106.12899780 0.3765000105 357.46643066 357.46643066 5891.0000000 5891.0000000 5891.0000000 5891.0000000 5891.0000000  -999.250000  -999.250000  -999.250000  -999.250000  -999.250000 1.5183999538 1.5072000027
 707.79437000 2.2171001434 143.30169678  -999.250000 103.89309692 0.3749000132 360.56167603 360.56167603 5891.0000000 5891.0000000 5891.0000000 5891.0000000 5891.0000000  -999.250000  -999.250000  -999.250000  -999.250000  -999.250000 1.5676000118 1.5374000072
 707.94678000 2.2058999538 144.00770569  -999.250000 106.67230225 0.4004999995 360.72256470 360.72256470 5891.0000000 5891.0000000 5891.0000000 5891.0000000 5891.0000000  -999.250000  -999.250000  -999.250000  -999.250000  -999.250000 1.5676000118 1.5374000072
 708.09918000 2.1781001091 141.22039795  -999.250000 111.95929718 0.4530000091 357.75122070 357.75122070 5891.0000000 5891.0000000 5891.0000000 5891.0000000 5891.0000000  -999.250000  -999.250000  -999.250000  -999.250000  -999.250000 1.5153000355 1.5078999996
 708.25159000 2.1706001759 144.78959656  -999.250000 115.03109741 0.3495000005 374.56878662 374.56878662 5891.0000000 5891.0000000 5891.0000000 5891.0000000 5891.0000000  -999.250000  -999.250000  -999.250000  -999.250000  -999.250000 1.4319000244 1.3851000071
