# LAS format log file from PETREL
# Project units are specified as depth units
#==================================================================
~Version information
VERS.   2.0:
WRAP.   NO:
#==================================================================
~Well
STRT .m      132.02721000 :
STOP .m      2054.8579100 :
STEP .m     0.00000000 :
NULL .        -999.250000 :
COMP.           : COMPANY
WELL.  16/1-12   : WELL
FLD.            : FIELD
LOC.            : LOCATION
SRVC.           : SERVICE COMPANY
DATE.  2018-06-09 11:11:56   : Log Export Date {yyyy-MM-dd HH:mm:ss}
PROV.           : PROVINCE
UWI.   6166   : UNIQUE WELL ID
API.            : API NUMBER
#==================================================================
~Curve
DEPT .m                   : DEPTH
DEN .g/cm3                : DEN
DT .us/ft                 : DT
DTS .us/ft                : DTS
GR .gAPI                  : GR
NPHI .m3/m3               : NPHI
DTS_i7 ._                 : DTS_i7
DTS_mlFilled ._           : DTS_mlFilled
LITHesa10 ._              : LITHesa10
LITHesa9_filtr ._         : LITHesa9_filtr
LITHesa9_i4 ._            : LITHesa9_i4
LITHesa9_i8 ._            : LITHesa9_i8
LITHesa9_i8i4 ._          : LITHesa9_i8i4
PHIE_i7 ._                : PHIE_i7
PHIE_i8 ._                : PHIE_i8
PHIE_i8i7 ._              : PHIE_i8i7
PHIE_mlfilled ._          : PHIE_mlfilled
PHIEed ._                 : PHIEed
RDEP ._                   : RDEP
RMED ._                   : RMED
~Parameter
#==================================================================
~Ascii
# ...
 1355.6468500 2.1512000561 134.51510620  -999.250000 87.572601318 0.3560999930 349.03106689 349.03106689 5891.0000000 5891.0000000 5891.0000000 5891.0000000 5891.0000000  -999.250000  -999.250000  -999.250000  -999.250000  -999.250000 0.8305000067 0.8345999718
 1355.7991900 2.1517000198 134.91969299  -999.250000 88.924003601 0.3328999877 349.50085449 349.50085449 5891.0000000 5891.0000000 5891.0000000 5891.0000000 5891.0000000  -999.250000  -999.250000  -999.250000  -999.250000  -999.250000 0.8342000246 0.8403000236
 1355.9516600 2.1418001652 135.34210205  -999.250000 88.781196594 0.3524000049 346.98171997 346.98171997 5891.0000000 5891.0000000 5891.0000000 5891.0000000 5891.0000000  -999.250000  -999.250000  -999.250000  -999.250000  -999.250000 0.8392000198 0.8410000205
 1356.1040000 2.1536998749 137.55320740  -999.250000 91.818199158 0.4566999972 340.71340942 340.71340942 5891.0000000 5891.0000000 5891.0000000 5891.0000000 5891.0000000  -999.250000  -999.250000  -999.250000  -999.250000  -999.250000 0.8447999954 0.8403000236
 1356.2563500 2.1451001167 138.16819763  -999.250000 93.820800781 0.3987999856 344.55670166 344.55670166 5891.0000000 5891.0000000 5891.0000000 5891.0000000 5891.0000000  -999.250000  -999.250000  -999.250000  -999.250000  -999.250000 0.8598999977 0.8568000197
 1356.4088100 2.1198999882 137.38569641  -999.250000 95.941802979 0.3788999915 365.67764282 365.67764282 5891.0000000 5891.0000000 5891.0000000 5891.0000000 5891.0000000  -999.250000  -999.250000  -999.250000  -999.250000  -999.250000 0.8460999727 0.8568999767
 1356.5611600 2.1113998890 133.74769592  -999.250000 94.541702271 0.4388999939 355.86154175 355.86154175 5891.0000000 5891.0000000 5891.0000000 5891.0000000 5891.0000000  -999.250000  -999.250000  -999.250000  -999.250000  -999.250000 0.8481000066 0.8630999923
 1356.7136200 2.0971999168 130.35620117  -999.250000 84.793296814 0.3896999955 339.84100342 339.84100342 5891.0000000 5891.0000000 5891.0000000 5891.0000000 5891.0000000  -999.250000  -999.250000  -999.250000  -999.250000  -999.250000 0.9208999872 0.9282000065
 1356.8659700 2.1259999275 128.57589722  -999.250000 76.504302979 0.3811999857 327.57150269 327.57150269 5891.0000000 5891.0000000 5891.0000000 5891.0000000 5891.0000000  -999.250000  -999.250000  -999.250000  -999.250000  -999.250000 1.0289000273 1.0310000181
 1357.0184300 2.1449999809 128.51379395  -999.250000 78.632301331 0.4293999970 338.58148193 338.58148193  -999.250000  -999.250000 5891.0000000 5891.0000000 5891.0000000  -999.250000  -999.250000  -999.250000  -999.250000  -999.250000 1.0078999996 1.0031000376
 1357.1707800 2.1482000351 133.12109375  -999.250000 86.889999390 0.3445000052 348.39660645 348.39660645  -999.250000  -999.250000 5891.0000000 5891.0000000 5891.0000000  -999.250000  -999.250000  -999.250000  -999.250000  -999.250000 0.9193000197 0.9268000126
 1357.3232400 2.1478998661 137.68580627  -999.250000 89.603103638 0.3411000073 336.83026123 336.83026123 5891.0000000 5891.0000000 5891.0000000 5891.0000000 5891.0000000  -999.250000  -999.250000  -999.250000  -999.250000  -999.250000 0.8817999959 0.8974999785
 1357.4755900 2.1211001873 137.91529846  -999.250000 87.064102173 0.3736999929 344.78994751 344.78994751 5891.0000000 5891.0000000 5891.0000000 5891.0000000 5891.0000000  -999.250000  -999.250000  -999.250000  -999.250000  -999.250000 0.8869000077 0.9072999954
 1357.6280500 2.1286001205 138.01870728  -999.250000 85.186897278 0.3508000076 344.69201660 344.69201660 5891.0000000 5891.0000000 5891.0000000 5891.0000000 5891.0000000  -999.250000  -999.250000  -999.250000  -999.250000  -999.250000 0.9003999829 0.9139999747
 1357.7804000 2.1093997955 137.36560059  -999.250000 83.431602478 0.4029000103 343.83929443 343.83929443  -999.250000  -999.250000 5891.0000000 5891.0000000 5891.0000000  -999.250000  -999.250000  -999.250000  -999.250000  -999.250000 0.9215000272 0.9218000174
 1357.9327400 2.1138000488 137.99940491  -999.250000 83.257400513 0.3686000109 339.26339722 339.26339722  -999.250000  -999.250000 5891.0000000 5891.0000000 5891.0000000  -999.250000  -999.250000  -999.250000  -999.250000  -999.250000 0.9451000094 0.9343000054
 1358.0852100 2.0992000103 138.20199585  -999.250000 81.449798584 0.3813000023 352.27545166 352.27545166  -999.250000  -999.250000 5891.0000000 5891.0000000 5891.0000000  -999.250000  -999.250000  -999.250000  -999.250000  -999.250000 0.9413999915 0.9362999797
 1358.2375500 2.0966000557 137.93190002  -999.250000 77.799896240 0.4514999986 325.17489624 325.17489624  -999.250000  -999.250000 5891.0000000 5891.0000000 5891.0000000  -999.250000  -999.250000  -999.250000  -999.250000  -999.250000 0.9404000044 0.9406999946
 1358.3900100 2.0843999386 138.10459900  -999.250000 73.084098816 0.3797999918 347.58889771 347.58889771  -999.250000  -999.250000 5891.0000000 5891.0000000 5891.0000000  -999.250000  -999.250000  -999.250000  -999.250000  -999.250000 0.9905999899 0.9887999892
 1358.5423600 2.0863997936 130.39460754  -999.250000 68.511199951 0.4113999903 329.51419067 329.51419067  -999.250000  -999.250000 5891.0000000 5891.0000000 5891.0000000  -999.250000  -999.250000  -999.250000  -999.250000  -999.250000 1.0278999805 1.0328999758
 1358.6948200 2.0918998718 126.25440216  -999.250000 70.621803284 0.3359000087 316.34933472 316.34933472 5860.0000000  -999.250000 5891.0000000 5891.0000000 5891.0000000  -999.250000  -999.250000  -999.250000  -999.250000  -999.250000 0.9480000138 0.9498999715
 1358.8471700 2.0927000046 125.84160614  -999.250000 76.239601135 0.3280999959 320.13958740 320.13958740 5860.0000000  -999.250000 5891.0000000 5891.0000000 5891.0000000  -999.250000  -999.250000  -999.250000  -999.250000  -999.250000 0.9337999821 0.9337999821
 1358.9996300 2.1064999104 126.53039551  -999.250000 80.829902649 0.3122000098 330.08233643 330.08233643 5860.0000000  -999.250000 5891.0000000 5891.0000000 5891.0000000  -999.250000  -999.250000  -999.250000  -999.250000  -999.250000 0.9413999915 0.9437000155
 1359.1519800 2.0936000347 130.14649963  -999.250000 81.606597900 0.3185999990 330.73382568 330.73382568 5860.0000000  -999.250000 5891.0000000 5891.0000000 5891.0000000  -999.250000  -999.250000  -999.250000  -999.250000  -999.250000 0.9435999990 0.9424999952
 1359.3044400 2.0958998203 134.05947876  -999.250000 76.685401917 0.3246000111 350.77120972 350.77120972  -999.250000  -999.250000 5891.0000000 5891.0000000 5891.0000000  -999.250000  -999.250000  -999.250000  -999.250000  -999.250000 0.9433000088 0.9427000284
 1359.4567900 2.0828998089 133.03359985  -999.250000 73.592597961 0.3194000125 343.51995850 343.51995850 5868.0000000  -999.250000 5891.0000000 5860.0000000 5860.0000000  -999.250000  -999.250000  -999.250000  -999.250000  -999.250000 0.9419000149 0.9397000074
 1359.6092500 2.0903999805 132.40161133  -999.250000 76.789802551 0.3089999855 339.91238403 339.91238403 5868.0000000  -999.250000 5891.0000000 5891.0000000 5891.0000000  -999.250000  -999.250000  -999.250000  -999.250000  -999.250000 0.9301999807 0.9286000133
 1359.7616000 2.1064999104 132.50619507  -999.250000 78.649696350 0.2967000008 336.63455200 336.63455200 5868.0000000 5868.0000000 5891.0000000 5868.0000000 5868.0000000  -999.250000  -999.250000  -999.250000  -999.250000  -999.250000 0.8888999820 0.8888000250
 1359.9139400 2.0968999863 133.62570190  -999.250000 77.688400269 0.3045000136 348.43969727 348.43969727 5868.0000000 5868.0000000 5891.0000000 5868.0000000 5868.0000000  -999.250000  -999.250000  -999.250000  -999.250000  -999.250000 0.8640999794 0.8661999702
 1360.0664100 2.0959999561 133.75259399  -999.250000 79.307899475 0.3131000102 354.18258667 354.18258667  -999.250000  -999.250000 5891.0000000 5891.0000000 5891.0000000  -999.250000  -999.250000  -999.250000  -999.250000  -999.250000 0.8683999777 0.8715000153
 1360.2187500 2.0756001472 134.14019775  -999.250000 80.321403503 0.3316999972 350.04226685 350.04226685 5860.0000000 5860.0000000 5891.0000000 5891.0000000 5891.0000000  -999.250000  -999.250000  -999.250000  -999.250000  -999.250000 0.8382999897 0.8421000242
