# LAS format log file from PETREL
# Project units are specified as depth units
#==================================================================
~Version information
VERS.   2.0:
WRAP.   NO:
#==================================================================
~Well
STRT .m      132.02721000 :
STOP .m      2054.8579100 :
STEP .m     0.00000000 :
NULL .        -999.250000 :
COMP.           : COMPANY
WELL.  16/1-12   : WELL
FLD.            : FIELD
LOC.            : LOCATION
SRVC.           : SERVICE COMPANY
DATE.  2018-06-09 11:11:56   : Log Export Date {yyyy-MM-dd HH:mm:ss}
PROV.           : PROVINCE
UWI.   6166   : UNIQUE WELL ID
API.            : API NUMBER
#==================================================================
~Curve
DEPT .m                   : DEPTH
DEN .g/cm3                : DEN
DT .us/ft                 : DT
DTS .us/ft                : DTS
GR .gAPI                  : GR
NPHI .m3/m3               : NPHI
DTS_i7 ._                 : DTS_i7
DTS_mlFilled ._           : DTS_mlFilled
LITHesa10 ._              : LITHesa10
LITHesa9_filtr ._         : LITHesa9_filtr
LITHesa9_i4 ._            : LITHesa9_i4
LITHesa9_i8 ._            : LITHesa9_i8
LITHesa9_i8i4 ._          : LITHesa9_i8i4
PHIE_i7 ._                : PHIE_i7
PHIE_i8 ._                : PHIE_i8
PHIE_i8i7 ._              : PHIE_i8i7
PHIE_mlfilled ._          : PHIE_mlfilled
PHIEed ._                 : PHIEed
RDEP ._                   : RDEP
RMED ._                   : RMED
~Parameter
#==================================================================
~Ascii
# ...
 1076.9072300 2.1802999973 136.18609619  -999.250000 144.72549438 0.3925999999 340.48141479 340.48141479 5891.0000000 5891.0000000 5891.0000000 5891.0000000 5891.0000000  -999.250000  -999.250000  -999.250000  -999.250000  -999.250000 1.2611999512 1.2503000498
 1077.0595700 2.1531000137 136.44679260  -999.250000 136.91009521 0.3948000073 344.29183960 344.29183960 5891.0000000 5891.0000000 5891.0000000 5891.0000000 5891.0000000  -999.250000  -999.250000  -999.250000  -999.250000  -999.250000 1.4690999985 1.4366999865
 1077.2120400 2.1221001148 136.59930420  -999.250000 128.59320068 0.3901000023 345.84127808 345.84127808 5891.0000000 5891.0000000 5891.0000000 5891.0000000 5891.0000000  -999.250000  -999.250000  -999.250000  -999.250000  -999.250000 1.3659000397 1.3716000319
 1077.3643800 2.0993998051 137.40080261  -999.250000 122.40769958 0.3822000027 350.09576416 350.09576416 5891.0000000 5891.0000000 5891.0000000 5891.0000000 5891.0000000  -999.250000  -999.250000  -999.250000  -999.250000  -999.250000 1.3348000050 1.3330999613
 1077.5168500 2.1201000214 133.51730347  -999.250000 123.09729767 0.4740999937 345.37725830 345.37725830 5891.0000000 5891.0000000 5891.0000000 5891.0000000 5891.0000000  -999.250000  -999.250000  -999.250000  -999.250000  -999.250000 1.3624000549 1.3669999838
 1077.6691900 2.1335000992 133.05079651  -999.250000 127.15129852 0.4176999927 344.55987549 344.55987549 5891.0000000 5891.0000000 5891.0000000 5891.0000000 5891.0000000  -999.250000  -999.250000  -999.250000  -999.250000  -999.250000 1.4062000513 1.4197000265
 1077.8216600 2.1677999496 132.95539856  -999.250000 128.34240723 0.4138999879 341.07901001 341.07901001 5891.0000000 5891.0000000 5891.0000000 5891.0000000 5891.0000000  -999.250000  -999.250000  -999.250000  -999.250000  -999.250000 1.4011000395 1.4107999802
 1077.9740000 2.1801002026 133.20179749  -999.250000 123.53610229 0.3835999966 337.67440796 337.67440796 5891.0000000 5891.0000000 5891.0000000 5891.0000000 5891.0000000  -999.250000  -999.250000  -999.250000  -999.250000  -999.250000 1.4098999500 1.3921999931
 1078.1263400 2.2046999931 134.09519958  -999.250000 119.29409790 0.3874000013 337.99444580 337.99444580 5891.0000000 5891.0000000 5891.0000000 5891.0000000 5891.0000000  -999.250000  -999.250000  -999.250000  -999.250000  -999.250000 1.3960000277 1.3839999437
 1078.2788100 2.1803998947 134.36929321  -999.250000 121.94799805 0.4047000110 339.83456421 339.83456421 5891.0000000 5891.0000000 5891.0000000 5891.0000000 5891.0000000  -999.250000  -999.250000  -999.250000  -999.250000  -999.250000 1.3756999969 1.3619999886
 1078.4311500 2.1511001587 134.67370605  -999.250000 130.22309875 0.4848000109 349.80462646 349.80462646 5891.0000000 5891.0000000 5891.0000000 5891.0000000 5891.0000000  -999.250000  -999.250000  -999.250000  -999.250000  -999.250000 1.4135999680 1.4118000269
 1078.5836200 2.1298000813 133.73309326  -999.250000 136.53399658 0.4077999890 340.41888428 340.41888428 5891.0000000 5891.0000000 5891.0000000 5891.0000000 5891.0000000  -999.250000  -999.250000  -999.250000  -999.250000  -999.250000 1.4503999949 1.4298000336
 1078.7359600 2.1621999741 132.15759277  -999.250000 132.98150635 0.3802999854 339.55114746 339.55114746 5891.0000000 5891.0000000 5891.0000000 5891.0000000 5891.0000000  -999.250000  -999.250000  -999.250000  -999.250000  -999.250000 1.4097000360 1.4098000526
 1078.8884300 2.2028999329 132.79789734  -999.250000 121.38369751 0.4221000075 341.44625854 341.44625854 5891.0000000 5891.0000000 5891.0000000 5891.0000000 5891.0000000  -999.250000  -999.250000  -999.250000  -999.250000  -999.250000 1.3839999437 1.3733999729
 1079.0407700 2.2218999863 133.31599426  -999.250000 111.15470123 0.4451000094 330.00173950 330.00173950 5891.0000000 5891.0000000 5891.0000000 5891.0000000 5891.0000000  -999.250000  -999.250000  -999.250000  -999.250000  -999.250000 1.3463000059 1.3444000483
 1079.1932400 2.2271001339 132.91909790  -999.250000 108.49040222 0.5594999790 342.88134766 342.88134766 5891.0000000 5891.0000000 5891.0000000 5891.0000000 5891.0000000  -999.250000  -999.250000  -999.250000  -999.250000  -999.250000 1.3664000034 1.3640999794
 1079.3455800 2.2096002102 133.36608887  -999.250000 107.33059692 0.4343999922 340.09655762 340.09655762 5891.0000000 5891.0000000 5891.0000000 5891.0000000 5891.0000000  -999.250000  -999.250000  -999.250000  -999.250000  -999.250000 1.3914999962 1.3825999498
 1079.4980500 2.1805000305 134.40089417  -999.250000 103.93489838 0.4090000093 341.49075317 341.49075317 5891.0000000 5891.0000000 5891.0000000 5891.0000000 5891.0000000  -999.250000  -999.250000  -999.250000  -999.250000  -999.250000 1.4135999680 1.4077999592
 1079.6503900 2.1473999023 133.53329468  -999.250000 103.60050201 0.4000999928 337.10058594 337.10058594 5891.0000000 5891.0000000 5891.0000000 5891.0000000 5891.0000000  -999.250000  -999.250000  -999.250000  -999.250000  -999.250000 1.3734999895 1.3700000048
 1079.8028600 2.1461000443 137.58450317  -999.250000 109.07550049 0.4027999938 351.73721313 351.73721313 5891.0000000 5891.0000000 5891.0000000 5891.0000000 5891.0000000  -999.250000  -999.250000  -999.250000  -999.250000  -999.250000 1.3734999895 1.3700000048
 1079.9552000 2.1526000500 141.02340698  -999.250000 115.09380341 0.4142999947 354.29574585 354.29574585 5891.0000000 5891.0000000 5891.0000000 5891.0000000 5891.0000000  -999.250000  -999.250000  -999.250000  -999.250000  -999.250000 1.3064999580 1.3026000261
 1080.1075400 2.1275000572 134.88362122  -999.250000 114.40419769 0.4235999882 350.77777100 350.77777100 5891.0000000 5891.0000000 5891.0000000 5891.0000000 5891.0000000  -999.250000  -999.250000  -999.250000  -999.250000  -999.250000 1.3610999584 1.3689999580
 1080.2600100 2.1171000004 123.48699951  -999.250000 107.29920197 0.4745000005 335.18841553 335.18841553 5891.0000000 5891.0000000 5891.0000000 5891.0000000 5891.0000000  -999.250000  -999.250000  -999.250000  -999.250000  -999.250000 1.2719999552 1.2764999866
 1080.4123500 2.1238999367 119.86219788  -999.250000 100.96749878 0.4142999947 321.54376221 321.54376221 5891.0000000 5891.0000000 5891.0000000 5891.0000000 5891.0000000  -999.250000  -999.250000  -999.250000  -999.250000  -999.250000 1.1621999741 1.1762000322
 1080.5648200 2.1554999352 120.63330078  -999.250000 98.313598633 0.3953999877 318.16003418 318.16003418 5891.0000000 5891.0000000 5891.0000000 5891.0000000 5891.0000000  -999.250000  -999.250000  -999.250000  -999.250000  -999.250000 1.1081000566 1.1122000217
 1080.7171600 2.1712999344 121.39459991  -999.250000 94.405899048 0.3887999952 321.43536377 321.43536377 5891.0000000 5891.0000000 5891.0000000 5891.0000000 5891.0000000  -999.250000  -999.250000  -999.250000  -999.250000  -999.250000 1.0563000441 1.0508999825
 1080.8696300 2.1701998711 121.18699646  -999.250000 89.662300110 0.3971999884 319.57516479 319.57516479 5891.0000000 5891.0000000 5891.0000000 5891.0000000 5891.0000000  -999.250000  -999.250000  -999.250000  -999.250000  -999.250000 1.0551999807 1.0437999964
 1081.0219700 2.1854999065 123.51919556  -999.250000 91.668403625 0.4365000129 323.09527588 323.09527588 5891.0000000 5891.0000000 5891.0000000 5891.0000000 5891.0000000  -999.250000  -999.250000  -999.250000  -999.250000  -999.250000 1.1239000559 1.1174999475
 1081.1744400 2.1818001270 125.75899506  -999.250000 98.835998535 0.3921000063 317.84548950 317.84548950 5891.0000000 5891.0000000 5891.0000000 5891.0000000 5891.0000000  -999.250000  -999.250000  -999.250000  -999.250000  -999.250000 1.1554000378 1.1414999962
 1081.3267800 2.2031002045 127.47889709  -999.250000 101.48989868 0.3847000003 319.07235718 319.07235718 5891.0000000 5891.0000000 5891.0000000 5891.0000000 5891.0000000  -999.250000  -999.250000  -999.250000  -999.250000  -999.250000 1.1526999474 1.1440000534
 1081.4792500 2.1851000786 129.66169739  -999.250000 100.73760223 0.4004000127 325.83486938 325.83486938 5891.0000000 5891.0000000 5891.0000000 5891.0000000 5891.0000000  -999.250000  -999.250000  -999.250000  -999.250000  -999.250000 1.1792999506 1.1597000360
