# LAS format log file from PETREL
# Project units are specified as depth units
#==================================================================
~Version information
VERS.   2.0:
WRAP.   NO:
#==================================================================
~Well
STRT .m      132.02721000 :
STOP .m      2054.8579100 :
STEP .m     0.00000000 :
NULL .        -999.250000 :
COMP.           : COMPANY
WELL.  16/1-12   : WELL
FLD.            : FIELD
LOC.            : LOCATION
SRVC.           : SERVICE COMPANY
DATE.  2018-06-09 11:11:56   : Log Export Date {yyyy-MM-dd HH:mm:ss}
PROV.           : PROVINCE
UWI.   6166   : UNIQUE WELL ID
API.            : API NUMBER
#==================================================================
~Curve
DEPT .m                   : DEPTH
DEN .g/cm3                : DEN
DT .us/ft                 : DT
DTS .us/ft                : DTS
GR .gAPI                  : GR
NPHI .m3/m3               : NPHI
DTS_i7 ._                 : DTS_i7
DTS_mlFilled ._           : DTS_mlFilled
LITHesa10 ._              : LITHesa10
LITHesa9_filtr ._         : LITHesa9_filtr
LITHesa9_i4 ._            : LITHesa9_i4
LITHesa9_i8 ._            : LITHesa9_i8
LITHesa9_i8i4 ._          : LITHesa9_i8i4
PHIE_i7 ._                : PHIE_i7
PHIE_i8 ._                : PHIE_i8
PHIE_i8i7 ._              : PHIE_i8i7
PHIE_mlfilled ._          : PHIE_mlfilled
PHIEed ._                 : PHIEed
RDEP ._                   : RDEP
RMED ._                   : RMED
~Parameter
#==================================================================
~Ascii
# ...
 609.19159000 2.2086000443 140.87649536  -999.250000 98.250900269 0.3973000050 368.32476807 368.32476807 5891.0000000 5891.0000000 5891.0000000 5891.0000000 5891.0000000  -999.250000  -999.250000  -999.250000  -999.250000  -999.250000 1.6497999430 1.6397999525
 609.34399000 2.1866002083 138.43260193  -999.250000 101.44809723 0.4496999979 381.84240723 381.84240723 5891.0000000 5891.0000000 5891.0000000 5891.0000000 5891.0000000  -999.250000  -999.250000  -999.250000  -999.250000  -999.250000 1.6549999714 1.6684999466
 609.49640000 2.1666998863 137.44290161  -999.250000 100.19429779 0.3574999869 376.89700317 376.89700317 5891.0000000 5891.0000000 5891.0000000 5891.0000000 5891.0000000  -999.250000  -999.250000  -999.250000  -999.250000  -999.250000 1.5939999819 1.5945999622
 609.64880000 2.1733000278 136.42019653  -999.250000 96.709800720 0.3400000036 380.22161865 380.22161865 5891.0000000 5891.0000000 5891.0000000 5891.0000000 5891.0000000  -999.250000  -999.250000  -999.250000  -999.250000  -999.250000 1.6255999804 1.5958000422
 609.80121000 2.1881999969 137.00010681  -999.250000 95.746803284 0.3494000137 369.41864014 369.41864014 5891.0000000 5891.0000000 5891.0000000 5891.0000000 5891.0000000  -999.250000  -999.250000  -999.250000  -999.250000  -999.250000 1.7599999905 1.7216000557
 609.95361000 2.1936001778 138.28579712  -999.250000 98.451202393 0.3921999931 369.72994995 369.72994995 5891.0000000 5891.0000000 5891.0000000 5891.0000000 5891.0000000  -999.250000  -999.250000  -999.250000  -999.250000  -999.250000 1.7098000050 1.7081999779
 610.10602000 2.1807999611 139.98289490  -999.250000 105.18170166 0.3777999878 375.93997192 375.93997192 5891.0000000 5891.0000000 5891.0000000 5891.0000000 5891.0000000  -999.250000  -999.250000  -999.250000  -999.250000  -999.250000 1.6382000446 1.6412999630
 610.25842000 2.1486001015 141.77670288  -999.250000 110.05760193 0.4305000007 389.83865356 389.83865356 5891.0000000 5891.0000000 5891.0000000 5891.0000000 5891.0000000  -999.250000  -999.250000  -999.250000  -999.250000  -999.250000 1.6619000435 1.6496000290
 610.41083000 2.1391999722 142.21009827  -999.250000 108.13510132 0.4014999866 392.22549438 392.22549438 5891.0000000 5891.0000000 5891.0000000 5891.0000000 5891.0000000  -999.250000  -999.250000  -999.250000  -999.250000  -999.250000 1.6562999487 1.6546000242
 610.56317000 2.1308999062 141.63760376  -999.250000 104.12290192 0.4241999984 390.06597900 390.06597900 5891.0000000 5891.0000000 5891.0000000 5891.0000000 5891.0000000  -999.250000  -999.250000  -999.250000  -999.250000  -999.250000 1.5824999809 1.5866999626
 610.71558000 2.1403000355 141.53689575  -999.250000 102.62879944 0.4483000040 388.64135742 388.64135742 5891.0000000 5891.0000000 5891.0000000 5891.0000000 5891.0000000  -999.250000  -999.250000  -999.250000  -999.250000  -999.250000 1.5519000292 1.5334999561
 610.86798000 2.1236999035 140.44419861  -999.250000 102.99449921 0.4546999931 388.86096191 388.86096191 5891.0000000 5891.0000000 5891.0000000 5891.0000000 5891.0000000  -999.250000  -999.250000  -999.250000  -999.250000  -999.250000 1.5519000292 1.5334999561
 611.02039000 2.1387000084 140.44900513  -999.250000 103.63189697 0.4733999968 386.13369751 386.13369751 5891.0000000 5891.0000000 5891.0000000 5891.0000000 5891.0000000  -999.250000  -999.250000  -999.250000  -999.250000  -999.250000 1.6232000589 1.5987999439
 611.17279000 2.1380000114 141.77729797  -999.250000 103.24530029 0.3833999932 387.77520752 387.77520752 5891.0000000 5891.0000000 5891.0000000 5891.0000000 5891.0000000  -999.250000  -999.250000  -999.250000  -999.250000  -999.250000 1.5958000422 1.6074999571
 611.32520000 2.1465001106 143.58290100  -999.250000 101.57350159 0.3767000139 392.38638306 392.38638306 5891.0000000 5891.0000000 5891.0000000 5891.0000000 5891.0000000  -999.250000  -999.250000  -999.250000  -999.250000  -999.250000 1.6678999662 1.6475000381
 611.47760000 2.1353001595 144.59010315  -999.250000 98.710700989 0.3691000044 390.73635864 390.73635864 5891.0000000 5891.0000000 5891.0000000 5891.0000000 5891.0000000  -999.250000  -999.250000  -999.250000  -999.250000  -999.250000 1.6255999804 1.5762000084
 611.63000000 2.1231000423 143.64019775  -999.250000 96.286598206 0.3662999868 387.57754517 387.57754517 5891.0000000 5891.0000000 5891.0000000 5891.0000000 5891.0000000  -999.250000  -999.250000  -999.250000  -999.250000  -999.250000 1.5477000475 1.5310000181
 611.78241000 2.1303000450 142.06210327  -999.250000 95.816497803 0.3756000102 384.29486084 384.29486084 5891.0000000 5891.0000000 5891.0000000 5891.0000000 5891.0000000  -999.250000  -999.250000  -999.250000  -999.250000  -999.250000 1.4848999977 1.4832999706
 611.93481000 2.1593000889 142.57189941  -999.250000 95.826896667 0.4469000101 390.51916504 390.51916504 5891.0000000 5891.0000000 5891.0000000 5891.0000000 5891.0000000  -999.250000  -999.250000  -999.250000  -999.250000  -999.250000 1.5405999422 1.5327999592
 612.08722000 2.1891999245 142.40267944  -999.250000 97.707603455 0.3991999924 381.00289917 381.00289917 5891.0000000 5891.0000000 5891.0000000 5891.0000000 5891.0000000  -999.250000  -999.250000  -999.250000  -999.250000  -999.250000 1.6087000370 1.5947999954
 612.23962000 2.1840000153 143.04510498  -999.250000 100.57050323 0.3756000102 386.77233887 386.77233887 5891.0000000 5891.0000000 5891.0000000 5891.0000000 5891.0000000  -999.250000  -999.250000  -999.250000  -999.250000  -999.250000 1.5851000547 1.6052999496
 612.39203000 2.1638000011 144.59779358  -999.250000 99.264396667 0.4131000042 383.35940552 383.35940552 5891.0000000 5891.0000000 5891.0000000 5891.0000000 5891.0000000  -999.250000  -999.250000  -999.250000  -999.250000  -999.250000 1.6052999496 1.5765000582
 612.54437000 2.1389999390 144.51980591  -999.250000 95.137298584 0.3691999912 389.25430298 389.25430298 5891.0000000 5891.0000000 5891.0000000 5891.0000000 5891.0000000  -999.250000  -999.250000  -999.250000  -999.250000  -999.250000 1.5290999413 1.4937000275
 612.69678000 2.1440000534 145.14750671  -999.250000 94.938796997 0.3727999926 390.09704590 390.09704590 5891.0000000 5891.0000000 5891.0000000 5891.0000000 5891.0000000  -999.250000  -999.250000  -999.250000  -999.250000  -999.250000 1.5355999470 1.5044000149
 612.84918000 2.1311001778 145.61740112  -999.250000 96.997100830 0.4208999872 385.34448242 385.34448242 5891.0000000 5891.0000000 5891.0000000 5891.0000000 5891.0000000  -999.250000  -999.250000  -999.250000  -999.250000  -999.250000 1.5767999887 1.5850000381
 613.00159000 2.1342999935 146.13439941  -999.250000 94.667098999 0.3546999991 385.73968506 385.73968506 5891.0000000 5891.0000000 5891.0000000 5891.0000000 5891.0000000  -999.250000  -999.250000  -999.250000  -999.250000  -999.250000 1.4797999859 1.4729000330
 613.15399000 2.1263000965 145.98930359  -999.250000 90.508598328 0.3542999923 393.70242310 393.70242310 5891.0000000 5891.0000000 5891.0000000 5891.0000000 5891.0000000  -999.250000  -999.250000  -999.250000  -999.250000  -999.250000 1.5248999596 1.5059000254
 613.30640000 2.1238999367 145.59530640  -999.250000 89.328002930 0.3389999866 392.18911743 392.18911743 5891.0000000 5891.0000000 5891.0000000 5891.0000000 5891.0000000  -999.250000  -999.250000  -999.250000  -999.250000  -999.250000 1.5211999416 1.4963999987
 613.45880000 2.1147999763 146.27130127  -999.250000 91.532600403 0.3986000121 389.79910278 389.79910278 5891.0000000 5891.0000000 5891.0000000 5891.0000000 5891.0000000  -999.250000  -999.250000  -999.250000  -999.250000  -999.250000 1.4955999851 1.4891999960
 613.61121000 2.1046998501 146.55720520  -999.250000 96.495597839 0.3467999995 398.12844849 398.12844849 5891.0000000 5891.0000000 5891.0000000 5891.0000000 5891.0000000  -999.250000  -999.250000  -999.250000  -999.250000  -999.250000 1.4817999601 1.4881999493
 613.76361000 2.1122000217 146.81990051  -999.250000 99.588302612 0.3429999948 399.45614624 399.45614624 5891.0000000 5891.0000000 5891.0000000 5891.0000000 5891.0000000  -999.250000  -999.250000  -999.250000  -999.250000  -999.250000 1.4703999758 1.4610999823
