# LAS format log file from PETREL
# Project units are specified as depth units
#==================================================================
~Version information
VERS.   2.0:
WRAP.   NO:
#==================================================================
~Well
STRT .m      132.02721000 :
STOP .m      2054.8579100 :
STEP .m     0.00000000 :
NULL .        -999.250000 :
COMP.           : COMPANY
WELL.  16/1-12   : WELL
FLD.            : FIELD
LOC.            : LOCATION
SRVC.           : SERVICE COMPANY
DATE.  2018-06-09 11:11:56   : Log Export Date {yyyy-MM-dd HH:mm:ss}
PROV.           : PROVINCE
UWI.   6166   : UNIQUE WELL ID
API.            : API NUMBER
#==================================================================
~Curve
DEPT .m                   : DEPTH
DEN .g/cm3                : DEN
DT .us/ft                 : DT
DTS .us/ft                : DTS
GR .gAPI                  : GR
NPHI .m3/m3               : NPHI
DTS_i7 ._                 : DTS_i7
DTS_mlFilled ._           : DTS_mlFilled
LITHesa10 ._              : LITHesa10
LITHesa9_filtr ._         : LITHesa9_filtr
LITHesa9_i4 ._            : LITHesa9_i4
LITHesa9_i8 ._            : LITHesa9_i8
LITHesa9_i8i4 ._          : LITHesa9_i8i4
PHIE_i7 ._                : PHIE_i7
PHIE_i8 ._                : PHIE_i8
PHIE_i8i7 ._              : PHIE_i8i7
PHIE_mlfilled ._          : PHIE_mlfilled
PHIEed ._                 : PHIEed
RDEP ._                   : RDEP
RMED ._                   : RMED
~Parameter
#==================================================================
~Ascii
# ...
 1728.8743900 2.1198999882 142.06869507  -999.250000 83.916603088 0.4494000077 391.87966919 391.87966919 5891.0000000 5891.0000000 5891.0000000 5891.0000000 5891.0000000 0.0990199968  -999.250000 0.0990199968 0.0990199968  -999.250000 0.4099000096 0.4036999941
 1729.0268600 2.1122000217 143.37377930  -999.250000 86.056198120 0.3948000073 407.33886719 407.33886719 5891.0000000 5891.0000000 5891.0000000 5891.0000000 5891.0000000 0.1297499985  -999.250000 0.1297499985 0.1297499985  -999.250000 0.4113000035 0.4070000052
 1729.1792000 2.1288998127 142.96110535  -999.250000 89.276496887 0.4036000073 401.69537354 401.69537354 5891.0000000 5891.0000000 5891.0000000 5891.0000000 5891.0000000 0.0947899967  -999.250000 0.0947899967 0.0947899967  -999.250000 0.4138000011 0.4122000039
 1729.3315400 2.1088998318 146.21710205  -999.250000 89.968101501 0.3718000054 410.89913940 410.89913940 5891.0000000 5891.0000000 5891.0000000 5891.0000000 5891.0000000 0.1898999959  -999.250000 0.1898999959 0.1898999959  -999.250000 0.4228999913 0.4192999899
 1729.4840100 2.1233999729 146.76750183  -999.250000 85.213302612 0.3727000058 412.24484253 412.24484253 5891.0000000 5891.0000000 5891.0000000 5891.0000000 5891.0000000 0.1898400038  -999.250000 0.1898400038 0.1898400038  -999.250000 0.4593999982 0.4544999897
 1729.6363500 2.1370999813 145.67269897  -999.250000 82.047096252 0.5087000132 422.55838013 422.55838013 5891.0000000 5891.0000000 5891.0000000 5891.0000000 5891.0000000 0.0983199999  -999.250000 0.0983199999 0.0983199999  -999.250000 0.4372999966 0.4338000119
 1729.7888200 2.1291999817 143.65289307  -999.250000 84.283996582 0.4454999864 413.42160034 413.42160034 5891.0000000 5891.0000000 5891.0000000 5891.0000000 5891.0000000 0.0941400006  -999.250000 0.0941400006 0.0941400006  -999.250000 0.4241999984 0.4228999913
 1729.9411600 2.1033000946 140.57209778  -999.250000 84.294799805 0.4356999993 392.60720825 392.60720825 5891.0000000 5891.0000000 5891.0000000 5891.0000000 5891.0000000 0.1129399985  -999.250000 0.1129399985 0.1129399985  -999.250000 0.4199999869 0.4113000035
 1730.0936300 2.0903999805 140.57209778  -999.250000 80.112701416 0.3957999945 392.76953125 392.76953125 5891.0000000 5891.0000000 5891.0000000 5891.0000000 5891.0000000 0.1518500000  -999.250000 0.1518500000 0.1518500000  -999.250000 0.4217000008 0.4140000045
 1730.2459700 2.1031999588 140.57209778  -999.250000 75.779403687 0.3558999896 374.87396240 374.87396240  -999.250000  -999.250000 5891.0000000 5891.0000000 5891.0000000 0.1995300055  -999.250000 0.1995300055 0.1995300055  -999.250000 0.4329000115 0.4282000065
 1730.3984400 2.1533999443 140.60337830  -999.250000 72.678001404 0.3535000086 364.83578491 364.83578491  -999.250000  -999.250000 5891.0000000 5891.0000000 5891.0000000 0.1462800056  -999.250000 0.1462800056 0.1462800056  -999.250000 0.3995000124 0.3961000144
 1730.5507800 2.1693000793 143.77139282  -999.250000 68.474403381 0.3907999992 379.71136475 379.71136475  -999.250000  -999.250000 5891.0000000 5891.0000000 5891.0000000 0.1096799970  -999.250000 0.1096799970 0.1096799970  -999.250000 0.4059999883 0.3993999958
 1730.7032500 2.1900000572 143.40339661  -999.250000 64.205902100 0.3537999988 376.59317017 376.59317017  -999.250000  -999.250000 5891.0000000 5891.0000000 5891.0000000 0.1273400038  -999.250000 0.1273400038 0.1273400038  -999.250000 0.4429000020 0.4374000132
 1730.8555900 2.1679999828 143.96020508  -999.250000 64.011398315 0.3732999861 386.42089844 386.42089844  -999.250000  -999.250000 5891.0000000 5891.0000000 5891.0000000 0.1016900018  -999.250000 0.1016900018 0.1016900018  -999.250000 0.4611000121 0.4528999925
 1731.0080600 2.1653997898 143.68080139  -999.250000 65.740402222 0.3851999938 385.59899902 385.59899902  -999.250000  -999.250000 5891.0000000 5891.0000000 5891.0000000 0.0941300020  -999.250000 0.0941300020 0.0941300020  -999.250000 0.4474000037 0.4379000068
 1731.1604000 2.1658999920 143.46067810  -999.250000 65.156898499 0.4020999968 395.56759644 395.56759644  -999.250000  -999.250000 5891.0000000 5891.0000000 5891.0000000 0.0965799987  -999.250000 0.0965799987 0.0965799987  -999.250000 0.4305999875 0.4318999946
 1731.3127400 2.1508998871 144.32879639  -999.250000 63.665599823 0.4569999874 415.18057251 415.18057251  -999.250000  -999.250000 5891.0000000 5891.0000000 5891.0000000 0.1091300026  -999.250000 0.1091300026 0.1091300026  -999.250000 0.4381000102 0.4372000098
 1731.4652100 2.1446001530 145.22290039  -999.250000 65.632301331 0.3905999959 399.64971924 399.64971924  -999.250000  -999.250000 5891.0000000 5891.0000000 5891.0000000 0.1142000034  -999.250000 0.1142000034 0.1142000034  -999.250000 0.4675000012 0.4616000056
 1731.6175500 2.1191999912 145.06559753  -999.250000 67.361396790 0.3817999959 411.38638306 411.38638306  -999.250000  -999.250000 5891.0000000 5891.0000000 5891.0000000 0.1817599982  -999.250000 0.1817599982 0.1817599982  -999.250000 0.4472000003 0.4456000030
 1731.7700200 2.1271998882 146.09170532  -999.250000 64.908302307 0.3625999987 426.64285278 426.64285278  -999.250000  -999.250000 5891.0000000 5891.0000000 5891.0000000 0.1901399940  -999.250000 0.1901399940 0.1901399940  -999.250000 0.4183000028 0.4151999950
 1731.9223600 2.1205999851 147.46180725  -999.250000 63.038799286 0.3546000123 421.54806519 421.54806519  -999.250000  -999.250000 5891.0000000 5891.0000000 5891.0000000 0.1913799942  -999.250000 0.1913799942 0.1913799942  -999.250000 0.4095000029 0.4093999863
 1732.0748300 2.1323001385 144.51379395  -999.250000 63.611598969 0.3763000071 409.43939209 409.43939209  -999.250000  -999.250000 5891.0000000 5891.0000000 5891.0000000 0.1814800054  -999.250000 0.1814800054 0.1814800054  -999.250000 0.4237999916 0.4190999866
 1732.2271700 2.1466000080 143.71640015  -999.250000 66.431999207 0.3443000019 385.03286743 385.03286743  -999.250000  -999.250000 5891.0000000 5891.0000000 5891.0000000 0.1331000030  -999.250000 0.1331000030 0.1331000030  -999.250000 0.4438999891 0.4320000112
 1732.3796400 2.1631000042 143.80029297  -999.250000 70.624801636 0.3540999889 376.95904541 376.95904541  -999.250000  -999.250000 5891.0000000 5891.0000000 5891.0000000 0.0921500027  -999.250000 0.0921500027 0.0921500027  -999.250000 0.4320000112 0.4300999939
 1732.5319800 2.1559998989 144.13710022  -999.250000 71.619003296 0.3652999997 378.93457031 378.93457031  -999.250000  -999.250000 5891.0000000 5891.0000000 5891.0000000 0.0868100002  -999.250000 0.0868100002 0.0868100002  -999.250000 0.4208999872 0.4133999944
 1732.6844500 2.1414999962 143.60639954  -999.250000 70.235801697 0.3540999889 378.12194824 378.12194824  -999.250000  -999.250000 5891.0000000 5891.0000000 5891.0000000 0.1558900028  -999.250000 0.1558900028 0.1558900028  -999.250000 0.4020000100 0.4018000066
 1732.8367900 2.1310000420 143.03961182  -999.250000 71.964797974 0.4221999943 397.47958374 397.47958374  -999.250000  -999.250000 5891.0000000 5891.0000000 5891.0000000 0.1448200047  -999.250000 0.1448200047 0.1448200047  -999.250000 0.4305000007 0.4217999876
 1732.9892600 2.1406998634 144.11239624  -999.250000 74.709602356 0.4072000086 393.23904419 393.23904419  -999.250000  -999.250000 5891.0000000 5891.0000000 5891.0000000 0.1292199939  -999.250000 0.1292199939 0.1292199939  -999.250000 0.4458999932 0.4350000024
 1733.1416000 2.1361999512 144.49380493  -999.250000 70.549201965 0.4093999863 406.03414917 406.03414917  -999.250000  -999.250000 5891.0000000 5891.0000000 5891.0000000 0.1374100000  -999.250000 0.1374100000 0.1374100000  -999.250000 0.4146000147 0.4093999863
 1733.2939500 2.1258997917 144.12467957  -999.250000 60.034698486 0.3725000024 382.85287476 382.85287476  -999.250000  -999.250000 5891.0000000 5891.0000000 5891.0000000 0.1675100029  -999.250000 0.1675100029 0.1675100029  -999.250000 0.3838000000 0.3813999891
 1733.4464100 2.1131000519 142.90429688  -999.250000 53.540100098 0.3670000136 350.33190918 350.33190918  -999.250000  -999.250000 5860.0000000 5860.0000000 5860.0000000 0.2048700005  -999.250000 0.2048700005 0.2048700005  -999.250000 0.3916000128 0.3851999938
