# LAS format log file from PETREL
# Project units are specified as depth units
#==================================================================
~Version information
VERS.   2.0:
WRAP.   NO:
#==================================================================
~Well
STRT .m      132.02721000 :
STOP .m      2054.8579100 :
STEP .m     0.00000000 :
NULL .        -999.250000 :
COMP.           : COMPANY
WELL.  16/1-12   : WELL
FLD.            : FIELD
LOC.            : LOCATION
SRVC.           : SERVICE COMPANY
DATE.  2018-06-09 11:11:56   : Log Export Date {yyyy-MM-dd HH:mm:ss}
PROV.           : PROVINCE
UWI.   6166   : UNIQUE WELL ID
API.            : API NUMBER
#==================================================================
~Curve
DEPT .m                   : DEPTH
DEN .g/cm3                : DEN
DT .us/ft                 : DT
DTS .us/ft                : DTS
GR .gAPI                  : GR
NPHI .m3/m3               : NPHI
DTS_i7 ._                 : DTS_i7
DTS_mlFilled ._           : DTS_mlFilled
LITHesa10 ._              : LITHesa10
LITHesa9_filtr ._         : LITHesa9_filtr
LITHesa9_i4 ._            : LITHesa9_i4
LITHesa9_i8 ._            : LITHesa9_i8
LITHesa9_i8i4 ._          : LITHesa9_i8i4
PHIE_i7 ._                : PHIE_i7
PHIE_i8 ._                : PHIE_i8
PHIE_i8i7 ._              : PHIE_i8i7
PHIE_mlfilled ._          : PHIE_mlfilled
PHIEed ._                 : PHIEed
RDEP ._                   : RDEP
RMED ._                   : RMED
~Parameter
#==================================================================
~Ascii
# ...
 1851.7087400 2.2898998260 86.604896545 167.06140137 47.497798920 0.2858999968 167.91566467 167.06140137 5877.0000000 5877.0000000 5877.0000000 5877.0000000 5877.0000000 0.1557299942  -999.250000 0.1557299942 0.1557299942  -999.250000 1.2874000072 1.1126999855
 1851.8612100 2.2783999443 87.209701538 167.08819580 45.650600433 0.2775000036 167.87171936 167.08819580 5877.0000000 5877.0000000 5877.0000000 5877.0000000 5877.0000000 0.1956499964  -999.250000 0.1956499964 0.1956499964  -999.250000 0.9894999862 0.8676000237
 1852.0135500 2.2573997974 88.217597961 168.68269348 43.429000854 0.2815999985 171.76835632 168.68269348 5877.0000000 5877.0000000 5877.0000000 5877.0000000 5877.0000000 0.1943300068  -999.250000 0.1943300068 0.1943300068  -999.250000 0.8256999850 0.7355999947
 1852.1660200 2.2393999100 88.269203186 169.93661499 44.420299530 0.2847999930 173.05828857 169.93659973 5877.0000000 5877.0000000 5877.0000000 5877.0000000 5877.0000000 0.2288399935  -999.250000 0.2288399935 0.2288399935  -999.250000 0.7357000113 0.6636000276
 1852.3183600 2.2348999977 87.087799072 169.28419495 45.606700897 0.3082000017 179.27700806 169.28419495 5877.0000000 5877.0000000 5877.0000000 5877.0000000 5877.0000000 0.2054200023  -999.250000 0.2054200023 0.2054200023  -999.250000 0.7178999782 0.6477000117
 1852.4708300 2.2455000877 86.370101929 166.34651184 47.828300476 0.3292999864 177.50469971 166.34649658 5877.0000000 5877.0000000 5877.0000000 5877.0000000 5877.0000000 0.1546600014  -999.250000 0.1546600014 0.1546600014  -999.250000 0.8072999716 0.7263000011
 1852.6231700 2.2597000599 86.231903076 165.67840576 46.183200836 0.3107999861 178.50288391 165.67840576 5877.0000000 5877.0000000 5877.0000000 5877.0000000 5877.0000000 0.1897799969  -999.250000 0.1897799969 0.1897799969  -999.250000 0.8932999969 0.8029000163
 1852.7756300 2.2653000355 86.455406189 166.59019470 43.854301453 0.2894999981 167.54730225 166.59019470 5877.0000000 5877.0000000 5877.0000000 5877.0000000 5877.0000000 0.1591600031  -999.250000 0.1591600031 0.1591600031  -999.250000 0.9208999872 0.8331999779
 1852.9279800 2.2648999691 86.609596252 169.08792114 40.751098633 0.2811999917 166.54229736 169.08790588 5877.0000000 5877.0000000 5877.0000000 5877.0000000 5877.0000000 0.1847600043  -999.250000 0.1847600043 0.1847600043  -999.250000 1.0138000250 0.9247000217
 1853.0804400 2.2783999443 86.665199280 170.39689636 41.845500946 0.2973999977 168.89758301 170.39689636 5877.0000000 5877.0000000 5877.0000000 5877.0000000 5877.0000000 0.1344799995  -999.250000 0.1344799995 0.1344799995  -999.250000 0.9715999961 0.8866000175
 1853.2327900 2.2932000160 86.532600403 169.67327881 43.297901154 0.2991000116 168.30986023 169.67329407 5877.0000000 5877.0000000 5877.0000000 5877.0000000 5877.0000000 0.1585800052  -999.250000 0.1585800052 0.1585800052  -999.250000 0.9474999905 0.8557000160
 1853.3852500 2.3018999100 86.883598328 168.44990540 43.401500702 0.2885000110 167.64628601 168.44990540 5877.0000000 5877.0000000 5877.0000000 5877.0000000 5877.0000000 0.1710200012  -999.250000 0.1710200012 0.1710200012  -999.250000 1.3279000521 1.1729999781
 1853.5376000 2.2898998260 87.349601746 167.36151123 41.094898224 0.2759999931 167.39428711 167.36149597 5877.0000000 5877.0000000 5877.0000000 5877.0000000 5877.0000000 0.1760399938  -999.250000 0.1760399938 0.1760399938  -999.250000 0.9893000126 0.8780999780
 1853.6899400 2.2843000889 87.059402466 168.85398865 40.784999847 0.2881000042 168.24082947 168.85400391 5877.0000000 5877.0000000 5877.0000000 5877.0000000 5877.0000000 0.1342300028  -999.250000 0.1342300028 0.1342300028  -999.250000 0.9174000025 0.8118000031
 1853.8424100 2.2901000977 85.845001221 167.25410461 40.784999847 0.2960000038 167.70303345 167.25410461 5877.0000000 5877.0000000 5877.0000000 5877.0000000 5877.0000000 0.1637600064  -999.250000 0.1637600064 0.1637600064  -999.250000 1.0593999624 0.9355999827
 1853.9947500 2.3150000572 84.655502319 162.83259583 43.791900635 0.2831999958 164.47247314 162.83259583 5877.0000000 5877.0000000 5877.0000000 5877.0000000 5877.0000000 0.1676599979  -999.250000 0.1676599979 0.1676599979  -999.250000 1.1450999975 1.0095000267
 1854.1472200 2.3413999081 84.334594727 161.32299805 44.427501678 0.2565999925 162.74073792 161.32299805 5877.0000000 5877.0000000 5877.0000000 5877.0000000 5877.0000000 0.1552200019  -999.250000 0.1552200019 0.1552200019  -999.250000 1.1082999706 0.9839000106
 1854.2995600 2.3610000610 85.056701660 161.39961243 45.425899506 0.2460999936 169.59103394 161.39959717 5877.0000000 5877.0000000 5877.0000000 5877.0000000 5877.0000000 0.1132699996  -999.250000 0.1132699996 0.1132699996  -999.250000 1.8964999914 1.6806999445
 1854.4520300 2.3599998951 85.503402710 164.36590576 42.011398315 0.2752999961 167.93513489 164.36590576 5877.0000000 5877.0000000 5877.0000000 5877.0000000 5877.0000000 0.1244900003  -999.250000 0.1244900003 0.1244900003  -999.250000 1.4160000086 1.2654000521
 1854.6043700 2.3486001492 86.679306030 166.34910583 40.916999817 0.2957000136 167.20234680 166.34910583 5877.0000000 5877.0000000 5877.0000000 5877.0000000 5877.0000000 0.1365000010  -999.250000 0.1365000010 0.1365000010  -999.250000 1.3372999430 1.1947000027
 1854.7568400 2.3357999325 87.019203186 166.99079895 39.406299591 0.2971000075 167.50775146 166.99079895 5877.0000000 5877.0000000 5877.0000000 5877.0000000 5877.0000000 0.1196900010  -999.250000 0.1196900010 0.1196900010  -999.250000 1.2073999643 1.0774999857
 1854.9091800 2.3304998875 86.951896667 166.59069824 38.375598907 0.2779000103 166.36311340 166.59069824 5877.0000000 5877.0000000 5877.0000000 5877.0000000 5877.0000000 0.1510899961  -999.250000 0.1510899961 0.1510899961  -999.250000 1.1540999413 1.0283999443
 1855.0616500 2.3334000111 86.536201477 165.55232239 39.470001221 0.2612000108 165.71937561 165.55230713 5877.0000000 5877.0000000 5877.0000000 5877.0000000 5877.0000000 0.1436599940  -999.250000 0.1436599940 0.1436599940  -999.250000 1.4526000023 1.2848000526
 1855.2139900 2.3338999748 85.746200562 164.82760620 40.502899170 0.2651000023 165.43275452 164.82760620 5877.0000000 5877.0000000 5877.0000000 5877.0000000 5877.0000000 0.1327700019  -999.250000 0.1327700019 0.1327700019  -999.250000 1.5532000065 1.3724999428
 1855.3664600 2.3405001163 85.500198364 164.16200256 41.831100464 0.2644000053 163.71841431 164.16200256 5877.0000000 5877.0000000 5877.0000000 5877.0000000 5877.0000000 0.1530700028  -999.250000 0.1530700028 0.1530700028  -999.250000 1.1906000376 1.0599000454
 1855.5188000 2.3420000076 85.964805603 164.27340698 39.958698273 0.2585000098 164.30181885 164.27340698 5877.0000000 5877.0000000 5877.0000000 5877.0000000 5877.0000000 0.1307599992  -999.250000 0.1307599992 0.1307599992  -999.250000 1.2208000422 1.0978000164
 1855.6711400 2.3471000195 85.154106140 164.27371216 39.132301331 0.2489999980 164.88421631 164.27369690 5877.0000000 5877.0000000 5877.0000000 5877.0000000 5877.0000000 0.0938699991  -999.250000 0.0938699991 0.0938699991  -999.250000 1.6778999567 1.5146000385
 1855.8236100 2.3486001492 84.625000000 164.22212219 40.557800293 0.2494000047 169.24868774 164.22210693 5877.0000000 5877.0000000 5877.0000000 5877.0000000 5877.0000000 0.1343300045  -999.250000 0.1343300045 0.1343300045  -999.250000 1.4840999842 1.3521000147
 1855.9759500 2.3431000710 84.566497803 163.28930664 40.674598694 0.2675000131 164.28851318 163.28930664 5877.0000000 5877.0000000 5877.0000000 5877.0000000 5877.0000000 0.1459999979  -999.250000 0.1459999979 0.1459999979  -999.250000 1.5685000420 1.4285000563
 1856.1284200 2.3304998875 85.077400208 163.85470581 42.630199432 0.2721999884 163.84924316 163.85470581 5877.0000000 5877.0000000 5877.0000000 5877.0000000 5877.0000000 0.1477700025  -999.250000 0.1477700025 0.1477700025  -999.250000 1.1261999607 1.0427999496
 1856.2807600 2.3121001720 86.295799255 166.28230286 45.171901703 0.2711000144 165.21272278 166.28230286 5877.0000000 5877.0000000 5877.0000000 5877.0000000 5877.0000000 0.1560000032  -999.250000 0.1560000032 0.1560000032  -999.250000 1.1936000586 1.1195000410
