# LAS format log file from PETREL
# Project units are specified as depth units
#==================================================================
~Version information
VERS.   2.0:
WRAP.   NO:
#==================================================================
~Well
STRT .m      132.02721000 :
STOP .m      2054.8579100 :
STEP .m     0.00000000 :
NULL .        -999.250000 :
COMP.           : COMPANY
WELL.  16/1-12   : WELL
FLD.            : FIELD
LOC.            : LOCATION
SRVC.           : SERVICE COMPANY
DATE.  2018-06-09 11:11:56   : Log Export Date {yyyy-MM-dd HH:mm:ss}
PROV.           : PROVINCE
UWI.   6166   : UNIQUE WELL ID
API.            : API NUMBER
#==================================================================
~Curve
DEPT .m                   : DEPTH
DEN .g/cm3                : DEN
DT .us/ft                 : DT
DTS .us/ft                : DTS
GR .gAPI                  : GR
NPHI .m3/m3               : NPHI
DTS_i7 ._                 : DTS_i7
DTS_mlFilled ._           : DTS_mlFilled
LITHesa10 ._              : LITHesa10
LITHesa9_filtr ._         : LITHesa9_filtr
LITHesa9_i4 ._            : LITHesa9_i4
LITHesa9_i8 ._            : LITHesa9_i8
LITHesa9_i8i4 ._          : LITHesa9_i8i4
PHIE_i7 ._                : PHIE_i7
PHIE_i8 ._                : PHIE_i8
PHIE_i8i7 ._              : PHIE_i8i7
PHIE_mlfilled ._          : PHIE_mlfilled
PHIEed ._                 : PHIEed
RDEP ._                   : RDEP
RMED ._                   : RMED
~Parameter
#==================================================================
~Ascii
# ...
 1450.1347700 2.0102000237 139.64959717  -999.250000 99.628898621 0.3610999882 363.63937378 363.63937378 5891.0000000 5891.0000000 5891.0000000 5891.0000000 5891.0000000  -999.250000  -999.250000  -999.250000  -999.250000  -999.250000 0.6725999713 0.6687999964
 1450.2872300 2.0097999573 139.48620605  -999.250000 100.56900024 0.3740999997 366.35342407 366.35342407 5891.0000000 5891.0000000 5891.0000000 5891.0000000 5891.0000000  -999.250000  -999.250000  -999.250000  -999.250000  -999.250000 0.7141000032 0.7154999971
 1450.4395800 2.0148000717 141.44689941  -999.250000 101.50920105 0.4347000122 380.94891357 380.94891357 5891.0000000 5891.0000000 5891.0000000 5891.0000000 5891.0000000  -999.250000  -999.250000  -999.250000  -999.250000  -999.250000 0.6933000088 0.6991000175
 1450.5920400 2.0320000648 143.28489685  -999.250000 100.35289764 0.3738999963 375.42794800 375.42794800 5891.0000000 5891.0000000 5891.0000000 5891.0000000 5891.0000000  -999.250000  -999.250000  -999.250000  -999.250000  -999.250000 0.6833000183 0.6854000092
 1450.7443800 2.0673000813 144.57290649  -999.250000 99.347900391 0.3761999905 382.49856567 382.49856567 5891.0000000 5891.0000000 5891.0000000 5891.0000000 5891.0000000  -999.250000  -999.250000  -999.250000  -999.250000  -999.250000 0.6667000055 0.6743000150
 1450.8968500 2.0868999958 143.29769897  -999.250000 99.715301514 0.4004999995 387.88922119 387.88922119 5891.0000000 5891.0000000 5891.0000000 5891.0000000 5891.0000000  -999.250000  -999.250000  -999.250000  -999.250000  -999.250000 0.6498000026 0.6567999721
 1451.0491900 2.0711998940 139.67140198  -999.250000 98.699501038 0.3795000017 384.38931274 384.38931274 5891.0000000 5891.0000000 5891.0000000 5891.0000000 5891.0000000  -999.250000  -999.250000  -999.250000  -999.250000  -999.250000 0.6327999830 0.6406999826
 1451.2016600 2.0125000477 137.95480347  -999.250000 93.696197510 0.3858999908 352.58218384 352.58218384 5891.0000000 5891.0000000 5891.0000000 5891.0000000 5891.0000000  -999.250000  -999.250000  -999.250000  -999.250000  -999.250000 0.6934000254 0.6868000031
 1451.3540000 1.9723000526 136.47790527  -999.250000 86.899101257 0.4323999882 357.42294312 357.42294312 5891.0000000 5891.0000000 5891.0000000 5891.0000000 5891.0000000  -999.250000  -999.250000  -999.250000  -999.250000  -999.250000 0.7473999858 0.7376000285
 1451.5063500 1.9731999636 137.83709717  -999.250000 85.915702820 0.4169999957 357.17724609 357.17724609 5891.0000000 5891.0000000 5891.0000000 5891.0000000 5891.0000000  -999.250000  -999.250000  -999.250000  -999.250000  -999.250000 0.7404999733 0.7329000235
 1451.6588100 2.0174000263 138.54602051  -999.250000 91.480903625 0.4235000014 354.77801514 354.77801514 5891.0000000 5891.0000000 5891.0000000 5891.0000000 5891.0000000  -999.250000  -999.250000  -999.250000  -999.250000  -999.250000 0.6969000101 0.6996999979
 1451.8111600 2.0427000523 141.09030151  -999.250000 97.662200928 0.4201999903 366.90457153 366.90457153 5891.0000000 5891.0000000 5891.0000000 5891.0000000 5891.0000000  -999.250000  -999.250000  -999.250000  -999.250000  -999.250000 0.6585999727 0.6657999754
 1451.9636200 2.0736000538 142.09350586  -999.250000 101.46600342 0.4199999869 395.20364380 395.20364380 5891.0000000 5891.0000000 5891.0000000 5891.0000000 5891.0000000  -999.250000  -999.250000  -999.250000  -999.250000  -999.250000 0.6349999905 0.6445000172
 1452.1159700 2.0891001225 146.06449890  -999.250000 103.69200134 0.4490999877 397.86306763 397.86306763 5891.0000000 5891.0000000 5891.0000000 5891.0000000 5891.0000000  -999.250000  -999.250000  -999.250000  -999.250000  -999.250000 0.6284999847 0.6334000230
 1452.2684300 2.1088998318 144.66900635  -999.250000 103.41110229 0.3876000047 388.00708008 388.00708008 5891.0000000 5891.0000000 5891.0000000 5891.0000000 5891.0000000  -999.250000  -999.250000  -999.250000  -999.250000  -999.250000 0.6230000257 0.6226000190
 1452.4207800 2.0903000832 144.17900085  -999.250000 100.03949738 0.3693000078 402.35839844 402.35839844 5891.0000000 5891.0000000 5891.0000000 5891.0000000 5891.0000000  -999.250000  -999.250000  -999.250000  -999.250000  -999.250000 0.6152999997 0.6130999923
 1452.5732400 2.0666000843 142.60820007  -999.250000 98.461799622 0.4160000086 382.56195068 382.56195068 5891.0000000 5891.0000000 5891.0000000 5891.0000000 5891.0000000  -999.250000  -999.250000  -999.250000  -999.250000  -999.250000 0.6144999862 0.6208000183
 1452.7255900 2.0648000240 141.92810059  -999.250000 100.38529968 0.4153999984 382.57870483 382.57870483 5891.0000000 5891.0000000 5891.0000000 5891.0000000 5891.0000000  -999.250000  -999.250000  -999.250000  -999.250000  -999.250000 0.6463999748 0.6480000019
 1452.8780500 2.0828001499 142.30769348  -999.250000 103.67040253 0.4553999901 383.52655029 383.52655029 5891.0000000 5891.0000000 5891.0000000 5891.0000000 5891.0000000  -999.250000  -999.250000  -999.250000  -999.250000  -999.250000 0.6606000066 0.6585999727
 1453.0304000 2.1113998890 140.93280029  -999.250000 104.18910217 0.4302999973 368.86196899 368.86196899 5891.0000000 5891.0000000 5891.0000000 5891.0000000 5891.0000000  -999.250000  -999.250000  -999.250000  -999.250000  -999.250000 0.6348000169 0.6407999992
 1453.1827400 2.1183998585 144.64630127  -999.250000 101.33630371 0.4896000028 400.28213501 400.28213501 5891.0000000 5891.0000000 5891.0000000 5891.0000000 5891.0000000  -999.250000  -999.250000  -999.250000  -999.250000  -999.250000 0.6258000135 0.6334000230
 1453.3352100 2.1241002083 143.30999756  -999.250000 100.11519623 0.4110000134 386.18911743 386.18911743 5891.0000000 5891.0000000 5891.0000000 5891.0000000 5891.0000000  -999.250000  -999.250000  -999.250000  -999.250000  -999.250000 0.6187000275 0.6259999871
 1453.4875500 2.1138000488 144.31709290  -999.250000 102.04949951 0.4246999919 392.01733398 392.01733398 5891.0000000 5891.0000000 5891.0000000 5891.0000000 5891.0000000  -999.250000  -999.250000  -999.250000  -999.250000  -999.250000 0.5971999764 0.6033999920
 1453.6400100 2.1178998947 144.84350586  -999.250000 104.71859741 0.4399000108 403.06179810 403.06179810 5891.0000000 5891.0000000 5891.0000000 5891.0000000 5891.0000000  -999.250000  -999.250000  -999.250000  -999.250000  -999.250000 0.6021000147 0.6000000238
 1453.7923600 2.1145000458 141.42419434  -999.250000 105.46430206 0.4507000148 386.78915405 386.78915405 5891.0000000 5891.0000000 5891.0000000 5891.0000000 5891.0000000  -999.250000  -999.250000  -999.250000  -999.250000  -999.250000 0.6184999943 0.6183999777
 1453.9448200 2.0992000103 142.55540466  -999.250000 103.06529999 0.5403000116 400.07196045 400.07196045 5891.0000000 5891.0000000 5891.0000000 5891.0000000 5891.0000000  -999.250000  -999.250000  -999.250000  -999.250000  -999.250000 0.6406000257 0.6388999820
 1454.0971700 2.0701999664 143.58770752  -999.250000 99.812599182 0.4799999893 394.66195679 394.66195679 5891.0000000 5891.0000000 5891.0000000 5891.0000000 5891.0000000  -999.250000  -999.250000  -999.250000  -999.250000  -999.250000 0.6585999727 0.6583999991
 1454.2496300 2.0436000824 142.63609314  -999.250000 100.45010376 0.4508999884 395.19409180 395.19409180 5891.0000000 5891.0000000 5891.0000000 5891.0000000 5891.0000000  -999.250000  -999.250000  -999.250000  -999.250000  -999.250000 0.6431000233 0.6470999718
 1454.4019800 2.0673999786 143.58560181  -999.250000 103.69200134 0.4338000119 399.55731201 399.55731201 5891.0000000 5891.0000000 5891.0000000 5891.0000000 5891.0000000  -999.250000  -999.250000  -999.250000  -999.250000  -999.250000 0.6136000156 0.6189000010
 1454.5544400 2.0961999893 140.49259949  -999.250000 106.89070129 0.4918000102 392.42492676 392.42492676 5891.0000000 5891.0000000 5891.0000000 5891.0000000 5891.0000000  -999.250000  -999.250000  -999.250000  -999.250000  -999.250000 0.5982000232 0.6032999754
 1454.7067900 2.1223998070 140.74490356  -999.250000 112.36949921 0.4178999960 374.88171387 374.88171387 5891.0000000 5891.0000000 5891.0000000 5891.0000000 5891.0000000  -999.250000  -999.250000  -999.250000  -999.250000  -999.250000 0.5727999806 0.5785999894
