# LAS format log file from PETREL
# Project units are specified as depth units
#==================================================================
~Version information
VERS.   2.0:
WRAP.   NO:
#==================================================================
~Well
STRT .m      132.02721000 :
STOP .m      2054.8579100 :
STEP .m     0.00000000 :
NULL .        -999.250000 :
COMP.           : COMPANY
WELL.  16/1-12   : WELL
FLD.            : FIELD
LOC.            : LOCATION
SRVC.           : SERVICE COMPANY
DATE.  2018-06-09 11:11:56   : Log Export Date {yyyy-MM-dd HH:mm:ss}
PROV.           : PROVINCE
UWI.   6166   : UNIQUE WELL ID
API.            : API NUMBER
#==================================================================
~Curve
DEPT .m                   : DEPTH
DEN .g/cm3                : DEN
DT .us/ft                 : DT
DTS .us/ft                : DTS
GR .gAPI                  : GR
NPHI .m3/m3               : NPHI
DTS_i7 ._                 : DTS_i7
DTS_mlFilled ._           : DTS_mlFilled
LITHesa10 ._              : LITHesa10
LITHesa9_filtr ._         : LITHesa9_filtr
LITHesa9_i4 ._            : LITHesa9_i4
LITHesa9_i8 ._            : LITHesa9_i8
LITHesa9_i8i4 ._          : LITHesa9_i8i4
PHIE_i7 ._                : PHIE_i7
PHIE_i8 ._                : PHIE_i8
PHIE_i8i7 ._              : PHIE_i8i7
PHIE_mlfilled ._          : PHIE_mlfilled
PHIEed ._                 : PHIEed
RDEP ._                   : RDEP
RMED ._                   : RMED
~Parameter
#==================================================================
~Ascii
# ...
 1634.3863500 2.0346999168 120.49739838  -999.250000 38.984100342 0.2998000085 264.19824219 264.19824219 5868.0000000 5868.0000000 5868.0000000 5868.0000000 5868.0000000  -999.250000  -999.250000  -999.250000  -999.250000  -999.250000 0.3188999891 0.3154999912
 1634.5388200 2.0364000797 120.44260406  -999.250000 37.082199097 0.2984000146 262.07574463 262.07574463 5868.0000000 5868.0000000 5868.0000000 5868.0000000 5868.0000000  -999.250000  -999.250000  -999.250000  -999.250000  -999.250000 0.3142000139 0.3082999885
 1634.6911600 2.0493998528 119.97019958  -999.250000 37.730499268 0.3010999858 257.90588379 257.90588379 5868.0000000 5868.0000000 5868.0000000 5868.0000000 5868.0000000  -999.250000  -999.250000  -999.250000  -999.250000  -999.250000 0.3181999922 0.3156999946
 1634.8436300 2.0508999825 119.03949738  -999.250000 37.903400421 0.3479999900 250.50469971 250.50469971 5868.0000000 5868.0000000 5868.0000000 5868.0000000 5868.0000000  -999.250000  -999.250000  -999.250000  -999.250000  -999.250000 0.3233999908 0.3215000033
 1634.9959700 2.0434000492 118.28649902  -999.250000 37.514400482 0.3009999990 247.61328125 247.61328125 5868.0000000 5868.0000000 5868.0000000 5868.0000000 5868.0000000  -999.250000  -999.250000  -999.250000  -999.250000  -999.250000 0.3273000121 0.3285999894
 1635.1484400 2.0546000004 117.94000244  -999.250000 39.848598480 0.2894999981 253.63677979 253.63677979  -999.250000  -999.250000 5868.0000000 5868.0000000 5868.0000000  -999.250000  -999.250000  -999.250000  -999.250000  -999.250000 0.3420999944 0.3343999982
 1635.3007800 2.0652999878 117.44719696  -999.250000 44.300701141 0.2973999977 252.47807312 252.47807312 5868.0000000 5868.0000000 5868.0000000 5868.0000000 5868.0000000  -999.250000  -999.250000  -999.250000  -999.250000  -999.250000 0.3370000124 0.3357000053
 1635.4532500 2.0738000870 117.55599976  -999.250000 46.245899200 0.2888000011 254.83097839 254.83097839 5868.0000000 5868.0000000 5868.0000000 5868.0000000 5868.0000000  -999.250000  -999.250000  -999.250000  -999.250000  -999.250000 0.3490000069 0.3386000097
 1635.6055900 2.0610001087 117.38169861  -999.250000 45.770401001 0.3332000077 255.12736511 255.12736511 5868.0000000 5868.0000000 5868.0000000 5868.0000000 5868.0000000  -999.250000  -999.250000  -999.250000  -999.250000  -999.250000 0.3495000005 0.3458000124
 1635.7580600 2.0422999859 117.79759979  -999.250000 45.446201324 0.2809999883 245.43429565 245.43429565 5868.0000000 5868.0000000 5868.0000000 5868.0000000 5868.0000000  -999.250000  -999.250000  -999.250000  -999.250000  -999.250000 0.3411999941 0.3366000056
 1635.9104000 2.0334999561 118.48789978  -999.250000 45.273300171 0.2791000009 248.11564636 248.11564636 5868.0000000 5868.0000000 5868.0000000 5868.0000000 5868.0000000  -999.250000  -999.250000  -999.250000  -999.250000  -999.250000 0.3147000074 0.3134000003
 1636.0627400 2.0334999561 119.99660492  -999.250000 44.365600586 0.2698000073 262.81723022 262.81723022 5868.0000000 5868.0000000 5868.0000000 5868.0000000 5868.0000000  -999.250000  -999.250000  -999.250000  -999.250000  -999.250000 0.3143000007 0.3129000068
 1636.2152100 2.0465998650 119.30259705  -999.250000 44.084598541 0.2606999874 252.56724548 252.56724548 5868.0000000 5868.0000000 5868.0000000 5868.0000000 5868.0000000  -999.250000  -999.250000  -999.250000  -999.250000  -999.250000 0.3107999861 0.3120000064
 1636.3675500 2.0395998955 117.22440338  -999.250000 45.986499786 0.2863000035 250.24942017 250.24942017 5868.0000000 5868.0000000 5868.0000000 5868.0000000 5868.0000000  -999.250000  -999.250000  -999.250000  -999.250000  -999.250000 0.3197000027 0.3167999983
 1636.5200200 2.0348000526 117.51039886  -999.250000 47.131999969 0.2493000031 249.33283997 249.33283997 5868.0000000 5868.0000000 5868.0000000 5868.0000000 5868.0000000  -999.250000  -999.250000  -999.250000  -999.250000  -999.250000 0.3219000101 0.3213000000
 1636.6723600 2.0302000046 117.76190186  -999.250000 46.591701508 0.2483000010 243.47373962 243.47373962 5868.0000000 5868.0000000 5868.0000000 5868.0000000 5868.0000000  -999.250000  -999.250000  -999.250000  -999.250000  -999.250000 0.3318000138 0.3287000060
 1636.8248300 2.0291998386 118.70860291  -999.250000 45.359798431 0.2502000034 243.66131592 243.66131592 5868.0000000 5868.0000000 5868.0000000 5868.0000000 5868.0000000  -999.250000  -999.250000  -999.250000  -999.250000  -999.250000 0.3318000138 0.3287000060
 1636.9771700 2.0445001125 119.05339813  -999.250000 44.062999725 0.2615999877 250.56803894 250.56803894 5868.0000000 5868.0000000 5868.0000000 5868.0000000 5868.0000000  -999.250000  -999.250000  -999.250000  -999.250000  -999.250000 0.3274999857 0.3258000016
 1637.1296400 2.0390999317 120.22170258  -999.250000 43.198501587 0.2705999911 260.60150146 260.60150146 5868.0000000 5868.0000000 5868.0000000 5868.0000000 5868.0000000  -999.250000  -999.250000  -999.250000  -999.250000  -999.250000 0.3341999948 0.3298000097
 1637.2819800 2.0439999104 122.67320251  -999.250000 39.329898834 0.3310999870 266.71405029 266.71405029 5868.0000000 5868.0000000 5868.0000000 5868.0000000 5868.0000000  -999.250000  -999.250000  -999.250000  -999.250000  -999.250000 0.3255999982 0.3246999979
 1637.4344500 2.0362999439 122.21070099  -999.250000 35.742198944 0.2976999879 265.69570923 265.69570923  -999.250000  -999.250000 5868.0000000 5868.0000000 5868.0000000  -999.250000  -999.250000  -999.250000  -999.250000  -999.250000 0.3269000053 0.3240999877
 1637.5867900 2.0320000648 119.78400421  -999.250000 39.200199127 0.3034999967 255.37715149 255.37715149 5868.0000000 5868.0000000 5868.0000000 5868.0000000 5868.0000000  -999.250000  -999.250000  -999.250000  -999.250000  -999.250000 0.3382999897 0.3296000063
 1637.7392600 2.0360000134 118.37779999  -999.250000 45.251701355 0.2888999879 250.30976868 250.30976868  -999.250000  -999.250000 5868.0000000 5868.0000000 5868.0000000  -999.250000  -999.250000  -999.250000  -999.250000  -999.250000 0.3477999866 0.3379000127
 1637.8916000 2.0415999889 116.70119476  -999.250000 47.909999847 0.2757000029 249.88502502 249.88502502 5868.0000000 5868.0000000 5868.0000000 5868.0000000 5868.0000000  -999.250000  -999.250000  -999.250000  -999.250000  -999.250000 0.3499000072 0.3427999914
 1638.0439500 2.0538001060 116.78790283  -999.250000 46.678100586 0.3068999946 260.47219849 260.47219849 5868.0000000 5868.0000000 5868.0000000 5868.0000000 5868.0000000  -999.250000  -999.250000  -999.250000  -999.250000  -999.250000 0.3510999978 0.3434999883
 1638.1964100 2.0562000275 117.39080048  -999.250000 42.787899017 0.2644000053 246.42457581 246.42457581 5868.0000000 5868.0000000 5868.0000000 5868.0000000 5868.0000000  -999.250000  -999.250000  -999.250000  -999.250000  -999.250000 0.3492999971 0.3416000009
 1638.3487500 2.0460999012 117.26860046  -999.250000 39.113700867 0.2615999877 245.30429077 245.30429077 5868.0000000 5868.0000000 5868.0000000 5868.0000000 5868.0000000  -999.250000  -999.250000  -999.250000  -999.250000  -999.250000 0.3467000127 0.3422000110
 1638.5012200 2.0493998528 117.10310364  -999.250000 38.184398651 0.2651000023 245.30429077 245.30429077 5868.0000000 5868.0000000 5868.0000000 5868.0000000 5868.0000000  -999.250000  -999.250000  -999.250000  -999.250000  -999.250000 0.3463000059 0.3429000080
 1638.6535600 2.0511000156 118.31089783  -999.250000 38.616600037 0.2570999861 246.53665161 246.53665161  -999.250000  -999.250000 5868.0000000 5868.0000000 5868.0000000  -999.250000  -999.250000  -999.250000  -999.250000  -999.250000 0.3519000113 0.3483000100
 1638.8060300 2.0608999729 119.98300171  -999.250000 37.600799561 0.2578000128 264.02777100 264.02777100 5868.0000000 5868.0000000 5868.0000000 5868.0000000 5868.0000000  -999.250000  -999.250000  -999.250000  -999.250000  -999.250000 0.3495000005 0.3495999873
 1638.9583700 2.0628998280 121.34180450  -999.250000 37.384700775 0.2987999916 264.73947144 264.73947144 5868.0000000 5868.0000000 5868.0000000 5868.0000000 5868.0000000  -999.250000  -999.250000  -999.250000  -999.250000  -999.250000 0.3382000029 0.3388999999
