# LAS format log file from PETREL
# Project units are specified as depth units
#==================================================================
~Version information
VERS.   2.0:
WRAP.   NO:
#==================================================================
~Well
STRT .m      132.02721000 :
STOP .m      2054.8579100 :
STEP .m     0.00000000 :
NULL .        -999.250000 :
COMP.           : COMPANY
WELL.  16/1-12   : WELL
FLD.            : FIELD
LOC.            : LOCATION
SRVC.           : SERVICE COMPANY
DATE.  2018-06-09 11:11:56   : Log Export Date {yyyy-MM-dd HH:mm:ss}
PROV.           : PROVINCE
UWI.   6166   : UNIQUE WELL ID
API.            : API NUMBER
#==================================================================
~Curve
DEPT .m                   : DEPTH
DEN .g/cm3                : DEN
DT .us/ft                 : DT
DTS .us/ft                : DTS
GR .gAPI                  : GR
NPHI .m3/m3               : NPHI
DTS_i7 ._                 : DTS_i7
DTS_mlFilled ._           : DTS_mlFilled
LITHesa10 ._              : LITHesa10
LITHesa9_filtr ._         : LITHesa9_filtr
LITHesa9_i4 ._            : LITHesa9_i4
LITHesa9_i8 ._            : LITHesa9_i8
LITHesa9_i8i4 ._          : LITHesa9_i8i4
PHIE_i7 ._                : PHIE_i7
PHIE_i8 ._                : PHIE_i8
PHIE_i8i7 ._              : PHIE_i8i7
PHIE_mlfilled ._          : PHIE_mlfilled
PHIEed ._                 : PHIEed
RDEP ._                   : RDEP
RMED ._                   : RMED
~Parameter
#==================================================================
~Ascii
# ...
 982.41919000 1.8206000328 150.36480713  -999.250000 79.715400696 0.4262000024 377.07806396 377.07806396  -999.250000  -999.250000 5891.0000000 5891.0000000 5891.0000000  -999.250000  -999.250000  -999.250000  -999.250000  -999.250000 1.0231000185 1.0255000591
 982.57159000 1.8129000664 152.24139404  -999.250000 80.572196960 0.4347999990 379.02938843 379.02938843  -999.250000  -999.250000 5891.0000000 5891.0000000 5891.0000000  -999.250000  -999.250000  -999.250000  -999.250000  -999.250000 1.0520999432 1.0491000414
 982.72400000 1.8055000305 153.96591187  -999.250000 78.294403076 0.4347000122 378.88787842 378.88787842  -999.250000  -999.250000 5891.0000000 5891.0000000 5891.0000000  -999.250000  -999.250000  -999.250000  -999.250000  -999.250000 1.0369999409 1.0367000103
 982.87640000 1.7958000898 152.80848694  -999.250000 76.162902832 0.4697999954 370.89157104 370.89157104  -999.250000  -999.250000 5891.0000000 5891.0000000 5891.0000000  -999.250000  -999.250000  -999.250000  -999.250000  -999.250000 1.0411000252 1.0417000055
 983.02881000 1.7884000540 152.34118652  -999.250000 77.395896912 0.5412999988 366.32614136 366.32614136  -999.250000  -999.250000 5891.0000000 5891.0000000 5891.0000000  -999.250000  -999.250000  -999.250000  -999.250000  -999.250000 1.0411000252 1.0417000055
 983.18121000 1.7886999846 152.22009277  -999.250000 79.924400330 0.5091000199 371.35589600 371.35589600  -999.250000  -999.250000 5891.0000000 5891.0000000 5891.0000000  -999.250000  -999.250000  -999.250000  -999.250000  -999.250000 1.0557999611 1.0555000305
 983.33362000 1.7949000597 151.71069336  -999.250000 83.414100647 0.5203999877 366.23956299 366.23956299  -999.250000  -999.250000 5891.0000000 5891.0000000 5891.0000000  -999.250000  -999.250000  -999.250000  -999.250000  -999.250000 1.0650000572 1.0586999655
 983.48602000 1.7993999720 150.19720459  -999.250000 84.814201355 0.5267999768 364.90115356 364.90115356  -999.250000  -999.250000 5891.0000000 5891.0000000 5891.0000000  -999.250000  -999.250000  -999.250000  -999.250000  -999.250000 1.0650000572 1.0586999655
 983.63843000 1.8011999130 147.83749390  -999.250000 83.852996826 0.4846999943 357.40353394 357.40353394  -999.250000  -999.250000 5891.0000000 5891.0000000 5891.0000000  -999.250000  -999.250000  -999.250000  -999.250000  -999.250000 1.0798000097 1.0726000071
 983.79077000 1.8008999825 146.75399780  -999.250000 84.124702454 0.4740999937 360.69839478 360.69839478  -999.250000  -999.250000 5891.0000000 5891.0000000 5891.0000000  -999.250000  -999.250000  -999.250000  -999.250000  -999.250000 1.1064000130 1.1060999632
 983.94318000 1.8032000065 145.80169678  -999.250000 84.730697632 0.4855000079 358.09323120 358.09323120  -999.250000  -999.250000 5891.0000000 5891.0000000 5891.0000000  -999.250000  -999.250000  -999.250000  -999.250000  -999.250000 1.1064000130 1.1060999632
 984.09558000 1.8018000126 145.39289856  -999.250000 83.685798645 0.4979000092 353.04840088 353.04840088  -999.250000  -999.250000 5891.0000000 5891.0000000 5891.0000000  -999.250000  -999.250000  -999.250000  -999.250000  -999.250000 1.1188000441 1.1160000563
 984.24799000 1.8161998987 145.97749329  -999.250000 83.205200195 0.5307999849 353.79000854 353.79000854  -999.250000  -999.250000 5891.0000000 5891.0000000 5891.0000000  -999.250000  -999.250000  -999.250000  -999.250000  -999.250000 1.1380000114 1.1286000013
 984.40039000 1.8424999714 145.97300720  -999.250000 84.250000000 0.5975000262 355.93817139 355.93817139  -999.250000  -999.250000 5891.0000000 5891.0000000 5891.0000000  -999.250000  -999.250000  -999.250000  -999.250000  -999.250000 1.1380000114 1.1286000013
 984.55280000 1.8719999790 145.51400757  -999.250000 85.279197693 0.4821000099 353.98599243 353.98599243  -999.250000  -999.250000 5891.0000000 5891.0000000 5891.0000000  -999.250000  -999.250000  -999.250000  -999.250000  -999.250000 1.1397000551 1.1457999945
 984.70520000 1.8854999542 145.22279358  -999.250000 85.263496399 0.4605999887 352.58291626 352.58291626  -999.250000  -999.250000 5891.0000000 5891.0000000 5891.0000000  -999.250000  -999.250000  -999.250000  -999.250000  -999.250000 1.1136000156 1.1152000427
 984.85760000 1.8730999231 144.50250244  -999.250000 83.043197632 0.5439000130 347.94323730 347.94323730  -999.250000  -999.250000 5891.0000000 5891.0000000 5891.0000000  -999.250000  -999.250000  -999.250000  -999.250000  -999.250000 1.1057000160 1.1068999767
 985.01001000 1.8580999374 145.50379944  -999.250000 81.094596863 0.5055000186 354.69232178 354.69232178  -999.250000  -999.250000 5891.0000000 5891.0000000 5891.0000000  -999.250000  -999.250000  -999.250000  -999.250000  -999.250000 1.1030999422 1.1075999737
 985.16241000 1.8400999308 146.97900391  -999.250000 81.658798218 0.4961999953 358.69848633 358.69848633  -999.250000  -999.250000 5891.0000000 5891.0000000 5891.0000000  -999.250000  -999.250000  -999.250000  -999.250000  -999.250000 1.0956000090 1.1016000509
 985.31482000 1.8253000975 147.63319397  -999.250000 83.623100281 0.5442000031 360.43026733 360.43026733  -999.250000  -999.250000 5891.0000000 5891.0000000 5891.0000000  -999.250000  -999.250000  -999.250000  -999.250000  -999.250000 1.1161999702 1.1186000109
 985.46722000 1.8100999594 146.16459656  -999.250000 87.447303772 0.4995000064 356.25555420 356.25555420 5891.0000000 5891.0000000 5891.0000000 5891.0000000 5891.0000000  -999.250000  -999.250000  -999.250000  -999.250000  -999.250000 1.1565999985 1.1563999653
 985.61963000 1.8036999702 144.43670654  -999.250000 90.790702820 0.5072000027 354.17239380 354.17239380 5891.0000000 5891.0000000 5891.0000000 5891.0000000 5891.0000000  -999.250000  -999.250000  -999.250000  -999.250000  -999.250000 1.2149000168 1.1995999813
 985.77197000 1.8115999699 144.53599548  -999.250000 88.700996399 0.5292000175 346.96908569 346.96908569 5891.0000000 5891.0000000 5891.0000000 5891.0000000 5891.0000000  -999.250000  -999.250000  -999.250000  -999.250000  -999.250000 1.2166999578 1.2045999765
 985.92438000 1.8279000521 145.45460510  -999.250000 83.184303284 0.7429999709 341.27359009 341.27359009  -999.250000  -999.250000 5891.0000000 5891.0000000 5891.0000000  -999.250000  -999.250000  -999.250000  -999.250000  -999.250000 1.1970000267 1.1935000420
 986.07678000 1.8456999063 145.53410339  -999.250000 79.485496521 0.6407999992 353.26498413 353.26498413  -999.250000  -999.250000 5891.0000000 5891.0000000 5891.0000000  -999.250000  -999.250000  -999.250000  -999.250000  -999.250000 1.1441999674 1.1572999954
 986.22919000 1.8485000134 144.96780396  -999.250000 78.440696716 0.5957999825 349.79483032 349.79483032  -999.250000  -999.250000 5891.0000000 5891.0000000 5891.0000000  -999.250000  -999.250000  -999.250000  -999.250000  -999.250000 1.1441999674 1.1572999954
 986.38159000 1.8555999994 143.97360229  -999.250000 79.485496521 0.5299000144 348.97650146 348.97650146  -999.250000  -999.250000 5891.0000000 5891.0000000 5891.0000000  -999.250000  -999.250000  -999.250000  -999.250000  -999.250000 1.0688999891 1.0835000277
 986.53400000 1.8574999571 139.92190552  -999.250000 81.512496948 0.5033000112 350.17855835 350.17855835  -999.250000  -999.250000 5891.0000000 5891.0000000 5891.0000000  -999.250000  -999.250000  -999.250000  -999.250000  -999.250000 1.0980999470 1.0973000526
 986.68640000 1.8740999699 139.89930725  -999.250000 83.623100281 0.4923999906 350.32449341 350.32449341  -999.250000  -999.250000 5891.0000000 5891.0000000 5891.0000000  -999.250000  -999.250000  -999.250000  -999.250000  -999.250000 1.0980999470 1.0973000526
 986.83881000 1.8870999813 139.43200684  -999.250000 84.897796631 0.4938000143 351.72390747 351.72390747  -999.250000  -999.250000 5891.0000000 5891.0000000 5891.0000000  -999.250000  -999.250000  -999.250000  -999.250000  -999.250000 1.1532000303 1.1255999804
 986.99121000 1.8919000626 141.49819946  -999.250000 83.017097473 0.4591000080 356.23159790 356.23159790  -999.250000  -999.250000 5891.0000000 5891.0000000 5891.0000000  -999.250000  -999.250000  -999.250000  -999.250000  -999.250000 1.0082000494 1.0270999670
