# LAS format log file from PETREL
# Project units are specified as depth units
#==================================================================
~Version information
VERS.   2.0:
WRAP.   NO:
#==================================================================
~Well
STRT .m      132.02721000 :
STOP .m      2054.8579100 :
STEP .m     0.00000000 :
NULL .        -999.250000 :
COMP.           : COMPANY
WELL.  16/1-12   : WELL
FLD.            : FIELD
LOC.            : LOCATION
SRVC.           : SERVICE COMPANY
DATE.  2018-06-09 11:11:56   : Log Export Date {yyyy-MM-dd HH:mm:ss}
PROV.           : PROVINCE
UWI.   6166   : UNIQUE WELL ID
API.            : API NUMBER
#==================================================================
~Curve
DEPT .m                   : DEPTH
DEN .g/cm3                : DEN
DT .us/ft                 : DT
DTS .us/ft                : DTS
GR .gAPI                  : GR
NPHI .m3/m3               : NPHI
DTS_i7 ._                 : DTS_i7
DTS_mlFilled ._           : DTS_mlFilled
LITHesa10 ._              : LITHesa10
LITHesa9_filtr ._         : LITHesa9_filtr
LITHesa9_i4 ._            : LITHesa9_i4
LITHesa9_i8 ._            : LITHesa9_i8
LITHesa9_i8i4 ._          : LITHesa9_i8i4
PHIE_i7 ._                : PHIE_i7
PHIE_i8 ._                : PHIE_i8
PHIE_i8i7 ._              : PHIE_i8i7
PHIE_mlfilled ._          : PHIE_mlfilled
PHIEed ._                 : PHIEed
RDEP ._                   : RDEP
RMED ._                   : RMED
~Parameter
#==================================================================
~Ascii
# ...
 887.93121000 1.9958000183 146.30110168  -999.250000 37.002201080 0.3429000080 412.87542725 412.87542725 5868.0000000 5868.0000000 5868.0000000 5868.0000000 5868.0000000  -999.250000  -999.250000  -999.250000  -999.250000  -999.250000 0.7608000040 0.7630000114
 888.08362000 2.0032000542 147.69509888  -999.250000 37.211200714 0.3391999900 417.54489136 417.54489136 5868.0000000 5868.0000000 5868.0000000 5868.0000000 5868.0000000  -999.250000  -999.250000  -999.250000  -999.250000  -999.250000 0.7608000040 0.7630000114
 888.23602000 2.0085000992 148.40989685  -999.250000 37.817199707 0.3355999887 420.58264160 420.58264160 5868.0000000 5868.0000000 5868.0000000 5868.0000000 5868.0000000  -999.250000  -999.250000  -999.250000  -999.250000  -999.250000 0.7603999972 0.7616999745
 888.38843000 2.0053000450 148.05990601  -999.250000 39.760601044 0.3325999975 419.10009766 419.10009766 5868.0000000 5868.0000000 5868.0000000 5868.0000000 5868.0000000  -999.250000  -999.250000  -999.250000  -999.250000  -999.250000 0.7603999972 0.7616999745
 888.54077000 2.0208001137 146.80909729  -999.250000 42.978698730 0.3607999980 416.92291260 416.92291260 5868.0000000 5868.0000000 5868.0000000 5868.0000000 5868.0000000  -999.250000  -999.250000  -999.250000  -999.250000  -999.250000 0.7641999722 0.7653999925
 888.69318000 2.0211999416 146.15130615  -999.250000 43.480300903 0.3093000054 416.77331543 416.77331543 5868.0000000 5868.0000000 5868.0000000 5868.0000000 5868.0000000  -999.250000  -999.250000  -999.250000  -999.250000  -999.250000 0.7803999782 0.7734000087
 888.84558000 2.0081000328 147.18550110  -999.250000 39.447200775 0.2948000133 416.86196899 416.86196899 5868.0000000 5868.0000000 5868.0000000 5868.0000000 5868.0000000  -999.250000  -999.250000  -999.250000  -999.250000  -999.250000 0.7803999782 0.7734000087
 888.99799000 1.9859000444 146.87609863  -999.250000 34.076698303 0.3025999963 417.50759888 417.50759888 5868.0000000 5868.0000000 5868.0000000 5868.0000000 5868.0000000  -999.250000  -999.250000  -999.250000  -999.250000  -999.250000 0.7738000154 0.7734000087
 889.15039000 2.0000000000 146.88079834  -999.250000 32.133300781 0.3039999902 414.91506958 414.91506958 5868.0000000 5868.0000000 5868.0000000 5868.0000000 5868.0000000  -999.250000  -999.250000  -999.250000  -999.250000  -999.250000 0.7670999765 0.7674000263
 889.30280000 2.0234000683 147.56959534  -999.250000 33.763198853 0.3127000034 419.83056641 419.83056641 5868.0000000 5868.0000000 5868.0000000 5868.0000000 5868.0000000  -999.250000  -999.250000  -999.250000  -999.250000  -999.250000 0.7653999925 0.7684000134
 889.45520000 2.0230000019 147.44889832  -999.250000 32.864700317 0.3052000105 420.00180054 420.00180054 5868.0000000 5868.0000000 5868.0000000 5868.0000000 5868.0000000  -999.250000  -999.250000  -999.250000  -999.250000  -999.250000 0.7663999796 0.7703999877
 889.60760000 1.9924000502 146.52369690  -999.250000 30.754100800 0.3398000002 413.82199097 413.82199097 5868.0000000 5868.0000000 5868.0000000 5868.0000000 5868.0000000  -999.250000  -999.250000  -999.250000  -999.250000  -999.250000 0.7731000185 0.7738999724
 889.76001000 1.9761999846 146.20230103  -999.250000 34.912498474 0.2984000146 410.96542358 410.96542358 5868.0000000 5868.0000000 5868.0000000 5868.0000000 5868.0000000  -999.250000  -999.250000  -999.250000  -999.250000  -999.250000 0.7767999768 0.7786999941
 889.91241000 1.9744999409 146.95930481  -999.250000 42.226501465 0.2879999876 415.28582764 415.28582764 5868.0000000 5868.0000000 5868.0000000 5868.0000000 5868.0000000  -999.250000  -999.250000  -999.250000  -999.250000  -999.250000 0.7767000198 0.7784000039
 890.06482000 1.9825999737 145.22760010  -999.250000 44.462398529 0.2964999974 399.41513062 399.41513062 5868.0000000 5868.0000000 5868.0000000 5868.0000000 5868.0000000  -999.250000  -999.250000  -999.250000  -999.250000  -999.250000 0.7692999840 0.7766000032
 890.21722000 1.9974000454 147.84140015  -999.250000 41.181598663 0.2953000069 418.17193604 418.17193604 5868.0000000 5868.0000000 5868.0000000 5868.0000000 5868.0000000  -999.250000  -999.250000  -999.250000  -999.250000  -999.250000 0.7774999738 0.7781000137
 890.36963000 2.0079998970 144.76170349  -999.250000 37.900798798 0.3441999853 395.98767090 395.98767090 5868.0000000 5868.0000000 5868.0000000 5868.0000000 5868.0000000  -999.250000  -999.250000  -999.250000  -999.250000  -999.250000 0.7759000063 0.7748000026
 890.52197000 2.0167000294 145.97529602  -999.250000 36.584300995 0.3143000007 412.41958618 412.41958618 5868.0000000 5868.0000000 5868.0000000 5868.0000000 5868.0000000  -999.250000  -999.250000  -999.250000  -999.250000  -999.250000 0.7710999846 0.7778000236
 890.67438000 2.0026998520 146.11480713  -999.250000 35.894699097 0.3350999951 415.31365967 415.31365967 5868.0000000 5868.0000000 5868.0000000 5868.0000000 5868.0000000  -999.250000  -999.250000  -999.250000  -999.250000  -999.250000 0.7710999846 0.7778000236
 890.82678000 2.0006999969 146.14720154  -999.250000 36.626098633 0.3605000079 414.00628662 414.00628662 5868.0000000 5868.0000000 5868.0000000 5868.0000000 5868.0000000  -999.250000  -999.250000  -999.250000  -999.250000  -999.250000 0.7764000297 0.7817999721
 890.97919000 1.9891999960 145.94529724  -999.250000 37.712699890 0.3571000099 412.25985718 412.25985718 5868.0000000 5868.0000000 5868.0000000 5868.0000000 5868.0000000  -999.250000  -999.250000  -999.250000  -999.250000  -999.250000 0.7875999808 0.7874000072
 891.13159000 1.9811999798 145.23219299  -999.250000 37.482799530 0.3366000056 391.86062622 391.86062622 5868.0000000 5868.0000000 5868.0000000 5868.0000000 5868.0000000  -999.250000  -999.250000  -999.250000  -999.250000  -999.250000 0.7879999876 0.7896000147
 891.28400000 1.9739999771 145.56159973  -999.250000 37.660499573 0.3616000116 411.20803833 411.20803833 5868.0000000 5868.0000000 5868.0000000 5868.0000000 5868.0000000  -999.250000  -999.250000  -999.250000  -999.250000  -999.250000 0.7951999903 0.7955999970
 891.43640000 1.9786999226 145.44239807  -999.250000 39.802398682 0.3305999935 405.52682495 405.52682495 5868.0000000 5868.0000000 5868.0000000 5868.0000000 5868.0000000  -999.250000  -999.250000  -999.250000  -999.250000  -999.250000 0.7947000265 0.8003000021
 891.58881000 1.9765000343 144.50970459  -999.250000 42.017501831 0.3348000050 387.02346802 387.02346802 5868.0000000 5868.0000000 5868.0000000 5868.0000000 5868.0000000  -999.250000  -999.250000  -999.250000  -999.250000  -999.250000 0.8005999923 0.7991999984
 891.74121000 1.9801999331 143.63859558  -999.250000 42.644401550 0.3389999866 389.48492432 389.48492432 5868.0000000 5868.0000000 5868.0000000 5868.0000000 5868.0000000  -999.250000  -999.250000  -999.250000  -999.250000  -999.250000 0.8026000261 0.8030999899
 891.89362000 1.9868999720 143.36219788  -999.250000 42.404098511 0.3260000050 387.32263184 387.32263184 5868.0000000 5868.0000000 5868.0000000 5868.0000000 5868.0000000  -999.250000  -999.250000  -999.250000  -999.250000  -999.250000 0.8004999757 0.8007000089
 892.04602000 2.0000998974 142.88940430  -999.250000 41.954799652 0.3892000020 392.15832520 392.15832520 5868.0000000 5868.0000000 5868.0000000 5868.0000000 5868.0000000  -999.250000  -999.250000  -999.250000  -999.250000  -999.250000 0.8054000139 0.8076999784
 892.19843000 2.0120999813 143.20140076  -999.250000 42.811599731 0.3617999852 394.30725098 394.30725098  -999.250000  -999.250000 5868.0000000 5868.0000000 5868.0000000  -999.250000  -999.250000  -999.250000  -999.250000  -999.250000 0.8138999939 0.8159999847
 892.35083000 2.0224001408 142.08540344  -999.250000 44.917999268 0.3612999916 391.55578613 391.55578613 5860.0000000  -999.250000 5868.0000000 5868.0000000 5868.0000000  -999.250000  -999.250000  -999.250000  -999.250000  -999.250000 0.8231999874 0.8227000237
 892.50317000 2.0108001232 140.60440063  -999.250000 47.125099182 0.3368000090 382.33023071 382.33023071 5860.0000000  -999.250000 5868.0000000 5868.0000000 5868.0000000  -999.250000  -999.250000  -999.250000  -999.250000  -999.250000 0.8360999823 0.8360999823
