# LAS format log file from PETREL
# Project units are specified as depth units
#==================================================================
~Version information
VERS.   2.0:
WRAP.   NO:
#==================================================================
~Well
STRT .m      132.02721000 :
STOP .m      2054.8579100 :
STEP .m     0.00000000 :
NULL .        -999.250000 :
COMP.           : COMPANY
WELL.  16/1-12   : WELL
FLD.            : FIELD
LOC.            : LOCATION
SRVC.           : SERVICE COMPANY
DATE.  2018-06-09 11:11:56   : Log Export Date {yyyy-MM-dd HH:mm:ss}
PROV.           : PROVINCE
UWI.   6166   : UNIQUE WELL ID
API.            : API NUMBER
#==================================================================
~Curve
DEPT .m                   : DEPTH
DEN .g/cm3                : DEN
DT .us/ft                 : DT
DTS .us/ft                : DTS
GR .gAPI                  : GR
NPHI .m3/m3               : NPHI
DTS_i7 ._                 : DTS_i7
DTS_mlFilled ._           : DTS_mlFilled
LITHesa10 ._              : LITHesa10
LITHesa9_filtr ._         : LITHesa9_filtr
LITHesa9_i4 ._            : LITHesa9_i4
LITHesa9_i8 ._            : LITHesa9_i8
LITHesa9_i8i4 ._          : LITHesa9_i8i4
PHIE_i7 ._                : PHIE_i7
PHIE_i8 ._                : PHIE_i8
PHIE_i8i7 ._              : PHIE_i8i7
PHIE_mlfilled ._          : PHIE_mlfilled
PHIEed ._                 : PHIEed
RDEP ._                   : RDEP
RMED ._                   : RMED
~Parameter
#==================================================================
~Ascii
# ...
 793.44318000 2.0088000298 145.32299805  -999.250000 28.664400101 0.3362999856 400.90161133 400.90161133 5868.0000000 5868.0000000 5868.0000000 5868.0000000 5868.0000000  -999.250000  -999.250000  -999.250000  -999.250000  -999.250000 0.7746000290 0.7735000253
 793.59558000 2.0281000137 146.20989990  -999.250000 28.873399734 0.3434999883 418.64392090 418.64392090 5868.0000000 5868.0000000 5868.0000000 5868.0000000 5868.0000000  -999.250000  -999.250000  -999.250000  -999.250000  -999.250000 0.7756000161 0.7803999782
 793.74799000 2.0276000500 146.50979614  -999.250000 32.572101593 0.3364999890 424.96740723 424.96740723  -999.250000  -999.250000 5868.0000000 5868.0000000 5868.0000000  -999.250000  -999.250000  -999.250000  -999.250000  -999.250000 0.7846999764 0.7871000171
 793.90039000 2.0216999054 150.67559814  -999.250000 35.288700104 0.3070999980 428.88482666 428.88482666 5868.0000000 5868.0000000 5868.0000000 5868.0000000 5868.0000000  -999.250000  -999.250000  -999.250000  -999.250000  -999.250000 0.7802000046 0.7827000022
 794.05280000 2.0185999870 147.24420166  -999.250000 33.533401489 0.3425000012 427.92227173 427.92227173 5868.0000000 5868.0000000 5868.0000000 5868.0000000 5868.0000000  -999.250000  -999.250000  -999.250000  -999.250000  -999.250000 0.7597000003 0.7577999830
 794.20520000 2.0150001049 148.56300354  -999.250000 28.873399734 0.2980000079 422.21469116 422.21469116 5868.0000000 5868.0000000 5868.0000000 5868.0000000 5868.0000000  -999.250000  -999.250000  -999.250000  -999.250000  -999.250000 0.7605000138 0.7594000101
 794.35760000 2.0232000351 148.53399658  -999.250000 25.613399506 0.3160000145 431.29757690 431.29757690  -999.250000  -999.250000 5868.0000000 5868.0000000 5868.0000000  -999.250000  -999.250000  -999.250000  -999.250000  -999.250000 0.7692999840 0.7678999901
 794.51001000 2.0151000023 145.59289551  -999.250000 26.449300766 0.3258999884 405.39834595 405.39834595 5868.0000000 5868.0000000 5868.0000000 5868.0000000 5868.0000000  -999.250000  -999.250000  -999.250000  -999.250000  -999.250000 0.7605000138 0.7616999745
 794.66241000 2.0303001404 144.95989990  -999.250000 30.336099625 0.3265999854 398.10830688 398.10830688 5868.0000000 5868.0000000 5868.0000000 5868.0000000 5868.0000000  -999.250000  -999.250000  -999.250000  -999.250000  -999.250000 0.7451999784 0.7473999858
 794.81482000 2.0385999680 145.00109863  -999.250000 33.240798950 0.3337000012 401.17697144 401.17697144  -999.250000  -999.250000 5868.0000000 5868.0000000 5868.0000000  -999.250000  -999.250000  -999.250000  -999.250000  -999.250000 0.7563999891 0.7574999928
 794.96722000 2.0474998951 144.95359802  -999.250000 33.178100586 0.3555999994 405.55050659 405.55050659 5868.0000000 5868.0000000 5868.0000000 5868.0000000 5868.0000000  -999.250000  -999.250000  -999.250000  -999.250000  -999.250000 0.7721999884 0.7706999779
 795.11963000 2.0283999443 144.89759827  -999.250000 31.652599335 0.3199000061 408.21542358 408.21542358 5868.0000000 5868.0000000 5868.0000000 5868.0000000 5868.0000000  -999.250000  -999.250000  -999.250000  -999.250000  -999.250000 0.7833999991 0.7811999917
 795.27197000 2.0211000443 145.00259399  -999.250000 30.169000626 0.2987999916 407.61193848 407.61193848 5868.0000000 5868.0000000 5868.0000000 5868.0000000 5868.0000000  -999.250000  -999.250000  -999.250000  -999.250000  -999.250000 0.7721999884 0.7714999914
 795.42438000 2.0290000439 145.21629333  -999.250000 30.795900345 0.2915999889 409.40679932 409.40679932 5868.0000000 5868.0000000 5868.0000000 5868.0000000 5868.0000000  -999.250000  -999.250000  -999.250000  -999.250000  -999.250000 0.7635999918 0.7667000294
 795.57678000 2.0215001106 145.00421143  -999.250000 32.216899872 0.2860000134 408.08184814 408.08184814 5868.0000000 5868.0000000 5868.0000000 5868.0000000 5868.0000000  -999.250000  -999.250000  -999.250000  -999.250000  -999.250000 0.7634000182 0.7656000257
 795.72919000 2.0074000359 145.19320679  -999.250000 31.882499695 0.2942999899 408.07620239 408.07620239 5868.0000000 5868.0000000 5868.0000000 5868.0000000 5868.0000000  -999.250000  -999.250000  -999.250000  -999.250000  -999.250000 0.7663000226 0.7670999765
 795.88159000 1.9901999235 146.12910461  -999.250000 30.148099899 0.3350000083 415.34390259 415.34390259 5868.0000000 5868.0000000 5868.0000000 5868.0000000 5868.0000000  -999.250000  -999.250000  -999.250000  -999.250000  -999.250000 0.7785999775 0.7789999843
 796.03400000 1.9957000017 146.97599792  -999.250000 29.374900818 0.3093999922 419.59600830 419.59600830 5868.0000000 5868.0000000 5868.0000000 5868.0000000 5868.0000000  -999.250000  -999.250000  -999.250000  -999.250000  -999.250000 0.7652999759 0.7674000263
 796.18640000 2.0044999123 146.43200684  -999.250000 30.043600082 0.3195999861 417.93933105 417.93933105 5868.0000000 5868.0000000 5868.0000000 5868.0000000 5868.0000000  -999.250000  -999.250000  -999.250000  -999.250000  -999.250000 0.7500000000 0.7566000223
 796.33881000 2.0116999149 146.88830566  -999.250000 31.569000244 0.3176999986 417.19122314 417.19122314 5868.0000000 5868.0000000 5868.0000000 5868.0000000 5868.0000000  -999.250000  -999.250000  -999.250000  -999.250000  -999.250000 0.7670999765 0.7642999887
 796.49121000 2.0168001652 146.76449585  -999.250000 35.267799377 0.3151000142 422.80166626 422.80166626 5868.0000000 5868.0000000 5868.0000000 5868.0000000 5868.0000000  -999.250000  -999.250000  -999.250000  -999.250000  -999.250000 0.7741000056 0.7775999904
 796.64362000 2.0385000706 146.04670715  -999.250000 41.181598663 0.3007999957 418.43643188 418.43643188 5868.0000000 5868.0000000 5868.0000000 5868.0000000 5868.0000000  -999.250000  -999.250000  -999.250000  -999.250000  -999.250000 0.7714999914 0.7770000100
 796.79602000 2.0698997974 144.78750610  -999.250000 48.913398743 0.3555999994 394.78781128 394.78781128 5868.0000000  -999.250000 5868.0000000 5860.0000000 5860.0000000  -999.250000  -999.250000  -999.250000  -999.250000  -999.250000 0.8360000253 0.8296999931
 796.94843000 2.1083998680 142.11749268  -999.250000 57.209499359 0.3185999990 377.68542480 377.68542480  -999.250000  -999.250000 5891.0000000 5860.0000000 5860.0000000  -999.250000  -999.250000  -999.250000  -999.250000  -999.250000 1.0889999866 1.0710999966
 797.10083000 2.1252999306 141.06410217  -999.250000 62.914299011 0.3406000137 360.23638916 360.23638916 5860.0000000  -999.250000 5891.0000000 5860.0000000 5860.0000000  -999.250000  -999.250000  -999.250000  -999.250000  -999.250000 1.2358000278 1.2180000544
 797.25317000 2.1510000229 139.62800598  -999.250000 64.920402527 0.3345000148 353.72396851 353.72396851 5860.0000000 5860.0000000 5891.0000000 5860.0000000 5860.0000000  -999.250000  -999.250000  -999.250000  -999.250000  -999.250000 1.3169000149 1.3087999821
 797.40558000 2.1701998711 131.52729797  -999.250000 65.066703796 0.3488999903 358.93246460 358.93246460 5860.0000000  -999.250000 5860.0000000 5891.0000000 5891.0000000  -999.250000  -999.250000  -999.250000  -999.250000  -999.250000 1.4218000174 1.4208999872
 797.55798000 2.1535000801 129.72950745  -999.250000 64.816001892 0.3416999876 347.16668701 347.16668701 5860.0000000  -999.250000 5891.0000000 5891.0000000 5891.0000000  -999.250000  -999.250000  -999.250000  -999.250000  -999.250000 1.4218000174 1.4208999872
 797.71039000 2.1222000122 133.32170105  -999.250000 65.024902344 0.3409999907 346.06295776 346.06295776 5860.0000000  -999.250000 5891.0000000 5860.0000000 5860.0000000  -999.250000  -999.250000  -999.250000  -999.250000  -999.250000 1.4914000034 1.4934999943
 797.86279000 2.1013000011 139.08700562  -999.250000 62.768100739 0.3794000149 353.09109497 353.09109497 5860.0000000 5860.0000000 5891.0000000 5860.0000000 5860.0000000  -999.250000  -999.250000  -999.250000  -999.250000  -999.250000 1.4615999460 1.4629000425
 798.01520000 2.1013000011 140.91329956  -999.250000 53.538600922 0.3384000063 360.29821777 360.29821777 5860.0000000  -999.250000 5891.0000000 5860.0000000 5860.0000000  -999.250000  -999.250000  -999.250000  -999.250000  -999.250000 1.3425999880 1.3416999578
