# LAS format log file from PETREL
# Project units are specified as depth units
#==================================================================
~Version information
VERS.   2.0:
WRAP.   NO:
#==================================================================
~Well
STRT .m      132.02721000 :
STOP .m      2054.8579100 :
STEP .m     0.00000000 :
NULL .        -999.250000 :
COMP.           : COMPANY
WELL.  16/1-12   : WELL
FLD.            : FIELD
LOC.            : LOCATION
SRVC.           : SERVICE COMPANY
DATE.  2018-06-09 11:11:56   : Log Export Date {yyyy-MM-dd HH:mm:ss}
PROV.           : PROVINCE
UWI.   6166   : UNIQUE WELL ID
API.            : API NUMBER
#==================================================================
~Curve
DEPT .m                   : DEPTH
DEN .g/cm3                : DEN
DT .us/ft                 : DT
DTS .us/ft                : DTS
GR .gAPI                  : GR
NPHI .m3/m3               : NPHI
DTS_i7 ._                 : DTS_i7
DTS_mlFilled ._           : DTS_mlFilled
LITHesa10 ._              : LITHesa10
LITHesa9_filtr ._         : LITHesa9_filtr
LITHesa9_i4 ._            : LITHesa9_i4
LITHesa9_i8 ._            : LITHesa9_i8
LITHesa9_i8i4 ._          : LITHesa9_i8i4
PHIE_i7 ._                : PHIE_i7
PHIE_i8 ._                : PHIE_i8
PHIE_i8i7 ._              : PHIE_i8i7
PHIE_mlfilled ._          : PHIE_mlfilled
PHIEed ._                 : PHIEed
RDEP ._                   : RDEP
RMED ._                   : RMED
~Parameter
#==================================================================
~Ascii
# ...
 1261.1588100 2.0116000175 152.18411255  -999.250000 85.942703247 0.4097999930 394.45581055 394.45581055 5891.0000000 5891.0000000 5891.0000000 5891.0000000 5891.0000000  -999.250000  -999.250000  -999.250000  -999.250000  -999.250000 0.7714999914 0.7764000297
 1261.3111600 2.0203001499 151.79150391  -999.250000 88.450302124 0.4415000081 416.83139038 416.83139038 5891.0000000 5891.0000000 5891.0000000 5891.0000000 5891.0000000  -999.250000  -999.250000  -999.250000  -999.250000  -999.250000 0.7847999930 0.7921000123
 1261.4636200 2.0155999660 153.73548889  -999.250000 88.471199036 0.4424999952 411.27359009 411.27359009 5891.0000000 5891.0000000 5891.0000000 5891.0000000 5891.0000000  -999.250000  -999.250000  -999.250000  -999.250000  -999.250000 0.7847999930 0.7921000123
 1261.6159700 2.0132000446 154.08720398  -999.250000 88.074203491 0.4532999992 416.30981445 416.30981445 5891.0000000 5891.0000000 5891.0000000 5891.0000000 5891.0000000  -999.250000  -999.250000  -999.250000  -999.250000  -999.250000 0.8125000000 0.8130999804
 1261.7684300 1.9805999994 155.22210693  -999.250000 87.656196594 0.4384999871 416.34643555 416.34643555 5891.0000000 5891.0000000 5891.0000000 5891.0000000 5891.0000000  -999.250000  -999.250000  -999.250000  -999.250000  -999.250000 0.7867000103 0.7879999876
 1261.9207800 1.9445999861 155.22210693  -999.250000 87.572601318 0.4483000040 427.64273071 427.64273071 5891.0000000 5891.0000000 5891.0000000 5891.0000000 5891.0000000  -999.250000  -999.250000  -999.250000  -999.250000  -999.250000 0.7867000103 0.7879999876
 1262.0732400 1.9211999178 155.22210693  -999.250000 88.408500671 0.4711000025 424.74499512 424.74499512 5891.0000000 5891.0000000 5891.0000000 5891.0000000 5891.0000000  -999.250000  -999.250000  -999.250000  -999.250000  -999.250000 0.7509999871 0.7615000010
 1262.2255900 1.9178000689 155.22210693  -999.250000 87.238296509 0.5831999779 437.28350830 437.28350830 5891.0000000 5891.0000000 5891.0000000 5891.0000000 5891.0000000  -999.250000  -999.250000  -999.250000  -999.250000  -999.250000 0.7627999783 0.7662000060
 1262.3780500 1.9294999838 155.22210693  -999.250000 82.787200928 0.4841000140 432.06454468 432.06454468 5891.0000000 5891.0000000 5891.0000000 5891.0000000 5891.0000000  -999.250000  -999.250000  -999.250000  -999.250000  -999.250000 0.7567999959 0.7588000298
 1262.5304000 1.9484000206 155.19039917  -999.250000 79.861701965 0.4402999878 413.96603394 413.96603394  -999.250000  -999.250000 5891.0000000 5891.0000000 5891.0000000  -999.250000  -999.250000  -999.250000  -999.250000  -999.250000 0.7585999966 0.7624999881
 1262.6827400 1.9825999737 151.97749329  -999.250000 80.969200134 0.4569999874 416.50411987 416.50411987  -999.250000  -999.250000 5891.0000000 5891.0000000 5891.0000000  -999.250000  -999.250000  -999.250000  -999.250000  -999.250000 0.7585999966 0.7624999881
 1262.8352100 2.0167000294 152.35710144  -999.250000 85.482902527 0.4564999938 416.91613770 416.91613770 5891.0000000 5891.0000000 5891.0000000 5891.0000000 5891.0000000  -999.250000  -999.250000  -999.250000  -999.250000  -999.250000 0.7864000201 0.7908999920
 1262.9875500 2.0346999168 154.37069702  -999.250000 89.515998840 0.4568000138 418.74295044 418.74295044 5891.0000000 5891.0000000 5891.0000000 5891.0000000 5891.0000000  -999.250000  -999.250000  -999.250000  -999.250000  -999.250000 0.8245999813 0.8324000239
 1263.1400100 2.0256998539 154.48069763  -999.250000 90.289199829 0.4275999963 410.92736816 410.92736816 5891.0000000 5891.0000000 5891.0000000 5891.0000000 5891.0000000  -999.250000  -999.250000  -999.250000  -999.250000  -999.250000 0.8381999731 0.8359000087
 1263.2923600 1.9948000908 153.89028931  -999.250000 86.945701599 0.4068999887 408.62756348 408.62756348 5891.0000000 5891.0000000 5891.0000000 5891.0000000 5891.0000000  -999.250000  -999.250000  -999.250000  -999.250000  -999.250000 0.8381999731 0.8359000087
 1263.4448200 1.9756999016 153.92930603  -999.250000 82.620101929 0.4550999999 434.63116455 434.63116455 5891.0000000 5891.0000000 5891.0000000 5891.0000000 5891.0000000  -999.250000  -999.250000  -999.250000  -999.250000  -999.250000 0.8302000165 0.8334000111
 1263.5971700 1.9803999662 157.88569641  -999.250000 82.912597656 0.3874000013 398.84637451 398.84637451 5891.0000000 5891.0000000 5891.0000000 5891.0000000 5891.0000000  -999.250000  -999.250000  -999.250000  -999.250000  -999.250000 0.7922000289 0.7971000075
 1263.7496300 1.9800999165 157.88130188  -999.250000 84.730697632 0.3865999877 397.79589844 397.79589844 5891.0000000 5891.0000000 5891.0000000 5891.0000000 5891.0000000  -999.250000  -999.250000  -999.250000  -999.250000  -999.250000 0.7752000093 0.7793999910
 1263.9019800 1.9876999855 157.41929626  -999.250000 86.527801514 0.4140999913 398.63525391 398.63525391 5891.0000000 5891.0000000 5891.0000000 5891.0000000 5891.0000000  -999.250000  -999.250000  -999.250000  -999.250000  -999.250000 0.7752000093 0.7793999910
 1264.0544400 1.9523999691 155.87370300  -999.250000 86.883003235 0.4289999902 421.67633057 421.67633057 5891.0000000 5891.0000000 5891.0000000 5891.0000000 5891.0000000  -999.250000  -999.250000  -999.250000  -999.250000  -999.250000 0.7682999969 0.7742999792
 1264.2067900 1.9426000118 154.32818604  -999.250000 83.288803101 0.4086999893 407.82110596 407.82110596 5891.0000000 5891.0000000 5891.0000000 5891.0000000 5891.0000000  -999.250000  -999.250000  -999.250000  -999.250000  -999.250000 0.7786999941 0.7730000019
 1264.3592500 1.9025999308 152.78259277  -999.250000 81.909599304 0.4348999858 414.04946899 414.04946899 5891.0000000 5891.0000000 5891.0000000 5891.0000000 5891.0000000  -999.250000  -999.250000  -999.250000  -999.250000  -999.250000 0.7566999793 0.7645000219
 1264.5116000 1.8805999756 151.23699951  -999.250000 83.915702820 0.4600000083 422.61511230 422.61511230 5891.0000000 5891.0000000 5891.0000000 5891.0000000 5891.0000000  -999.250000  -999.250000  -999.250000  -999.250000  -999.250000 0.7566999793 0.7645000219
 1264.6639400 1.8466999531 149.69142151  -999.250000 84.793296814 0.6172999740 412.30917358 412.30917358 5891.0000000 5891.0000000 5891.0000000 5891.0000000 5891.0000000  -999.250000  -999.250000  -999.250000  -999.250000  -999.250000 0.7466999888 0.7501999736
 1264.8164100 1.8380000591 148.14590454  -999.250000 84.563499451 0.4844999909 413.69039917 413.69039917 5891.0000000 5891.0000000 5891.0000000 5891.0000000 5891.0000000  -999.250000  -999.250000  -999.250000  -999.250000  -999.250000 0.7421000004 0.7450000048
 1264.9687500 1.8486000299 146.66560364  -999.250000 83.163398743 0.4661000073 414.97167969 414.97167969 5891.0000000 5891.0000000 5891.0000000 5891.0000000 5891.0000000  -999.250000  -999.250000  -999.250000  -999.250000  -999.250000 0.7421000004 0.7450000048
 1265.1212200 1.8615999222 151.77110291  -999.250000 80.802001953 0.4550000131 406.92871094 406.92871094 5891.0000000 5891.0000000 5891.0000000 5891.0000000 5891.0000000  -999.250000  -999.250000  -999.250000  -999.250000  -999.250000 0.7339000106 0.7396000028
 1265.2735600 1.8674000502 153.32589722  -999.250000 79.694503784 0.4501999915 404.60629272 404.60629272 5891.0000000 5891.0000000 5891.0000000 5891.0000000 5891.0000000  -999.250000  -999.250000  -999.250000  -999.250000  -999.250000 0.7342000008 0.7325000167
 1265.4260300 1.8385999203 152.28691101  -999.250000 81.930496216 0.4307000041 404.44393921 404.44393921 5891.0000000 5891.0000000 5891.0000000 5891.0000000 5891.0000000  -999.250000  -999.250000  -999.250000  -999.250000  -999.250000 0.7342000008 0.7325000167
 1265.5783700 1.8645000458 148.69839478  -999.250000 86.402397156 0.4546000063 420.53091431 420.53091431 5891.0000000 5891.0000000 5891.0000000 5891.0000000 5891.0000000  -999.250000  -999.250000  -999.250000  -999.250000  -999.250000 0.7603999972 0.7605999708
 1265.7308300 1.9146000147 147.57899475  -999.250000 88.993598938 0.4316999912 413.79727173 413.79727173 5891.0000000 5891.0000000 5891.0000000 5891.0000000 5891.0000000  -999.250000  -999.250000  -999.250000  -999.250000  -999.250000 0.7603999972 0.7605999708
