# LAS format log file from PETREL
# Project units are specified as depth units
#==================================================================
~Version information
VERS.   2.0:
WRAP.   NO:
#==================================================================
~Well
STRT .m      132.02721000 :
STOP .m      2054.8579100 :
STEP .m     0.00000000 :
NULL .        -999.250000 :
COMP.           : COMPANY
WELL.  16/1-12   : WELL
FLD.            : FIELD
LOC.            : LOCATION
SRVC.           : SERVICE COMPANY
DATE.  2018-06-09 11:11:56   : Log Export Date {yyyy-MM-dd HH:mm:ss}
PROV.           : PROVINCE
UWI.   6166   : UNIQUE WELL ID
API.            : API NUMBER
#==================================================================
~Curve
DEPT .m                   : DEPTH
DEN .g/cm3                : DEN
DT .us/ft                 : DT
DTS .us/ft                : DTS
GR .gAPI                  : GR
NPHI .m3/m3               : NPHI
DTS_i7 ._                 : DTS_i7
DTS_mlFilled ._           : DTS_mlFilled
LITHesa10 ._              : LITHesa10
LITHesa9_filtr ._         : LITHesa9_filtr
LITHesa9_i4 ._            : LITHesa9_i4
LITHesa9_i8 ._            : LITHesa9_i8
LITHesa9_i8i4 ._          : LITHesa9_i8i4
PHIE_i7 ._                : PHIE_i7
PHIE_i8 ._                : PHIE_i8
PHIE_i8i7 ._              : PHIE_i8i7
PHIE_mlfilled ._          : PHIE_mlfilled
PHIEed ._                 : PHIEed
RDEP ._                   : RDEP
RMED ._                   : RMED
~Parameter
#==================================================================
~Ascii
# ...
 1539.8984400 2.2118999958 143.79310608  -999.250000 83.858901978 0.3989999890 387.42861938 387.42861938 5891.0000000 5891.0000000 5891.0000000 5891.0000000 5891.0000000  -999.250000  -999.250000  -999.250000  -999.250000  -999.250000 0.5651000142 0.5662999749
 1540.0507800 2.1983001232 143.97419739  -999.250000 82.266799927 0.4830999970 394.49270630 394.49270630  -999.250000  -999.250000 5891.0000000 5891.0000000 5891.0000000  -999.250000  -999.250000  -999.250000  -999.250000  -999.250000 0.5443000197 0.5471000075
 1540.2032500 2.1971001625 141.26480103  -999.250000 82.900802612 0.4271000028 384.21136475 384.21136475  -999.250000  -999.250000 5891.0000000 5891.0000000 5891.0000000  -999.250000  -999.250000  -999.250000  -999.250000  -999.250000 0.5245000124 0.5252000093
 1540.3555900 2.2098000050 141.87532043  -999.250000 84.348800659 0.3943000138 377.43173218 377.43173218 5891.0000000 5891.0000000 5891.0000000 5891.0000000 5891.0000000  -999.250000  -999.250000  -999.250000  -999.250000  -999.250000 0.5144000053 0.5170000196
 1540.5080600 2.2266001701 142.48629761  -999.250000 86.942298889 0.3795999885 384.43417358 384.43417358 5891.0000000 5891.0000000 5891.0000000 5891.0000000 5891.0000000  -999.250000  -999.250000  -999.250000  -999.250000  -999.250000 0.5105999708 0.5098000169
 1540.6604000 2.2133998871 142.89109802  -999.250000 90.659698486 0.3677999973 390.82528687 390.82528687 5891.0000000 5891.0000000 5891.0000000 5891.0000000 5891.0000000  -999.250000  -999.250000  -999.250000  -999.250000  -999.250000 0.5249999762 0.5264000297
 1540.8127400 2.1946001053 143.05110168  -999.250000 94.398597717 0.4348999858 398.53848267 398.53848267 5891.0000000 5891.0000000 5891.0000000 5891.0000000 5891.0000000  -999.250000  -999.250000  -999.250000  -999.250000  -999.250000 0.5249999762 0.5264000297
 1540.9652100 2.1965000629 145.01631165  -999.250000 96.603103638 0.3892999887 392.75933838 392.75933838 5891.0000000 5891.0000000 5891.0000000 5891.0000000 5891.0000000  -999.250000  -999.250000  -999.250000  -999.250000  -999.250000 0.4817000031 0.4823000133
 1541.1175500 2.2086000443 144.52699280  -999.250000 99.369499207 0.4081999958 392.86572266 392.86572266 5891.0000000 5891.0000000 5891.0000000 5891.0000000 5891.0000000  -999.250000  -999.250000  -999.250000  -999.250000  -999.250000 0.5105000138 0.5081999898
 1541.2700200 2.2146999836 143.24420166  -999.250000 102.02790070 0.4284999967 379.96905518 379.96905518 5891.0000000 5891.0000000 5891.0000000 5891.0000000 5891.0000000  -999.250000  -999.250000  -999.250000  -999.250000  -999.250000 0.5439000130 0.5389000177
 1541.4223600 2.2026998997 144.73129272  -999.250000 100.99050140 0.4278999865 384.70962524 384.70962524 5891.0000000 5891.0000000 5891.0000000 5891.0000000 5891.0000000  -999.250000  -999.250000  -999.250000  -999.250000  -999.250000 0.5515999794 0.5516999960
 1541.5748300 2.2037999630 142.00199890  -999.250000 97.078598022 0.4934000075 409.45785522 409.45785522 5891.0000000 5891.0000000 5891.0000000 5891.0000000 5891.0000000  -999.250000  -999.250000  -999.250000  -999.250000  -999.250000 0.5601000190 0.5593000054
 1541.7271700 2.2272000313 141.11189270  -999.250000 93.307197571 0.4163999856 384.11730957 384.11730957 5891.0000000 5891.0000000 5891.0000000 5891.0000000 5891.0000000  -999.250000  -999.250000  -999.250000  -999.250000  -999.250000 0.5040000081 0.5098000169
 1541.8796400 2.2644000053 139.75880432  -999.250000 93.209999084 0.3734000027 390.68240356 390.68240356 5891.0000000 5891.0000000 5891.0000000 5891.0000000 5891.0000000  -999.250000  -999.250000  -999.250000  -999.250000  -999.250000 0.5235000253 0.5254999995
 1542.0319800 2.2611000538 139.47889709  -999.250000 95.630599976 0.3546000123 393.60070801 393.60070801 5891.0000000 5891.0000000 5891.0000000 5891.0000000 5891.0000000  -999.250000  -999.250000  -999.250000  -999.250000  -999.250000 0.6327999830 0.6263999939
 1542.1844500 2.2541000843 140.14999390  -999.250000 95.825103760 0.3770999908 411.82586670 411.82586670 5891.0000000 5891.0000000 5891.0000000 5891.0000000 5891.0000000  -999.250000  -999.250000  -999.250000  -999.250000  -999.250000 0.6150000095 0.6129999757
 1542.3367900 2.2421000004 139.68670654  -999.250000 91.859199524 0.4578000009 386.99929810 386.99929810 5891.0000000 5891.0000000 5891.0000000 5891.0000000 5891.0000000  -999.250000  -999.250000  -999.250000  -999.250000  -999.250000 0.6297000051 0.6233000159
 1542.4892600 2.2609999180 138.98809814  -999.250000 88.174201965 0.4075999856 379.53601074 379.53601074 5891.0000000 5891.0000000 5891.0000000 5891.0000000 5891.0000000  -999.250000  -999.250000  -999.250000  -999.250000  -999.250000 0.6504999995 0.6434999704
 1542.6416000 2.2438998222 139.54049683  -999.250000 89.535797119 0.3637999892 406.18435669 406.18435669 5891.0000000 5891.0000000 5891.0000000 5891.0000000 5891.0000000  -999.250000  -999.250000  -999.250000  -999.250000  -999.250000 0.6514000297 0.6456999779
 1542.7939500 2.2228000164 138.25070190  -999.250000 93.987998962 0.3786999881 397.69763184 397.69763184 5891.0000000 5891.0000000 5891.0000000 5891.0000000 5891.0000000  -999.250000  -999.250000  -999.250000  -999.250000  -999.250000 0.6366999745 0.6388000250
 1542.9464100 2.2188999653 138.27780151  -999.250000 94.928100586 0.3711999953 403.50326538 403.50326538 5891.0000000 5891.0000000 5891.0000000 5891.0000000 5891.0000000  -999.250000  -999.250000  -999.250000  -999.250000  -999.250000 0.6369000077 0.6367999911
 1543.0987500 2.2149999142 138.30490112  -999.250000 95.868301392 0.3637000024 391.24636841 391.24636841 5891.0000000 5891.0000000 5891.0000000 5891.0000000 5891.0000000  -999.250000  -999.250000  -999.250000  -999.250000  -999.250000 0.6370999813 0.6348999739
 1543.2512200 2.2172000408 138.77810669  -999.250000 92.042900085 0.3822999895 397.32528687 397.32528687 5891.0000000 5891.0000000 5891.0000000 5891.0000000 5891.0000000  -999.250000  -999.250000  -999.250000  -999.250000  -999.250000 0.6424999833 0.6401000023
 1543.4035600 2.2060999870 140.52940369  -999.250000 90.421897888 0.4718999863 388.57504272 388.57504272 5891.0000000 5891.0000000 5891.0000000 5891.0000000 5891.0000000  -999.250000  -999.250000  -999.250000  -999.250000  -999.250000 0.6381999850 0.6406999826
 1543.5560300 2.1861000061 139.38040161  -999.250000 95.587303162 0.4309999943 386.31600952 386.31600952 5891.0000000 5891.0000000 5891.0000000 5891.0000000 5891.0000000  -999.250000  -999.250000  -999.250000  -999.250000  -999.250000 0.6116999984 0.6147000194
 1543.7083700 2.1938998699 139.33219910  -999.250000 99.196601868 0.4192000031 393.83020020 393.83020020 5891.0000000 5891.0000000 5891.0000000 5891.0000000 5891.0000000  -999.250000  -999.250000  -999.250000  -999.250000  -999.250000 0.6237999797 0.6219000220
 1543.8608400 2.2098999023 138.15550232  -999.250000 100.19080353 0.3819000125 402.90206909 402.90206909 5891.0000000 5891.0000000 5891.0000000 5891.0000000 5891.0000000  -999.250000  -999.250000  -999.250000  -999.250000  -999.250000 0.6194000244 0.6284000278
 1544.0131800 2.2213001251 138.78370667  -999.250000 102.76270294 0.4381000102 389.72076416 389.72076416 5891.0000000 5891.0000000 5891.0000000 5891.0000000 5891.0000000  -999.250000  -999.250000  -999.250000  -999.250000  -999.250000 0.6322000027 0.6315000057
 1544.1656500 2.2158000469 137.07620239  -999.250000 104.63220215 0.3682999909 385.55688477 385.55688477 5891.0000000 5891.0000000 5891.0000000 5891.0000000 5891.0000000  -999.250000  -999.250000  -999.250000  -999.250000  -999.250000 0.6313999891 0.6305000186
 1544.3179900 2.2172000408 136.82890320  -999.250000 104.38369751 0.3714999855 385.15859985 385.15859985 5891.0000000 5891.0000000 5891.0000000 5891.0000000 5891.0000000  -999.250000  -999.250000  -999.250000  -999.250000  -999.250000 0.6305000186 0.6258999705
 1544.4704600 2.2241001129 136.72569275  -999.250000 102.12509918 0.4018000066 365.36203003 365.36203003 5891.0000000 5891.0000000 5891.0000000 5891.0000000 5891.0000000  -999.250000  -999.250000  -999.250000  -999.250000  -999.250000 0.6086999774 0.6122999787
