# LAS format log file from PETREL
# Project units are specified as depth units
#==================================================================
~Version information
VERS.   2.0:
WRAP.   NO:
#==================================================================
~Well
STRT .m      132.02721000 :
STOP .m      2054.8579100 :
STEP .m     0.00000000 :
NULL .        -999.250000 :
COMP.           : COMPANY
WELL.  16/1-12   : WELL
FLD.            : FIELD
LOC.            : LOCATION
SRVC.           : SERVICE COMPANY
DATE.  2018-06-09 11:11:56   : Log Export Date {yyyy-MM-dd HH:mm:ss}
PROV.           : PROVINCE
UWI.   6166   : UNIQUE WELL ID
API.            : API NUMBER
#==================================================================
~Curve
DEPT .m                   : DEPTH
DEN .g/cm3                : DEN
DT .us/ft                 : DT
DTS .us/ft                : DTS
GR .gAPI                  : GR
NPHI .m3/m3               : NPHI
DTS_i7 ._                 : DTS_i7
DTS_mlFilled ._           : DTS_mlFilled
LITHesa10 ._              : LITHesa10
LITHesa9_filtr ._         : LITHesa9_filtr
LITHesa9_i4 ._            : LITHesa9_i4
LITHesa9_i8 ._            : LITHesa9_i8
LITHesa9_i8i4 ._          : LITHesa9_i8i4
PHIE_i7 ._                : PHIE_i7
PHIE_i8 ._                : PHIE_i8
PHIE_i8i7 ._              : PHIE_i8i7
PHIE_mlfilled ._          : PHIE_mlfilled
PHIEed ._                 : PHIEed
RDEP ._                   : RDEP
RMED ._                   : RMED
~Parameter
#==================================================================
~Ascii
# ...
 1166.6707800 2.0646998882 134.99870300  -999.250000 23.461099625 0.2827999890 369.94918823 369.94918823 5868.0000000 5868.0000000 5868.0000000 5868.0000000 5868.0000000  -999.250000  -999.250000  -999.250000  -999.250000  -999.250000 0.5630000234 0.5674999952
 1166.8232400 2.0563998222 135.42210388  -999.250000 24.631299973 0.2770999968 372.97073364 372.97073364 5868.0000000 5868.0000000 5868.0000000 5868.0000000 5868.0000000  -999.250000  -999.250000  -999.250000  -999.250000  -999.250000 0.5630000234 0.5674999952
 1166.9755900 2.0569999218 135.34080505  -999.250000 26.156799316 0.2766000032 370.67526245 370.67526245 5868.0000000 5868.0000000 5868.0000000 5868.0000000 5868.0000000  -999.250000  -999.250000  -999.250000  -999.250000  -999.250000 0.5598000288 0.5637000203
 1167.1280500 2.0683999062 134.76530457  -999.250000 27.264299393 0.2851000130 362.96005249 362.96005249 5868.0000000 5868.0000000 5868.0000000 5868.0000000 5868.0000000  -999.250000  -999.250000  -999.250000  -999.250000  -999.250000 0.5598000288 0.5637000203
 1167.2804000 2.0771000385 135.79769897  -999.250000 28.225500107 0.3066999912 377.55383301 377.55383301 5868.0000000 5868.0000000 5868.0000000 5868.0000000 5868.0000000  -999.250000  -999.250000  -999.250000  -999.250000  -999.250000 0.5595999956 0.5616999865
 1167.4327400 2.0803000927 136.26770020  -999.250000 28.559900284 0.3298000097 376.78884888 376.78884888 5868.0000000 5868.0000000 5868.0000000 5868.0000000 5868.0000000  -999.250000  -999.250000  -999.250000  -999.250000  -999.250000 0.5584999919 0.5604000092
 1167.5852100 2.0658998489 136.52279663  -999.250000 28.267299652 0.2955999970 374.21609497 374.21609497 5868.0000000 5868.0000000 5868.0000000 5868.0000000 5868.0000000  -999.250000  -999.250000  -999.250000  -999.250000  -999.250000 0.5584999919 0.5604000092
 1167.7375500 2.0650000572 135.94030762  -999.250000 27.724000931 0.2899999917 373.13574219 373.13574219 5868.0000000 5868.0000000 5868.0000000 5868.0000000 5868.0000000  -999.250000  -999.250000  -999.250000  -999.250000  -999.250000 0.5580999851 0.5600000024
 1167.8900100 2.0598998070 135.96141052  -999.250000 26.929899216 0.3025000095 378.50387573 378.50387573 5868.0000000 5868.0000000 5868.0000000 5868.0000000 5868.0000000  -999.250000  -999.250000  -999.250000  -999.250000  -999.250000 0.5580999851 0.5600000024
 1168.0423600 2.0778000355 135.74969482  -999.250000 27.577699661 0.2852999866 366.66213989 366.66213989 5868.0000000 5868.0000000 5868.0000000 5868.0000000 5868.0000000  -999.250000  -999.250000  -999.250000  -999.250000  -999.250000 0.5594999790 0.5606999993
 1168.1948200 2.0661001205 135.33479309  -999.250000 29.667400360 0.2825999856 368.54440308 368.54440308 5868.0000000 5868.0000000 5868.0000000 5868.0000000 5868.0000000  -999.250000  -999.250000  -999.250000  -999.250000  -999.250000 0.5594999790 0.5606999993
 1168.3471700 2.0587999821 135.00199890  -999.250000 31.255599976 0.2863999903 363.40707397 363.40707397 5868.0000000 5868.0000000 5868.0000000 5868.0000000 5868.0000000  -999.250000  -999.250000  -999.250000  -999.250000  -999.250000 0.5601999760 0.5575000048
 1168.4996300 2.0400998592 134.79739380  -999.250000 33.115398407 0.2948000133 362.27539063 362.27539063 5868.0000000 5868.0000000 5868.0000000 5868.0000000 5868.0000000  -999.250000  -999.250000  -999.250000  -999.250000  -999.250000 0.5601999760 0.5575000048
 1168.6519800 2.0473001003 134.24000549  -999.250000 35.205101013 0.3086000085 360.07089233 360.07089233 5868.0000000 5868.0000000 5868.0000000 5868.0000000 5868.0000000  -999.250000  -999.250000  -999.250000  -999.250000  -999.250000 0.5539000034 0.5584999919
 1168.8044400 2.0499999523 133.98240662  -999.250000 36.249900818 0.2937999964 351.98373413 351.98373413 5868.0000000 5868.0000000 5868.0000000 5868.0000000 5868.0000000  -999.250000  -999.250000  -999.250000  -999.250000  -999.250000 0.5539000034 0.5584999919
 1168.9567900 2.0576000214 134.18440247  -999.250000 37.503799438 0.2917000055 351.72189331 351.72189331 5868.0000000 5868.0000000 5868.0000000 5868.0000000 5868.0000000  -999.250000  -999.250000  -999.250000  -999.250000  -999.250000 0.5551000237 0.5586000085
 1169.1092500 2.0532000065 134.48719788  -999.250000 39.196399689 0.3258999884 365.68161011 365.68161011 5868.0000000 5868.0000000 5868.0000000 5868.0000000 5868.0000000  -999.250000  -999.250000  -999.250000  -999.250000  -999.250000 0.5655000210 0.5667999983
 1169.2616000 2.0763998032 135.43600464  -999.250000 38.360500336 0.2915000021 363.16705322 363.16705322 5868.0000000 5868.0000000 5868.0000000 5868.0000000 5868.0000000  -999.250000  -999.250000  -999.250000  -999.250000  -999.250000 0.5616000295 0.5630000234
 1169.4139400 2.0756001472 135.40939331  -999.250000 33.951301575 0.2829000056 367.56973267 367.56973267 5868.0000000 5868.0000000 5868.0000000 5868.0000000 5868.0000000  -999.250000  -999.250000  -999.250000  -999.250000  -999.250000 0.5565999746 0.5580000281
 1169.5664100 2.0776998997 134.62829590  -999.250000 28.371799469 0.2759000063 359.76998901 359.76998901 5868.0000000 5868.0000000 5868.0000000 5868.0000000 5868.0000000  -999.250000  -999.250000  -999.250000  -999.250000  -999.250000 0.5590999722 0.5590000153
 1169.7187500 2.0588998795 135.53880310  -999.250000 26.553800583 0.2865000069 367.50408936 367.50408936 5868.0000000 5868.0000000 5868.0000000 5868.0000000 5868.0000000  -999.250000  -999.250000  -999.250000  -999.250000  -999.250000 0.5648000240 0.5634999871
 1169.8712200 2.0513000488 136.31129456  -999.250000 31.903400421 0.2924000025 374.76797485 374.76797485 5868.0000000 5868.0000000 5868.0000000 5868.0000000 5868.0000000  -999.250000  -999.250000  -999.250000  -999.250000  -999.250000 0.5666999817 0.5662000179
 1170.0235600 2.0611000061 129.66600037  -999.250000 38.506801605 0.3339999914 335.12670898 335.12670898 5868.0000000 5868.0000000 5868.0000000 5868.0000000 5868.0000000  -999.250000  -999.250000  -999.250000  -999.250000  -999.250000 0.5616000295 0.5687999725
 1170.1760300 2.0761001110 127.47519684  -999.250000 42.477199554 0.3122999966 314.61917114 314.61917114 5868.0000000 5868.0000000 5868.0000000 5868.0000000 5868.0000000  -999.250000  -999.250000  -999.250000  -999.250000  -999.250000 0.5590000153 0.5691999793
 1170.3283700 2.0946998596 128.14041138  -999.250000 46.113300323 0.3438999951 316.59213257 316.59213257  -999.250000  -999.250000 5868.0000000 5868.0000000 5868.0000000  -999.250000  -999.250000  -999.250000  -999.250000  -999.250000 0.5590000153 0.5691999793
 1170.4808300 2.1029999256 128.80709839  -999.250000 49.331401825 0.3632000089 323.02777100 323.02777100 5860.0000000  -999.250000 5868.0000000 5868.0000000 5868.0000000  -999.250000  -999.250000  -999.250000  -999.250000  -999.250000 0.5590000153 0.5691999793
 1170.6331800 2.0824999809 129.64649963  -999.250000 52.131500244 0.3835000098 346.16345215 346.16345215 5860.0000000  -999.250000 5868.0000000 5868.0000000 5868.0000000  -999.250000  -999.250000  -999.250000  -999.250000  -999.250000 0.6323999763 0.6240000129
 1170.7856400 2.0920000076 132.80969238  -999.250000 51.650901794 0.3607999980 358.13412476 358.13412476 5860.0000000  -999.250000 5860.0000000 5868.0000000 5868.0000000  -999.250000  -999.250000  -999.250000  -999.250000  -999.250000 0.7738999724 0.7908999920
 1170.9379900 2.0796000957 134.17669678  -999.250000 47.889499664 0.3468999863 367.13250732 367.13250732 5860.0000000  -999.250000 5868.0000000 5868.0000000 5868.0000000  -999.250000  -999.250000  -999.250000  -999.250000  -999.250000 0.7738999724 0.7908999920
 1171.0904500 2.0899000168 135.22180176  -999.250000 44.963901520 0.3145999908 365.22143555 365.22143555 5860.0000000  -999.250000 5868.0000000 5868.0000000 5868.0000000  -999.250000  -999.250000  -999.250000  -999.250000  -999.250000 0.5638999939 0.5726000071
 1171.2428000 2.0720000267 135.79890442  -999.250000 42.874198914 0.2928999960 369.28433228 369.28433228 5860.0000000  -999.250000 5868.0000000 5868.0000000 5868.0000000  -999.250000  -999.250000  -999.250000  -999.250000  -999.250000 0.5638999939 0.5726000071
