# LAS format log file from PETREL
# Project units are specified as depth units
#==================================================================
~Version information
VERS.   2.0:
WRAP.   NO:
#==================================================================
~Well
STRT .m      132.02721000 :
STOP .m      2054.8579100 :
STEP .m     0.00000000 :
NULL .        -999.250000 :
COMP.           : COMPANY
WELL.  16/1-12   : WELL
FLD.            : FIELD
LOC.            : LOCATION
SRVC.           : SERVICE COMPANY
DATE.  2018-06-09 11:11:56   : Log Export Date {yyyy-MM-dd HH:mm:ss}
PROV.           : PROVINCE
UWI.   6166   : UNIQUE WELL ID
API.            : API NUMBER
#==================================================================
~Curve
DEPT .m                   : DEPTH
DEN .g/cm3                : DEN
DT .us/ft                 : DT
DTS .us/ft                : DTS
GR .gAPI                  : GR
NPHI .m3/m3               : NPHI
DTS_i7 ._                 : DTS_i7
DTS_mlFilled ._           : DTS_mlFilled
LITHesa10 ._              : LITHesa10
LITHesa9_filtr ._         : LITHesa9_filtr
LITHesa9_i4 ._            : LITHesa9_i4
LITHesa9_i8 ._            : LITHesa9_i8
LITHesa9_i8i4 ._          : LITHesa9_i8i4
PHIE_i7 ._                : PHIE_i7
PHIE_i8 ._                : PHIE_i8
PHIE_i8i7 ._              : PHIE_i8i7
PHIE_mlfilled ._          : PHIE_mlfilled
PHIEed ._                 : PHIEed
RDEP ._                   : RDEP
RMED ._                   : RMED
~Parameter
#==================================================================
~Ascii
# ...
 1941.4724100 2.5263998508 66.455505371 114.03030396 148.92149353 0.0922000036 115.58883667 114.03029633 5851.0000000  -999.250000 6793.0000000 6793.0000000 6793.0000000 0.0314799994  -999.250000 0.0314799994 0.0314799994  -999.250000 19.527500153 17.856700897
 1941.6247600 2.5157999992 68.560302734 117.70840454 151.04609680 0.0920000002 119.82762146 117.70839691 5851.0000000  -999.250000 6793.0000000 6793.0000000 6793.0000000 0.0358299986  -999.250000 0.0358299986 0.0358299986  -999.250000 16.875000000 15.556500435
 1941.7772200 2.5085999966 69.070404053 120.86719513 153.79609680 0.0892999992 122.61403656 120.86720276 5851.0000000  -999.250000 6793.0000000 6793.0000000 6793.0000000 0.0460200012  -999.250000 0.0460200012 0.0460200012  -999.250000 16.129400253 15.050900459
 1941.9295700 2.5181999207 70.408096313 121.32479858 159.90020752 0.0878000036 121.43605804 121.32479858 5851.0000000  -999.250000 6793.0000000 6793.0000000 6793.0000000 0.0351400003  -999.250000 0.0351400003 0.0351400003  -999.250000 16.820899963 16.046600342
 1942.0820300 2.5262999535 67.348899841 120.91860199 160.01820374 0.0934000015 118.88597870 120.91860199 5851.0000000  -999.250000 6793.0000000 6793.0000000 6793.0000000 0.0344099998  -999.250000 0.0344099998 0.0344099998  -999.250000 22.934099197 21.997699738
 1942.2343800 2.5368001461 64.966499329 118.42720032 161.78869629 0.1035000011 117.46663666 118.42720032 5851.0000000  -999.250000 6793.0000000 6793.0000000 6793.0000000 0.0336499996  -999.250000 0.0336499996 0.0336499996  -999.250000 31.701099396 30.636100769
 1942.3868400 2.5250000954 64.324905396 117.63269806 149.93879700 0.1108999997 116.84092712 117.63269806 5851.0000000  -999.250000 6793.0000000 6793.0000000 6793.0000000 0.0369499996  -999.250000 0.0369499996 0.0369499996  -999.250000 32.096000671 31.256299973
 1942.5391800 2.5191998482 64.407798767 115.97480011 141.08630371 0.1140000001 116.22633362 115.97480011  -999.250000  -999.250000 6793.0000000 6793.0000000 6793.0000000 0.0377199985  -999.250000 0.0377199985 0.0377199985  -999.250000 30.161399841 29.608600616
 1942.6916500 2.5178000927 64.648300171 114.36319733 132.70610046 0.1128999963 114.70481110 114.36319733 5868.0000000  -999.250000 6793.0000000 6793.0000000 6793.0000000 0.0389899984  -999.250000 0.0389899984 0.0389899984  -999.250000 37.180500031 35.926601410
 1942.8439900 2.5271999836 64.893104553 113.63319397 132.73219299 0.1208999977 115.21853638 113.63320160 5868.0000000  -999.250000 6793.0000000 6793.0000000 6793.0000000 0.0323899984  -999.250000 0.0323899984 0.0323899984  -999.250000 33.408199310 31.653900146
 1942.9964600 2.5401000977 64.304298401 113.50229645 135.91900635 0.1225000024 114.13854980 113.50229645 5868.0000000  -999.250000 6793.0000000 6793.0000000 6793.0000000 0.0323100016  -999.250000 0.0323100016 0.0323100016  -999.250000 33.329498291 31.182800293
 1943.1488000 2.5478999615 63.201297760 114.13729858 134.50259399 0.1163000017 111.51486206 114.13729858 5868.0000000  -999.250000 6793.0000000 6793.0000000 6793.0000000 0.0306299999  -999.250000 0.0306299999 0.0306299999  -999.250000 35.046901703 32.603801727
 1943.3011500 2.5531001091 64.513595581 113.66459656 131.19709778 0.0998999998 113.04987335 113.66459656 5868.0000000  -999.250000 6793.0000000 6793.0000000 6793.0000000 0.0318799987  -999.250000 0.0318799987 0.0318799987  -999.250000 40.792198181 37.839099884
 1943.4536100 2.5508999825 64.531402588 111.23670197 136.15440369 0.0931999981 112.04670715 111.23670197 5868.0000000  -999.250000 6793.0000000 6793.0000000 6793.0000000 0.0326600000  -999.250000 0.0326600000 0.0326600000  -999.250000 39.635200500 37.246601105
 1943.6059600 2.5421998501 65.210998535 109.74490356 141.58389282 0.0851999968 111.38973999 109.74490356 5868.0000000  -999.250000 6793.0000000 6793.0000000 6793.0000000 0.0320699997  -999.250000 0.0320699997 0.0320699997  -999.250000 31.339799881 30.103900909
 1943.7584200 2.5432000160 64.318099976 110.33640289 153.78909302 0.0746000037 111.50759125 110.33640289 5868.0000000  -999.250000 6793.0000000 6793.0000000 6793.0000000 0.0295899995  -999.250000 0.0295899995 0.0295899995  -999.250000 43.324699402 41.868598938
 1943.9107700 2.5426001549 63.071197510 112.09649658 153.55310059 0.0640999973 110.33226776 112.09649658  -999.250000  -999.250000 6793.0000000 6793.0000000 6793.0000000 0.0287500005  -999.250000 0.0287500005 0.0287500005  -999.250000 53.022899628 51.192790985
 1944.0632300 2.5333001614 63.273200989 113.69179535 150.83830261 0.0710000023 111.90268707 113.69180298 5851.0000000  -999.250000 6793.0000000 6793.0000000 6793.0000000 0.0300500002  -999.250000 0.0300500002 0.0300500002  -999.250000 45.113601685 43.664890289
 1944.2155800 2.5038001537 68.454299927 114.74579620 140.66729736 0.0945999995 116.36432648 114.74579620 5851.0000000  -999.250000 6793.0000000 6793.0000000 6793.0000000 0.0496100001  -999.250000 0.0496100001 0.0496100001  -999.250000 20.004999161 19.285499573
 1944.3680400 2.4853000641 69.040000916 116.29889679 135.47390747 0.1177000031 119.81075287 116.29889679  -999.250000  -999.250000 6793.0000000 6793.0000000 6793.0000000 0.0858400017  -999.250000 0.0858400017 0.0858400017  -999.250000 12.084600449 11.646400452
 1944.5203900 2.4958000183 67.245399475 119.45940399 135.70989990 0.1402000040 120.58413696 119.45939636 5868.0000000  -999.250000 6793.0000000 6793.0000000 6793.0000000 0.0394200012  -999.250000 0.0394200012 0.0394200012  -999.250000 18.131099701 17.475500107
 1944.6728500 2.5218999386 66.476402283 121.06880188 133.27029419 0.1404000074 120.44319916 121.06880188 5868.0000000  -999.250000 6793.0000000 6793.0000000 6793.0000000 0.0373600014  -999.250000 0.0373600014 0.0373600014  -999.250000 34.423801422 33.139999390
 1944.8252000 2.5397000313 62.708801270 118.75819397 132.32609558 0.1341000050 114.88349152 118.75820160 5868.0000000  -999.250000 6793.0000000 6793.0000000 6793.0000000 0.0306700002  -999.250000 0.0306700002 0.0306700002  -999.250000 51.658401489 49.424499512
 1944.9775400 2.5492000580 62.861698151 113.38080597 127.48670197 0.1248999983 114.16947937 113.38079834 5868.0000000  -999.250000 6793.0000000 6793.0000000 6793.0000000 0.0303199999  -999.250000 0.0303199999 0.0303199999  -999.250000 51.175701141 49.130001068
 1945.1300000 2.5568997860 62.493900299 110.61129761 129.29069519 0.1164000034 110.15125275 110.61129761 5868.0000000  -999.250000 6793.0000000 6793.0000000 6793.0000000 0.0306899995  -999.250000 0.0306899995 0.0306899995  -999.250000 44.301811218 42.737499237
 1945.2823500 2.5515999794 62.488697052 108.39599609 129.52670288 0.1058999971 108.82630920 108.39600372 5868.0000000  -999.250000 6793.0000000 6793.0000000 6793.0000000 0.0314199999  -999.250000 0.0314199999 0.0314199999  -999.250000 51.697490692 49.562988281
 1945.4348100 2.5386002064 62.502700806 107.39599609 136.96279907 0.0992000028 109.82145691 107.39600372 5868.0000000  -999.250000 6793.0000000 6793.0000000 6793.0000000 0.0333300009  -999.250000 0.0333300009 0.0333300009  -999.250000 41.455509186 38.968299866
 1945.5871600 2.5362999439 64.379402161 109.58779907 143.82820129 0.0970999971 112.07852173 109.58779907 5868.0000000  -999.250000 6793.0000000 6793.0000000 6793.0000000 0.0340700001  -999.250000 0.0340700001 0.0340700001  -999.250000 27.640600204 25.439300537
 1945.7396200 2.5448999405 61.662097931 112.29389954 146.30690002 0.0979000032 112.98621368 112.29389954  -999.250000  -999.250000 6793.0000000 6793.0000000 6793.0000000 0.0350699984  -999.250000 0.0350699984 0.0350699984  -999.250000 26.234399796 23.848300934
 1945.8919700 2.5362000465 62.575199127 114.19049835 149.49380493 0.0966999978 113.78370667 114.19049835 5851.0000000  -999.250000 6793.0000000 6793.0000000 6793.0000000 0.0330700018  -999.250000 0.0330700018 0.0330700018  -999.250000 28.544200897 25.987899780
 1946.0444300 2.5208001137 62.520000458 114.92969513 151.14649963 0.1014999971 115.64922333 114.92970276 5851.0000000  -999.250000 6793.0000000 6793.0000000 6793.0000000 0.0379199982  -999.250000 0.0379199982 0.0379199982  -999.250000 26.325799942 24.327199936
