# LAS format log file from PETREL
# Project units are specified as depth units
#==================================================================
~Version information
VERS.   2.0:
WRAP.   NO:
#==================================================================
~Well
STRT .m      160.22121000 :
STOP .m      2263.6457500 :
STEP .m     0.00000000 :
NULL .        -999.250000 :
COMP.           : COMPANY
WELL.  16/7-10   : WELL
FLD.            : FIELD
LOC.            : LOCATION
SRVC.           : SERVICE COMPANY
DATE.  2018-06-09 11:12:05   : Log Export Date {yyyy-MM-dd HH:mm:ss}
PROV.           : PROVINCE
UWI.   6607   : UNIQUE WELL ID
API.            : API NUMBER
#==================================================================
~Curve
DEPT .m                   : DEPTH
DEN .g/cm3                : DEN
DT .us/ft                 : DT
DTS .us/ft                : DTS
GR .gAPI                  : GR
NPHI .m3/m3               : NPHI
DTS_i7 ._                 : DTS_i7
DTS_mlFilled ._           : DTS_mlFilled
LITHesa10 ._              : LITHesa10
LITHesa9_filtr ._         : LITHesa9_filtr
LITHesa9_i4 ._            : LITHesa9_i4
LITHesa9_i8 ._            : LITHesa9_i8
LITHesa9_i8i4 ._          : LITHesa9_i8i4
PHIE_i7 ._                : PHIE_i7
PHIE_i8 ._                : PHIE_i8
PHIE_i8i7 ._              : PHIE_i8i7
PHIE_mlfilled ._          : PHIE_mlfilled
PHIEed ._                 : PHIEed
RDEP ._                   : RDEP
RMED ._                   : RMED
~Parameter
#==================================================================
~Ascii
# ...
 613.76355000 2.1921999454 139.18290710 388.37411499 148.15750122 0.5257999897 389.37191772 388.37411499 5891.0000000 5891.0000000 5891.0000000 5891.0000000 5891.0000000  -999.250000  -999.250000  -999.250000  -999.250000  -999.250000 2.3859000206 2.1308999062
 613.91595000 2.1942000389 138.92619324 390.64520264 148.22340393 0.5220000148 390.61456299 390.64520264 5891.0000000 5891.0000000 5891.0000000 5891.0000000 5891.0000000  -999.250000  -999.250000  -999.250000  -999.250000  -999.250000 2.3680999279 2.1366999149
 614.06836000 2.1988999844 138.61347961 393.53939819 144.38319397 0.5170999765 394.39413452 393.53939819 5891.0000000 5891.0000000 5891.0000000 5891.0000000 5891.0000000  -999.250000  -999.250000  -999.250000  -999.250000  -999.250000 2.3550000191 2.1445999146
 614.22076000 2.2053000927 138.15982056 396.69720459 145.03729248 0.5155000091 394.37185669 396.69720459 5891.0000000 5891.0000000 5891.0000000 5891.0000000 5891.0000000  -999.250000  -999.250000  -999.250000  -999.250000  -999.250000 2.3622999191 2.1468999386
 614.37317000 2.2113001347 137.82789612 396.33639526 140.30569458 0.5119000077 395.06399536 396.33639526  -999.250000  -999.250000 5891.0000000 5891.0000000 5891.0000000  -999.250000  -999.250000  -999.250000  -999.250000  -999.250000 2.3224000931 2.1208000183
 614.52551000 2.2088000774 137.79711914 392.09191895 140.31930542 0.4855999947 394.80792236 392.09191895  -999.250000  -999.250000 5891.0000000 5891.0000000 5891.0000000  -999.250000  -999.250000  -999.250000  -999.250000  -999.250000 2.2878000736 2.1056001186
 614.67792000 2.1995999813 138.11857605 387.96066284 142.15089417 0.4783999920 388.64010620 387.96066284  -999.250000  -999.250000 5891.0000000 5891.0000000 5891.0000000  -999.250000  -999.250000  -999.250000  -999.250000  -999.250000 2.2532000542 2.0754001141
 614.83032000 2.1846001148 138.93498230 382.56466675 143.03500366 0.5013999939 393.11547852 382.56466675 5891.0000000 5891.0000000 5891.0000000 5891.0000000 5891.0000000  -999.250000  -999.250000  -999.250000  -999.250000  -999.250000 2.2335999012 2.0641999245
 614.98273000 2.1613998413 140.15289307 383.26412964 141.44949341 0.5202000141 390.83312988 383.26412964 5891.0000000 5891.0000000 5891.0000000 5891.0000000 5891.0000000  -999.250000  -999.250000  -999.250000  -999.250000  -999.250000 2.2488000393 2.0367999077
 615.13513000 2.1296999454 141.39599609 384.88436890 141.77780151 0.5318999887 390.02926636 384.88436890 5891.0000000 5891.0000000 5891.0000000 5891.0000000 5891.0000000  -999.250000  -999.250000  -999.250000  -999.250000  -999.250000 2.2053999901 1.9572999477
 615.28754000 2.1098999977 142.17289734 387.96075439 143.42810059 0.5167000294 392.86322021 387.96078491 5891.0000000 5891.0000000 5891.0000000 5891.0000000 5891.0000000  -999.250000  -999.250000  -999.250000  -999.250000  -999.250000 2.1647999287 1.9484000206
 615.43994000 2.1201999187 142.53599548 389.76986694 145.16380310 0.5216000080 395.32348633 389.76986694 5891.0000000 5891.0000000 5891.0000000 5891.0000000 5891.0000000  -999.250000  -999.250000  -999.250000  -999.250000  -999.250000 2.2160999775 2.0304000378
 615.59235000 2.1475000381 142.42939758 398.68981934 141.43479919 0.4876999855 401.12844849 398.68981934 5891.0000000 5891.0000000 5891.0000000 5891.0000000 5891.0000000  -999.250000  -999.250000  -999.250000  -999.250000  -999.250000 2.2911999226 2.0181999207
 615.74475000 2.1733000278 141.47970581 407.31188965 142.99079895 0.5026999712 399.88092041 407.31188965 5891.0000000 5891.0000000 5891.0000000 5891.0000000 5891.0000000  -999.250000  -999.250000  -999.250000  -999.250000  -999.250000 2.2736001015 2.0157999992
 615.89716000 2.1851000786 140.34278870 413.88861084 142.74809265 0.5134999752 403.34210205 413.88861084 5891.0000000 5891.0000000 5891.0000000 5891.0000000 5891.0000000  -999.250000  -999.250000  -999.250000  -999.250000  -999.250000 2.2421000004 2.0418999195
 616.04956000 2.1911001205 139.61860657 410.14920044 144.36230469 0.5404999852 405.19580078 410.14920044 5891.0000000 5891.0000000 5891.0000000 5891.0000000 5891.0000000  -999.250000  -999.250000  -999.250000  -999.250000  -999.250000 2.2351000309 2.0957999229
 616.20197000 2.1933999062 139.19030762 404.18438721 141.19700623 0.5360999703 401.24011230 404.18438721 5891.0000000 5891.0000000 5891.0000000 5891.0000000 5891.0000000  -999.250000  -999.250000  -999.250000  -999.250000  -999.250000 2.3001999855 2.0811998844
 616.35437000 2.1963999271 138.86340332 398.25311279 143.75720215 0.5354999900 396.02441406 398.25311279 5891.0000000 5891.0000000 5891.0000000 5891.0000000 5891.0000000  -999.250000  -999.250000  -999.250000  -999.250000  -999.250000 2.3178000450 2.0973999500
 616.50677000 2.1986999512 138.76609802 397.01361084 142.71080017 0.5173000097 397.13235474 397.01361084 5891.0000000 5891.0000000 5891.0000000 5891.0000000 5891.0000000  -999.250000  -999.250000  -999.250000  -999.250000  -999.250000 2.4031000137 2.0750999451
 616.65912000 2.1991000175 138.94410706 393.90582275 143.25210571 0.5037000179 394.92926025 393.90585327 5891.0000000 5891.0000000 5891.0000000 5891.0000000 5891.0000000  -999.250000  -999.250000  -999.250000  -999.250000  -999.250000 2.3559000492 2.1008000374
 616.81152000 2.1942999363 139.19650269 391.76074219 142.95970154 0.4945999980 392.17056274 391.76077271 5891.0000000 5891.0000000 5891.0000000 5891.0000000 5891.0000000  -999.250000  -999.250000  -999.250000  -999.250000  -999.250000 2.3048999310 2.0947999954
 616.96393000 2.1919999123 139.25239563 388.29794312 144.16619873 0.5142999887 390.51141357 388.29794312 5891.0000000 5891.0000000 5891.0000000 5891.0000000 5891.0000000  -999.250000  -999.250000  -999.250000  -999.250000  -999.250000 2.3048999310 2.1071999073
 617.11633000 2.1871001720 139.04060364 389.61898804 144.48320007 0.5422000289 391.56423950 389.61898804 5891.0000000 5891.0000000 5891.0000000 5891.0000000 5891.0000000  -999.250000  -999.250000  -999.250000  -999.250000  -999.250000 2.2709999084 2.0659999847
 617.26874000 2.1884999275 138.82560730 393.55010986 148.82820129 0.5271000266 393.29681396 393.55010986 5891.0000000 5891.0000000 5891.0000000 5891.0000000 5891.0000000  -999.250000  -999.250000  -999.250000  -999.250000  -999.250000 2.2476000786 2.0587000847
 617.42114000 2.1913001537 138.55479431 394.39968872 149.02749634 0.5188000202 394.53747559 394.39968872 5891.0000000 5891.0000000 5891.0000000 5891.0000000 5891.0000000  -999.250000  -999.250000  -999.250000  -999.250000  -999.250000 2.2163000107 2.0251998901
 617.57355000 2.1944999695 138.56050110 399.85830688 148.73320007 0.4745999873 398.24496460 399.85830688 5891.0000000 5891.0000000 5891.0000000 5891.0000000 5891.0000000  -999.250000  -999.250000  -999.250000  -999.250000  -999.250000 2.2158000469 1.9855999947
 617.72595000 2.2058000565 139.07069397 395.38018799 144.40780640 0.4893999994 392.78683472 395.38018799 5891.0000000 5891.0000000 5891.0000000 5891.0000000 5891.0000000  -999.250000  -999.250000  -999.250000  -999.250000  -999.250000 2.1919999123 1.9752999544
 617.87836000 2.2193000317 139.47579956 384.23211670 143.93780518 0.4781999886 387.56805420 384.23211670 5891.0000000 5891.0000000 5891.0000000 5891.0000000 5891.0000000  -999.250000  -999.250000  -999.250000  -999.250000  -999.250000 2.2404999733 2.0511000156
 618.03076000 2.2271001339 139.46740723 388.64581299 139.22160339 0.5033000112 390.99902344 388.64581299  -999.250000  -999.250000 5891.0000000 5891.0000000 5891.0000000  -999.250000  -999.250000  -999.250000  -999.250000  -999.250000 2.2379000187 2.0348999500
 618.18317000 2.2079999447 139.23510742 394.49209595 143.45629883 0.4850000143 392.83380127 394.49209595  -999.250000  -999.250000 5891.0000000 5891.0000000 5891.0000000  -999.250000  -999.250000  -999.250000  -999.250000  -999.250000 2.2430999279 2.0388000011
 618.33557000 2.1837999821 139.08590698 393.35980225 145.26379395 0.4947000146 395.18795776 393.35980225 5891.0000000 5891.0000000 5891.0000000 5891.0000000 5891.0000000  -999.250000  -999.250000  -999.250000  -999.250000  -999.250000 2.2483000755 2.0427000523
