# LAS format log file from PETREL
# Project units are specified as depth units
#==================================================================
~Version information
VERS.   2.0:
WRAP.   NO:
#==================================================================
~Well
STRT .m      160.22121000 :
STOP .m      2263.6457500 :
STEP .m     0.00000000 :
NULL .        -999.250000 :
COMP.           : COMPANY
WELL.  16/7-10   : WELL
FLD.            : FIELD
LOC.            : LOCATION
SRVC.           : SERVICE COMPANY
DATE.  2018-06-09 11:12:05   : Log Export Date {yyyy-MM-dd HH:mm:ss}
PROV.           : PROVINCE
UWI.   6607   : UNIQUE WELL ID
API.            : API NUMBER
#==================================================================
~Curve
DEPT .m                   : DEPTH
DEN .g/cm3                : DEN
DT .us/ft                 : DT
DTS .us/ft                : DTS
GR .gAPI                  : GR
NPHI .m3/m3               : NPHI
DTS_i7 ._                 : DTS_i7
DTS_mlFilled ._           : DTS_mlFilled
LITHesa10 ._              : LITHesa10
LITHesa9_filtr ._         : LITHesa9_filtr
LITHesa9_i4 ._            : LITHesa9_i4
LITHesa9_i8 ._            : LITHesa9_i8
LITHesa9_i8i4 ._          : LITHesa9_i8i4
PHIE_i7 ._                : PHIE_i7
PHIE_i8 ._                : PHIE_i8
PHIE_i8i7 ._              : PHIE_i8i7
PHIE_mlfilled ._          : PHIE_mlfilled
PHIEed ._                 : PHIEed
RDEP ._                   : RDEP
RMED ._                   : RMED
~Parameter
#==================================================================
~Ascii
# ...
 1837.3830600 2.1565999985 130.40438843 321.25622559 93.742797852 0.5289000273 322.53884888 321.25619507  -999.250000  -999.250000 5891.0000000 5891.0000000 5891.0000000  -999.250000  -999.250000  -999.250000  -999.250000  -999.250000 0.7749999762 0.7692999840
 1837.5354000 2.2358999252 126.86395264 330.74899292 92.461196899 0.5227000117 327.30178833 330.74899292  -999.250000  -999.250000 5891.0000000 5891.0000000 5891.0000000  -999.250000  -999.250000  -999.250000  -999.250000  -999.250000 0.7761999965 0.7735999823
 1837.6878700 2.2673001289 129.38796997 340.08859253 100.53459930 0.5133000016 335.10287476 340.08859253  -999.250000  -999.250000 5891.0000000 5891.0000000 5891.0000000  -999.250000  -999.250000  -999.250000  -999.250000  -999.250000 0.7753999829 0.7767999768
 1837.8402100 2.2688000202 131.92756653 344.22689819 97.857101440 0.4939999878 335.13186646 344.22689819  -999.250000  -999.250000 5891.0000000 5891.0000000 5891.0000000  -999.250000  -999.250000  -999.250000  -999.250000  -999.250000 0.7660999894 0.7702999711
 1837.9926800 2.2460000515 134.10356140 347.10559082 101.39890289 0.4830000103 343.49740601 347.10559082  -999.250000  -999.250000 5891.0000000 5891.0000000 5891.0000000  -999.250000  -999.250000  -999.250000  -999.250000  -999.250000 0.7591999769 0.7577000260
 1838.1450200 2.2581000328 135.66975403 336.03656006 99.681297302 0.5042999983 338.44683838 336.03656006  -999.250000  -999.250000 5891.0000000 5891.0000000 5891.0000000  -999.250000  -999.250000  -999.250000  -999.250000  -999.250000 0.7511000037 0.7523999810
 1838.2973600 2.2599999905 135.27752686 331.58029175 99.054801941 0.4688000083 334.85617065 331.58029175  -999.250000  -999.250000 5891.0000000 5891.0000000 5891.0000000  -999.250000  -999.250000  -999.250000  -999.250000  -999.250000 0.7559000254 0.7590000033
 1838.4498300 2.2502000332 134.36703491 330.01519775 97.089103699 0.4923000038 331.80502319 330.01519775  -999.250000  -999.250000 5891.0000000 5891.0000000 5891.0000000  -999.250000  -999.250000  -999.250000  -999.250000  -999.250000 0.7488999963 0.7508000135
 1838.6021700 2.2433998585 133.88307190 328.36499023 98.141799927 0.4632999897 330.11157227 328.36499023  -999.250000  -999.250000 5891.0000000 5891.0000000 5891.0000000  -999.250000  -999.250000  -999.250000  -999.250000  -999.250000 0.7502999902 0.7505000234
 1838.7546400 2.2361001968 133.99540710 330.69668579 93.252700806 0.4614999890 333.02621460 330.69668579  -999.250000  -999.250000 5891.0000000 5891.0000000 5891.0000000  -999.250000  -999.250000  -999.250000  -999.250000  -999.250000 0.7554000020 0.7559000254
 1838.9069800 2.2146999836 134.07666016 335.70590210 96.750900269 0.4659999907 340.80200195 335.70590210  -999.250000  -999.250000 5891.0000000 5891.0000000 5891.0000000  -999.250000  -999.250000  -999.250000  -999.250000  -999.250000 0.7472000122 0.7441999912
 1839.0594500 2.1983001232 133.11746216 336.37481689 100.37729645 0.5055999756 338.64520264 336.37481689  -999.250000  -999.250000 5891.0000000 5891.0000000 5891.0000000  -999.250000  -999.250000  -999.250000  -999.250000  -999.250000 0.7429000139 0.7426999807
 1839.2117900 2.1730000973 132.05725098 337.41323853 103.34200287 0.5149000287 335.53393555 337.41323853  -999.250000  -999.250000 5891.0000000 5891.0000000 5891.0000000  -999.250000  -999.250000  -999.250000  -999.250000  -999.250000 0.7200000286 0.7218999863
 1839.3642600 2.2023999691 131.93708801 340.85189819 100.96029663 0.5005000234 339.80657959 340.85189819  -999.250000  -999.250000 5891.0000000 5891.0000000 5891.0000000  -999.250000  -999.250000  -999.250000  -999.250000  -999.250000 0.6935999990 0.7041000128
 1839.5166000 2.2351000309 131.90623474 341.70349121 95.571197510 0.4896000028 341.07568359 341.70349121  -999.250000  -999.250000 5891.0000000 5891.0000000 5891.0000000  -999.250000  -999.250000  -999.250000  -999.250000  -999.250000 0.6911000013 0.6959999800
 1839.6690700 2.2568998337 132.21424866 344.07998657 92.232696533 0.5034000278 341.15945435 344.07998657  -999.250000  -999.250000 5891.0000000 5891.0000000 5891.0000000  -999.250000  -999.250000  -999.250000  -999.250000  -999.250000 0.7487999797 0.7297999859
 1839.8214100 2.2386000156 132.98966980 329.12722778 89.970703125 0.4981999993 331.56869507 329.12722778  -999.250000  -999.250000 5891.0000000 5891.0000000 5891.0000000  -999.250000  -999.250000  -999.250000  -999.250000  -999.250000 0.7802000046 0.7565000057
 1839.9738800 2.1883001328 132.41806030 332.62658691 91.963699341 0.5169000030 338.32104492 332.62658691  -999.250000  -999.250000 5891.0000000 5891.0000000 5891.0000000  -999.250000  -999.250000  -999.250000  -999.250000  -999.250000 0.7831000090 0.7562999725
 1840.1262200 2.1559998989 131.51521301 337.89880371 87.595001221 0.5385000110 340.49182129 337.89880371  -999.250000  -999.250000 5891.0000000 5891.0000000 5891.0000000  -999.250000  -999.250000  -999.250000  -999.250000  -999.250000 0.7396000028 0.7249000072
 1840.2786900 2.1217000484 132.63040161 343.52551270 82.500701904 0.5256999731 339.12225342 343.52551270  -999.250000  -999.250000 5891.0000000 5891.0000000 5891.0000000  -999.250000  -999.250000  -999.250000  -999.250000  -999.250000 0.7125999928 0.7113999724
 1840.4310300 2.0963997841 135.04386902 345.01620483 83.304199219 0.4733999968 348.47366333 345.01620483  -999.250000  -999.250000 5891.0000000 5891.0000000 5891.0000000  -999.250000  -999.250000  -999.250000  -999.250000  -999.250000 0.7326999903 0.7146000266
 1840.5833700 2.1056001186 138.62326050 332.59838867 78.723899841 0.4535000026 350.17141724 332.59838867  -999.250000  -999.250000 5891.0000000 5891.0000000 5891.0000000  -999.250000  -999.250000  -999.250000  -999.250000  -999.250000 0.8320000172 0.7793999910
 1840.7358400 2.2209999561 140.89057922 326.41409302 75.147697449 0.4654000103 342.96664429 326.41409302  -999.250000  -999.250000 5891.0000000 5891.0000000 5891.0000000  -999.250000  -999.250000  -999.250000  -999.250000  -999.250000 1.0772999525 0.9819999933
 1840.8881800 2.3823001385 138.86155701 329.86160278 68.073097229 0.4485000074 333.75982666 329.86160278  -999.250000  -999.250000 5891.0000000 5891.0000000 5891.0000000  -999.250000  -999.250000  -999.250000  -999.250000  -999.250000 1.3097000122 1.2107000351
 1841.0406500 2.4979999065 133.13829041 314.11428833 59.985500336 0.4618999958 318.63717651 314.11428833  -999.250000  -999.250000 5891.0000000 5891.0000000 5891.0000000  -999.250000  -999.250000  -999.250000  -999.250000  -999.250000 1.3828999996 1.3037999868
 1841.1929900 2.4246001244 129.05802917 295.55090332 54.433399200 0.4575999975 292.06854248 295.55090332 5860.0000000  -999.250000 5891.0000000 5891.0000000 5891.0000000  -999.250000  -999.250000  -999.250000  -999.250000  -999.250000 1.2163000107 1.1476999521
 1841.3454600 2.2788999081 130.93128967 294.52960205 57.199501038 0.5109999776 311.79263306 294.52960205 5860.0000000  -999.250000 5891.0000000 5891.0000000 5891.0000000  -999.250000  -999.250000  -999.250000  -999.250000  -999.250000 0.8399000168 0.8169000149
 1841.4978000 2.1543998718 136.09985352 301.02639771 61.929798126 0.5144000053 331.45599365 301.02639771  -999.250000  -999.250000 5891.0000000 5891.0000000 5891.0000000  -999.250000  -999.250000  -999.250000  -999.250000  -999.250000 0.7002999783 0.6999999881
 1841.6502700 2.1433999538 139.80514526 308.58981323 69.521003723 0.5048000216 329.96456909 308.58981323  -999.250000  -999.250000 5891.0000000 5891.0000000 5891.0000000  -999.250000  -999.250000  -999.250000  -999.250000  -999.250000 0.5885000229 0.5963000059
 1841.8026100 2.1721999645 139.85147095 334.26901245 74.808601379 0.4982999861 353.60958862 334.26901245  -999.250000  -999.250000 5891.0000000 5891.0000000 5891.0000000  -999.250000  -999.250000  -999.250000  -999.250000  -999.250000 0.7287999988 0.7078999877
 1841.9550800 2.1914999485 138.72270203 367.96948242 73.709503174 0.4722000062 369.56854248 367.96948242  -999.250000  -999.250000 5891.0000000 5891.0000000 5891.0000000  -999.250000  -999.250000  -999.250000  -999.250000  -999.250000 0.8610000014 0.8392999768
