# LAS format log file from PETREL
# Project units are specified as depth units
#==================================================================
~Version information
VERS.   2.0:
WRAP.   NO:
#==================================================================
~Well
STRT .m      160.22121000 :
STOP .m      2263.6457500 :
STEP .m     0.00000000 :
NULL .        -999.250000 :
COMP.           : COMPANY
WELL.  16/7-10   : WELL
FLD.            : FIELD
LOC.            : LOCATION
SRVC.           : SERVICE COMPANY
DATE.  2018-06-09 11:12:05   : Log Export Date {yyyy-MM-dd HH:mm:ss}
PROV.           : PROVINCE
UWI.   6607   : UNIQUE WELL ID
API.            : API NUMBER
#==================================================================
~Curve
DEPT .m                   : DEPTH
DEN .g/cm3                : DEN
DT .us/ft                 : DT
DTS .us/ft                : DTS
GR .gAPI                  : GR
NPHI .m3/m3               : NPHI
DTS_i7 ._                 : DTS_i7
DTS_mlFilled ._           : DTS_mlFilled
LITHesa10 ._              : LITHesa10
LITHesa9_filtr ._         : LITHesa9_filtr
LITHesa9_i4 ._            : LITHesa9_i4
LITHesa9_i8 ._            : LITHesa9_i8
LITHesa9_i8i4 ._          : LITHesa9_i8i4
PHIE_i7 ._                : PHIE_i7
PHIE_i8 ._                : PHIE_i8
PHIE_i8i7 ._              : PHIE_i8i7
PHIE_mlfilled ._          : PHIE_mlfilled
PHIEed ._                 : PHIEed
RDEP ._                   : RDEP
RMED ._                   : RMED
~Parameter
#==================================================================
~Ascii
# ...
 1723.9973100 2.1845099926 140.32592773 363.34432983 88.677803040 0.5254899859 363.98626709 363.34436035  -999.250000  -999.250000 5891.0000000 5891.0000000 5891.0000000  -999.250000  -999.250000  -999.250000  -999.250000  -999.250000 0.6546999812 0.6518999934
 1724.1497800 2.1753101349 140.28433228 365.65625000 86.832496643 0.5021200180 373.49069214 365.65625000  -999.250000  -999.250000 5891.0000000 5891.0000000 5891.0000000  -999.250000  -999.250000  -999.250000  -999.250000  -999.250000 0.6611999869 0.6613000035
 1724.3021200 2.1653101444 140.70877075 372.46972656 83.674499512 0.5029000044 368.37478638 372.46972656  -999.250000  -999.250000 5891.0000000 5891.0000000 5891.0000000  -999.250000  -999.250000  -999.250000  -999.250000  -999.250000 0.6728000045 0.6685000062
 1724.4545900 2.1510100365 141.25917053 374.74996948 81.417900085 0.5009999871 370.77554321 374.74996948  -999.250000  -999.250000 5891.0000000 5891.0000000 5891.0000000  -999.250000  -999.250000  -999.250000  -999.250000  -999.250000 0.6740999818 0.6714000106
 1724.6069300 2.1347100735 142.31994629 375.09970093 79.736297607 0.5169900060 372.44766235 375.09970093  -999.250000  -999.250000 5891.0000000 5891.0000000 5891.0000000  -999.250000  -999.250000  -999.250000  -999.250000  -999.250000 0.7049999833 0.7006999850
 1724.7594000 2.1453897953 143.66412354 374.38119507 77.398803711 0.5452799797 386.81469727 374.38119507 5877.0000000  -999.250000 5891.0000000 5891.0000000 5891.0000000  -999.250000  -999.250000  -999.250000  -999.250000  -999.250000 0.7092999816 0.7160999775
 1724.9117400 2.2440199852 143.28370667 365.55957031 77.179702759 0.5248200297 375.44973755 365.55957031 5877.0000000  -999.250000 5891.0000000 5891.0000000 5891.0000000  -999.250000  -999.250000  -999.250000  -999.250000  -999.250000 0.6881999969 0.6945999861
 1725.0640900 2.3904700279 139.30477905 346.11459351 68.565597534 0.4878599942 352.28192139 346.11459351 5877.0000000  -999.250000 5891.0000000 5891.0000000 5891.0000000  -999.250000  -999.250000  -999.250000  -999.250000  -999.250000 0.7261000276 0.7225000262
 1725.2165500 2.4913201332 134.61004639 344.67785645 63.103298187 0.4585199952 329.87503052 344.67782593 5877.0000000  -999.250000 5891.0000000 5891.0000000 5891.0000000  -999.250000  -999.250000  -999.250000  -999.250000  -999.250000 0.9531000257 0.9401999712
 1725.3689000 2.4323899746 132.46553040 341.68719482 65.395698547 0.4643900096 333.97576904 341.68719482 5877.0000000  -999.250000 5891.0000000 5891.0000000 5891.0000000  -999.250000  -999.250000  -999.250000  -999.250000  -999.250000 0.8417999744 0.8374999762
 1725.5213600 2.3108999729 132.74867249 350.84884644 75.425102234 0.4729900062 351.80230713 350.84884644 5877.0000000  -999.250000 5891.0000000 5891.0000000 5891.0000000  -999.250000  -999.250000  -999.250000  -999.250000  -999.250000 0.6463000178 0.6571000218
 1725.6737100 2.2127599716 136.22602844 361.87081909 83.506301880 0.4446499944 362.18804932 361.87081909 5877.0000000  -999.250000 5891.0000000 5891.0000000 5891.0000000  -999.250000  -999.250000  -999.250000  -999.250000  -999.250000 0.6211000085 0.6317999959
 1725.8261700 2.2004098892 139.21389771 359.50262451 84.376602173 0.4449000061 361.53958130 359.50262451  -999.250000  -999.250000 5891.0000000 5891.0000000 5891.0000000  -999.250000  -999.250000  -999.250000  -999.250000  -999.250000 0.6205999851 0.6320000291
 1725.9785200 2.2014999390 141.57051086 368.38204956 80.804298401 0.4745799899 372.49575806 368.38208008  -999.250000  -999.250000 5891.0000000 5891.0000000 5891.0000000  -999.250000  -999.250000  -999.250000  -999.250000  -999.250000 0.6326000094 0.6413999796
 1726.1309800 2.1972999573 142.44659424 372.95193481 81.672897339 0.4963800013 374.97207642 372.95193481  -999.250000  -999.250000 5891.0000000 5891.0000000 5891.0000000  -999.250000  -999.250000  -999.250000  -999.250000  -999.250000 0.6317999959 0.6394000053
 1726.2833300 2.1889100075 141.15293884 370.87548828 82.400199890 0.5035899878 369.94384766 370.87548828  -999.250000  -999.250000 5891.0000000 5891.0000000 5891.0000000  -999.250000  -999.250000  -999.250000  -999.250000  -999.250000 0.6075000167 0.6008999944
 1726.4357900 2.1908998489 142.50431824 373.56802368 85.860900879 0.4910100102 380.82473755 373.56802368  -999.250000  -999.250000 5891.0000000 5891.0000000 5891.0000000  -999.250000  -999.250000  -999.250000  -999.250000  -999.250000 0.6154000163 0.6144999862
 1726.5881300 2.1946001053 144.58053589 371.64157104 83.931098938 0.4843100011 374.10513306 371.64157104  -999.250000  -999.250000 5891.0000000 5891.0000000 5891.0000000  -999.250000  -999.250000  -999.250000  -999.250000  -999.250000 0.6506999731 0.6460999846
 1726.7406000 2.1953999996 144.94731140 373.07122803 85.045700073 0.4737100005 374.14755249 373.07122803  -999.250000  -999.250000 5891.0000000 5891.0000000 5891.0000000  -999.250000  -999.250000  -999.250000  -999.250000  -999.250000 0.6557000279 0.6549999714
 1726.8929400 2.1919999123 143.09757996 372.49606323 86.808097839 0.4727999866 370.67639160 372.49606323  -999.250000  -999.250000 5891.0000000 5891.0000000 5891.0000000  -999.250000  -999.250000  -999.250000  -999.250000  -999.250000 0.6708999872 0.6671000123
 1727.0452900 2.1969900131 141.44065857 371.55548096 88.809097290 0.4864799976 369.25390625 371.55548096  -999.250000  -999.250000 5891.0000000 5891.0000000 5891.0000000  -999.250000  -999.250000  -999.250000  -999.250000  -999.250000 0.6768000126 0.6737999916
 1727.1977500 2.1996998787 141.11186218 371.30160522 91.319099426 0.4729099870 366.84545898 371.30160522  -999.250000  -999.250000 5891.0000000 5891.0000000 5891.0000000  -999.250000  -999.250000  -999.250000  -999.250000  -999.250000 0.6736999750 0.6711000204
 1727.3501000 2.2029900551 140.95774841 369.07876587 88.275100708 0.4651100039 366.34429932 369.07876587  -999.250000  -999.250000 5891.0000000 5891.0000000 5891.0000000  -999.250000  -999.250000  -999.250000  -999.250000  -999.250000 0.6758999825 0.6687999964
 1727.5025600 2.1993000507 141.21928406 368.43182373 85.610603333 0.4609000087 367.77011108 368.43182373  -999.250000  -999.250000 5891.0000000 5891.0000000 5891.0000000  -999.250000  -999.250000  -999.250000  -999.250000  -999.250000 0.6750000119 0.6693000197
 1727.6549100 2.1903100014 141.13174438 368.40057373 80.989303589 0.4470199943 365.73129272 368.40057373  -999.250000  -999.250000 5891.0000000 5891.0000000 5891.0000000  -999.250000  -999.250000  -999.250000  -999.250000  -999.250000 0.6579999924 0.6618999839
 1727.8073700 2.1856999397 140.97282410 369.99789429 81.103500366 0.4615899920 368.06185913 369.99792480  -999.250000  -999.250000 5891.0000000 5891.0000000 5891.0000000  -999.250000  -999.250000  -999.250000  -999.250000  -999.250000 0.6503000259 0.6542000175
 1727.9597200 2.2212700844 141.40895081 368.63449097 84.754402161 0.4666999876 370.49142456 368.63449097  -999.250000  -999.250000 5891.0000000 5891.0000000 5891.0000000  -999.250000  -999.250000  -999.250000  -999.250000  -999.250000 0.6751999855 0.6732000113
 1728.1121800 2.3061299324 140.79759216 362.54898071 79.537002563 0.4981699884 350.90023804 362.54898071  -999.250000  -999.250000 5891.0000000 5891.0000000 5891.0000000  -999.250000  -999.250000  -999.250000  -999.250000  -999.250000 0.8506000042 0.8292999864
 1728.2645300 2.3896000385 138.57768250 365.98385620 79.040397644 0.4590300024 351.65499878 365.98385620 5860.0000000  -999.250000 5891.0000000 5891.0000000 5891.0000000  -999.250000  -999.250000  -999.250000  -999.250000  -999.250000 0.9046000242 0.8902000189
 1728.4169900 2.3631000519 136.50025940 349.00820923 77.136703491 0.4374200106 338.93344116 349.00820923 5860.0000000  -999.250000 5891.0000000 5891.0000000 5891.0000000  -999.250000  -999.250000  -999.250000  -999.250000  -999.250000 0.7208999991 0.7240999937
 1728.5693400 2.2799999714 136.54655457 341.51641846 86.885696411 0.4327000082 349.91772461 341.51641846  -999.250000  -999.250000 5891.0000000 5891.0000000 5891.0000000  -999.250000  -999.250000  -999.250000  -999.250000  -999.250000 0.6628000140 0.6686999798
