# LAS format log file from PETREL
# Project units are specified as depth units
#==================================================================
~Version information
VERS.   2.0:
WRAP.   NO:
#==================================================================
~Well
STRT .m      160.22121000 :
STOP .m      2263.6457500 :
STEP .m     0.00000000 :
NULL .        -999.250000 :
COMP.           : COMPANY
WELL.  16/7-10   : WELL
FLD.            : FIELD
LOC.            : LOCATION
SRVC.           : SERVICE COMPANY
DATE.  2018-06-09 11:12:05   : Log Export Date {yyyy-MM-dd HH:mm:ss}
PROV.           : PROVINCE
UWI.   6607   : UNIQUE WELL ID
API.            : API NUMBER
#==================================================================
~Curve
DEPT .m                   : DEPTH
DEN .g/cm3                : DEN
DT .us/ft                 : DT
DTS .us/ft                : DTS
GR .gAPI                  : GR
NPHI .m3/m3               : NPHI
DTS_i7 ._                 : DTS_i7
DTS_mlFilled ._           : DTS_mlFilled
LITHesa10 ._              : LITHesa10
LITHesa9_filtr ._         : LITHesa9_filtr
LITHesa9_i4 ._            : LITHesa9_i4
LITHesa9_i8 ._            : LITHesa9_i8
LITHesa9_i8i4 ._          : LITHesa9_i8i4
PHIE_i7 ._                : PHIE_i7
PHIE_i8 ._                : PHIE_i8
PHIE_i8i7 ._              : PHIE_i8i7
PHIE_mlfilled ._          : PHIE_mlfilled
PHIEed ._                 : PHIEed
RDEP ._                   : RDEP
RMED ._                   : RMED
~Parameter
#==================================================================
~Ascii
# ...
 835.81030000 2.0216000080 147.91581726 428.18988037 94.002296448 0.4526000023 430.89547729 428.18988037 5868.0000000  -999.250000 5868.0000000 5891.0000000 5891.0000000  -999.250000  -999.250000  -999.250000  -999.250000  -999.250000 0.8880000114 0.7929999828
 835.96271000 2.0255000591 147.31173706 435.22927856 96.730003357 0.4542999864 432.35745239 435.22927856 5868.0000000  -999.250000 5868.0000000 5891.0000000 5891.0000000  -999.250000  -999.250000  -999.250000  -999.250000  -999.250000 0.9007999897 0.8064000010
 836.11511000 2.0311000347 147.06091309 441.39163208 94.266403198 0.4745000005 433.62619019 441.39163208 5868.0000000  -999.250000 5868.0000000 5891.0000000 5891.0000000  -999.250000  -999.250000  -999.250000  -999.250000  -999.250000 0.8982999921 0.8119999766
 836.26752000 2.0327999592 147.16516113 433.07302856 93.400596619 0.4943000078 431.27026367 433.07302856 5868.0000000  -999.250000 5868.0000000 5891.0000000 5891.0000000  -999.250000  -999.250000  -999.250000  -999.250000  -999.250000 0.8895000219 0.8069999814
 836.41992000 2.0343000889 147.22647095 425.05270386 92.326400757 0.4699000120 423.64636230 425.05270386 5868.0000000  -999.250000 5868.0000000 5891.0000000 5891.0000000  -999.250000  -999.250000  -999.250000  -999.250000  -999.250000 0.9103000164 0.8130999804
 836.57233000 2.0348999500 147.31446838 419.43466187 89.637298584 0.4717000127 419.93487549 419.43466187 5868.0000000  -999.250000 5868.0000000 5891.0000000 5891.0000000  -999.250000  -999.250000  -999.250000  -999.250000  -999.250000 0.9106000066 0.8155999780
 836.72473000 2.0383999348 147.35708618 417.80255127 90.448501587 0.4781000018 422.36935425 417.80255127 5868.0000000  -999.250000 5868.0000000 5891.0000000 5891.0000000  -999.250000  -999.250000  -999.250000  -999.250000  -999.250000 0.8880000114 0.8065000176
 836.87708000 2.0413999557 147.15086365 421.45855713 87.994499207 0.4862000048 423.74740601 421.45855713 5868.0000000  -999.250000 5868.0000000 5891.0000000 5891.0000000  -999.250000  -999.250000  -999.250000  -999.250000  -999.250000 0.8991000056 0.8109999895
 837.02948000 2.0456998348 146.70645142 427.33990479 87.504302979 0.4781999886 422.15988159 427.33990479 5868.0000000  -999.250000 5868.0000000 5891.0000000 5891.0000000  -999.250000  -999.250000  -999.250000  -999.250000  -999.250000 0.9223999977 0.8334000111
 837.18188000 2.0513999462 146.23048401 429.06192017 86.788002014 0.4636000097 421.57449341 429.06192017 5868.0000000  -999.250000 5891.0000000 5891.0000000 5891.0000000  -999.250000  -999.250000  -999.250000  -999.250000  -999.250000 0.9383000135 0.8450999856
 837.33429000 2.0586001873 145.82116699 426.35391235 89.468803406 0.4564999938 425.73193359 426.35391235 5868.0000000  -999.250000 5868.0000000 5891.0000000 5891.0000000  -999.250000  -999.250000  -999.250000  -999.250000  -999.250000 0.9258999825 0.8424000144
 837.48669000 2.0608000755 145.63537598 424.03070068 92.397399902 0.4490999877 422.43484497 424.03070068 5868.0000000  -999.250000 5868.0000000 5891.0000000 5891.0000000  -999.250000  -999.250000  -999.250000  -999.250000  -999.250000 0.9386000037 0.8350999951
 837.63910000 2.0601000786 145.64430237 420.68585205 94.224998474 0.4467999935 422.07223511 420.68585205 5868.0000000  -999.250000 5868.0000000 5891.0000000 5891.0000000  -999.250000  -999.250000  -999.250000  -999.250000  -999.250000 0.9235000014 0.8331000209
 837.79150000 2.0586998463 145.89538574 418.20751953 93.479797363 0.4647000134 422.82962036 418.20751953 5868.0000000  -999.250000 5868.0000000 5891.0000000 5891.0000000  -999.250000  -999.250000  -999.250000  -999.250000  -999.250000 0.9297999740 0.8198999763
 837.94391000 2.0592000484 146.32173157 420.66693115 92.833396912 0.4614999890 421.16439819 420.66693115 5868.0000000  -999.250000 5868.0000000 5891.0000000 5891.0000000  -999.250000  -999.250000  -999.250000  -999.250000  -999.250000 0.9050999880 0.8287000060
 838.09631000 2.0576000214 146.73773193 425.38388062 91.317398071 0.4699000120 425.54116821 425.38391113 5868.0000000  -999.250000 5868.0000000 5891.0000000 5891.0000000  -999.250000  -999.250000  -999.250000  -999.250000  -999.250000 0.8971999884 0.8087999821
 838.24872000 2.0490000248 147.34295654 427.66757202 89.976699829 0.4736999869 429.96316528 427.66757202 5868.0000000  -999.250000 5868.0000000 5891.0000000 5891.0000000  -999.250000  -999.250000  -999.250000  -999.250000  -999.250000 0.8518000245 0.7682999969
 838.40112000 2.0351998806 148.22454834 429.20758057 92.322601318 0.4821000099 428.58108521 429.20758057 5868.0000000  -999.250000 5868.0000000 5891.0000000 5891.0000000  -999.250000  -999.250000  -999.250000  -999.250000  -999.250000 0.8378000259 0.7577999830
 838.55353000 2.0223000050 149.12585449 429.13034058 91.244300842 0.4691999853 430.06088257 429.13034058 5868.0000000  -999.250000 5868.0000000 5891.0000000 5891.0000000  -999.250000  -999.250000  -999.250000  -999.250000  -999.250000 0.8601999879 0.7777000070
 838.70593000 2.0134999752 149.91038513 428.41226196 91.473899841 0.4598000050 428.91250610 428.41226196 5868.0000000  -999.250000 5868.0000000 5891.0000000 5891.0000000  -999.250000  -999.250000  -999.250000  -999.250000  -999.250000 0.8386999965 0.7465999722
 838.85834000 2.0086998940 150.54563904 432.56573486 88.605003357 0.4607000053 433.81723022 432.56573486 5868.0000000  -999.250000 5868.0000000 5891.0000000 5891.0000000  -999.250000  -999.250000  -999.250000  -999.250000  -999.250000 0.8386999965 0.7465999722
 839.01068000 2.0081999302 150.86323547 439.69210815 88.540802002 0.4539000094 437.77511597 439.69210815 5868.0000000  -999.250000 5868.0000000 5891.0000000 5891.0000000  -999.250000  -999.250000  -999.250000  -999.250000  -999.250000 0.8529999852 0.7531999946
 839.16309000 2.0111999512 150.79377747 446.16979980 88.785400391 0.4668999910 439.24972534 446.16979980 5868.0000000  -999.250000 5868.0000000 5891.0000000 5891.0000000  -999.250000  -999.250000  -999.250000  -999.250000  -999.250000 0.8456000090 0.7585999966
 839.31549000 2.0181999207 150.44967651 448.19836426 88.230499268 0.4810999930 445.64797974 448.19836426 5868.0000000  -999.250000 5868.0000000 5891.0000000 5891.0000000  -999.250000  -999.250000  -999.250000  -999.250000  -999.250000 0.8537999988 0.7602000237
 839.46790000 2.0211000443 149.98936462 447.64559937 87.889503479 0.5055000186 446.16470337 447.64559937 5868.0000000  -999.250000 5868.0000000 5891.0000000 5891.0000000  -999.250000  -999.250000  -999.250000  -999.250000  -999.250000 0.8519999981 0.7655000091
 839.62030000 2.0200998783 149.44670105 445.55432129 88.536697388 0.5004000068 441.47573853 445.55432129 5868.0000000  -999.250000 5868.0000000 5891.0000000 5891.0000000  -999.250000  -999.250000  -999.250000  -999.250000  -999.250000 0.8697999716 0.7811999917
 839.77271000 2.0167000294 148.89842224 441.27200317 91.803001404 0.4855999947 441.10711670 441.27200317 5868.0000000  -999.250000 5868.0000000 5891.0000000 5891.0000000  -999.250000  -999.250000  -999.250000  -999.250000  -999.250000 0.8486999869 0.7773000002
 839.92511000 2.0130000114 148.38679504 435.55297852 90.964599609 0.4756000042 435.20108032 435.55297852 5868.0000000  -999.250000 5868.0000000 5891.0000000 5891.0000000  -999.250000  -999.250000  -999.250000  -999.250000  -999.250000 0.8492000103 0.7775999904
 840.07751000 2.0067000389 147.76014709 430.90676880 90.179801941 0.4675000012 426.73199463 430.90676880 5868.0000000  -999.250000 5868.0000000 5891.0000000 5891.0000000  -999.250000  -999.250000  -999.250000  -999.250000  -999.250000 0.8418999910 0.7639999986
 840.22992000 1.9996999502 147.01260376 427.05599976 86.781303406 0.4717000127 424.99148560 427.05603027 5868.0000000  -999.250000 5891.0000000 5891.0000000 5891.0000000  -999.250000  -999.250000  -999.250000  -999.250000  -999.250000 0.8337000012 0.7598999739
 840.38232000 1.9966999292 146.16523743 429.73132324 91.071998596 0.4578999877 424.90444946 429.73132324 5868.0000000  -999.250000 5868.0000000 5891.0000000 5891.0000000  -999.250000  -999.250000  -999.250000  -999.250000  -999.250000 0.8884000182 0.8036000133
