# LAS format log file from PETREL
# Project units are specified as depth units
#==================================================================
~Version information
VERS.   2.0:
WRAP.   NO:
#==================================================================
~Well
STRT .m      1110.7399900 :
STOP .m      2724.9606900 :
STEP .m     0.00000000 :
NULL .        -999.250000 :
COMP.           : COMPANY
WELL.  16/7-6   : WELL
FLD.            : FIELD
LOC.            : LOCATION
SRVC.           : SERVICE COMPANY
DATE.  2018-06-09 11:12:04   : Log Export Date {yyyy-MM-dd HH:mm:ss}
PROV.           : PROVINCE
UWI.   3067   : UNIQUE WELL ID
API.            : API NUMBER
#==================================================================
~Curve
DEPT .m                   : DEPTH
DEN .g/cm3                : DEN
DT .us/ft                 : DT
DTS .us/ft                : DTS
GR .gAPI                  : GR
NPHI .m3/m3               : NPHI
DTS_i7 ._                 : DTS_i7
DTS_mlFilled ._           : DTS_mlFilled
LITHesa10 ._              : LITHesa10
LITHesa9_filtr ._         : LITHesa9_filtr
LITHesa9_i4 ._            : LITHesa9_i4
LITHesa9_i8 ._            : LITHesa9_i8
LITHesa9_i8i4 ._          : LITHesa9_i8i4
PHIE_i7 ._                : PHIE_i7
PHIE_i8 ._                : PHIE_i8
PHIE_i8i7 ._              : PHIE_i8i7
PHIE_mlfilled ._          : PHIE_mlfilled
PHIEed ._                 : PHIEed
RDEP ._                   : RDEP
RMED ._                   : RMED
~Parameter
#==================================================================
~Ascii
# ...
 1743.8095700 2.2771000862 131.04370117 377.72665405 70.937522888 0.4124999940 371.39514160 377.72665405 5891.0000000 5891.0000000 5891.0000000 5891.0000000 5891.0000000 0.0306599997 0.0581099987 0.0581099987 0.0194700006  -999.250000 0.6294000149 0.6212999821
 1743.9620400 2.2806000710 132.61059570 381.15313721 73.600227356 0.4348999858 377.88107300 381.15313721 5891.0000000 5891.0000000 5891.0000000 5891.0000000 5891.0000000 0.0304400008 0.0443699993 0.0443699993 0.0086899996  -999.250000 0.6247000098 0.6176000237
 1744.1143800 2.2438001633 131.20790100 389.51510620 76.322967529 0.4343999922 381.33795166 389.51510620 5891.0000000 5891.0000000 5891.0000000 5891.0000000 5891.0000000 0.0309699997 0.0296899993 0.0296899993 0.0207499992 0.0207499992 0.6200000048 0.6137999892
 1744.2668500 2.2025001049 139.82989502 391.40356445 78.351463318 0.4490999877 388.04061890 391.40359497 5891.0000000 5891.0000000 5891.0000000 5891.0000000 5891.0000000 0.0378400013 0.0395300016 0.0395300016 0.0376899987 0.0376899987 0.6150000095 0.6092000008
 1744.4191900 2.1933999062 138.74679565 391.36874390 79.476593018 0.4521999955 382.43118286 391.36874390 5891.0000000 5891.0000000 5891.0000000 5891.0000000 5891.0000000 0.0390600003 0.0407200009 0.0407200009 0.0392000005 0.0392000005 0.6100000143 0.6046000123
 1744.5716600 2.1956000328 140.54499817 390.46813965 79.999382019 0.4569000006 388.31655884 390.46813965 5891.0000000 5891.0000000 5891.0000000 5891.0000000 5891.0000000 0.0354800001 0.0356500000 0.0356500000 0.0362300016 0.0362300016 0.6069999933 0.6018999815
 1744.7240000 2.1951000690 138.55738831 385.37219238 79.767570496 0.4634000063 381.47460938 385.37219238 5891.0000000 5891.0000000 5891.0000000 5891.0000000 5891.0000000 0.0364900008 0.0365400016 0.0365400016 0.0372800007 0.0372800007 0.6075000167 0.6022999883
 1744.8763400 2.1936998367 139.28230286 379.14080811 79.485282898 0.4573999941 377.13934326 379.14080811 5891.0000000 5891.0000000 5891.0000000 5891.0000000 5891.0000000 0.0385500006 0.0407599993 0.0407599993 0.0390000008 0.0390000008 0.6112099886 0.6061099768
 1745.0288100 2.2002999783 139.47059631 378.25100708 79.704132080 0.4381000102 377.88201904 378.25103760 5891.0000000 5891.0000000 5891.0000000 5891.0000000 5891.0000000 0.0340700001 0.0335699990 0.0335699990 0.0345200002 0.0345200002 0.6176999807 0.6125000119
 1745.1811500 2.2091000080 139.29679871 378.20455933 79.678306580 0.4456000030 379.04772949 378.20458984 5891.0000000 5891.0000000 5891.0000000 5891.0000000 5891.0000000 0.0295700002 0.0299999993 0.0299999993 0.0295800008 0.0295800008 0.6252999902 0.6198999882
 1745.3336200 2.2156999111 139.15370178 377.64709473 79.069023132 0.4634999931 376.44757080 377.64709473 5891.0000000 5891.0000000 5891.0000000 5891.0000000 5891.0000000 0.0294599999 0.0284400005 0.0284400005 0.0278099999 0.0278099999 0.6320000291 0.6266000271
 1745.4859600 2.2048997879 139.42430115 378.32986450 78.111907959 0.4704999924 379.74780273 378.32986450 5891.0000000 5891.0000000 5891.0000000 5891.0000000 5891.0000000 0.0396299995 0.0438200012 0.0438200012 0.0371100008 0.0371100008 0.6363000274 0.6309000254
 1745.6384300 2.1951999664 139.88110352 377.74810791 77.866378784 0.4427999854 376.48348999 377.74810791 5891.0000000 5891.0000000 5891.0000000 5891.0000000 5891.0000000 0.0425699987 0.0439799987 0.0439799987 0.0434500016 0.0434500016 0.6387000084 0.6334999800
 1745.7907700 2.1907000542 139.35749817 375.38998413 78.875427246 0.3944999874 372.90078735 375.38998413 5891.0000000 5891.0000000 5891.0000000 5891.0000000 5891.0000000 0.0417799987 0.0413400009 0.0413400009 0.0427200012 0.0427200012 0.6409999728 0.6359999776
 1745.9432400 2.2014999390 138.83959961 366.55139160 80.063217163 0.3494000137 364.98770142 366.55139160 5891.0000000 5891.0000000 5891.0000000 5891.0000000 5891.0000000 0.0386499986 0.0336499996 0.0336499996 0.0326600000 0.0326600000 0.6453099847 0.6402099729
 1746.0955800 2.2170000076 138.21449280 364.30975342 80.670097351 0.3558999896 358.09158325 364.30975342 5891.0000000 5891.0000000 5891.0000000 5891.0000000 5891.0000000 0.0348500013 0.0308599994 0.0308599994 0.0218100008 0.0218100008 0.6524999738 0.6470999718
 1746.2480500 2.2243001461 137.11788940 363.15423584 81.895881653 0.3838000000 362.96295166 363.15420532 5891.0000000 5891.0000000 5891.0000000 5891.0000000 5891.0000000 0.0295299999 0.0435799994 0.0435799994 0.0136099998  -999.250000 0.6611099839 0.6556100249
 1746.4003900 2.2255001068 136.68200684 362.71615601 84.181350708 0.3937000036 360.13247681 362.71612549 5891.0000000 5891.0000000 5891.0000000 5891.0000000 5891.0000000 0.0350599997 0.0375999995 0.0375999995 0.0054100002  -999.250000 0.6693000197 0.6636000276
 1746.5528600 2.2273001671 136.70127869 363.04312134 85.632278442 0.4225000143 363.64620972 363.04312134 5891.0000000 5891.0000000 5891.0000000 5891.0000000 5891.0000000 0.0311099999 0.0324300006 0.0324300006 0.0000000000  -999.250000 0.6758000255 0.6697999835
 1746.7052000 2.2297999859 136.66740417 359.47756958 84.035293579 0.4250999987 355.25930786 359.47756958 5891.0000000 5891.0000000 5891.0000000 5891.0000000 5891.0000000 0.0324300006 0.0337800011 0.0337800011 0.0034300000  -999.250000 0.6798999906 0.6733999848
 1746.8575400 2.2188999653 139.44970703 356.65875244 80.562507629 0.4154999852 356.79876709 356.65875244 5891.0000000 5891.0000000 5891.0000000 5891.0000000 5891.0000000 0.0231800005 0.0306000002 0.0306000002 0.0210500006 0.0210500006 0.6822999716 0.6748999953
 1747.0100100 2.2036001682 136.26280212 359.54098511 78.151496887 0.4079999924 363.06027222 359.54098511 5891.0000000 5891.0000000 5891.0000000 5891.0000000 5891.0000000 0.0367500000 0.0394500010 0.0394500010 0.0377099998 0.0377099998 0.6832000017 0.6751000285
 1747.1623500 2.1948001385 138.53990173 365.26123047 77.282791138 0.4262999892 363.66360474 365.26123047 5891.0000000 5891.0000000 5891.0000000 5891.0000000 5891.0000000 0.0461900011 0.0450400002 0.0450400002 0.0456099994 0.0456099994 0.6827999949 0.6744999886
 1747.3148200 2.1816999912 138.91619873 368.67883301 76.380447388 0.4131999910 366.97613525 368.67883301 5891.0000000 5891.0000000 5891.0000000 5891.0000000 5891.0000000 0.0557599999 0.0553000011 0.0553000011 0.0560400002 0.0560400002 0.6809999943 0.6725999713
 1747.4671600 2.1698000431 138.56750488 375.35079956 74.716651917 0.3905999959 372.74490356 375.35076904 5891.0000000 5891.0000000 5891.0000000 5891.0000000 5891.0000000 0.0683500022 0.0633200034 0.0633200034 0.0683199987 0.0683199987 0.6766899824 0.6683899760
 1747.6196300 2.1600999832 138.36639404 379.19464111 74.334953308 0.4199000001 372.90075684 379.19464111 5891.0000000 5891.0000000 5891.0000000 5891.0000000 5891.0000000 0.0751200020 0.0731199980 0.0731199980 0.0751100034 0.0751100034 0.6693000197 0.6611999869
 1747.7719700 2.1631999016 139.36650085 384.09240723 76.628112793 0.4560000002 370.65103149 384.09240723 5891.0000000 5891.0000000 5891.0000000 5891.0000000 5891.0000000 0.0623399988 0.0638300031 0.0638300031 0.0658299997 0.0658299997 0.6604899764 0.6528999805
 1747.9244400 2.1746001244 139.25190735 388.20101929 80.418693542 0.4508999884 373.36801147 388.20101929 5891.0000000 5891.0000000 5891.0000000 5891.0000000 5891.0000000 0.0601800010 0.0474900007 0.0474900007 0.0468900017 0.0468900017 0.6516000032 0.6446999907
 1748.0767800 2.1856999397 139.37950134 384.44772339 83.476127625 0.4332999885 383.40588379 384.44775391 5891.0000000 5891.0000000 5891.0000000 5891.0000000 5891.0000000 0.0311600007 0.0299699996 0.0299699996 0.0304799993 0.0304799993 0.6437000036 0.6373000145
 1748.2292500 2.1991000175 139.47740173 388.12362671 85.272323608 0.4404999912 385.68237305 388.12362671 5891.0000000 5891.0000000 5891.0000000 5891.0000000 5891.0000000 0.0233800001 0.0281099994 0.0281099994 0.0169200003  -999.250000 0.6388999820 0.6326000094
 1748.3815900 2.2088000774 139.86700439 387.56466675 86.560943604 0.4641000032 385.74865723 387.56466675 5891.0000000 5891.0000000 5891.0000000 5891.0000000 5891.0000000 0.0277999993 0.0386499986 0.0386499986 0.0071399999  -999.250000 0.6365000010 0.6304000020
