# LAS format log file from PETREL
# Project units are specified as depth units
#==================================================================
~Version information
VERS.   2.0:
WRAP.   NO:
#==================================================================
~Well
STRT .m      1110.7399900 :
STOP .m      2724.9606900 :
STEP .m     0.00000000 :
NULL .        -999.250000 :
COMP.           : COMPANY
WELL.  16/7-6   : WELL
FLD.            : FIELD
LOC.            : LOCATION
SRVC.           : SERVICE COMPANY
DATE.  2018-06-09 11:12:04   : Log Export Date {yyyy-MM-dd HH:mm:ss}
PROV.           : PROVINCE
UWI.   3067   : UNIQUE WELL ID
API.            : API NUMBER
#==================================================================
~Curve
DEPT .m                   : DEPTH
DEN .g/cm3                : DEN
DT .us/ft                 : DT
DTS .us/ft                : DTS
GR .gAPI                  : GR
NPHI .m3/m3               : NPHI
DTS_i7 ._                 : DTS_i7
DTS_mlFilled ._           : DTS_mlFilled
LITHesa10 ._              : LITHesa10
LITHesa9_filtr ._         : LITHesa9_filtr
LITHesa9_i4 ._            : LITHesa9_i4
LITHesa9_i8 ._            : LITHesa9_i8
LITHesa9_i8i4 ._          : LITHesa9_i8i4
PHIE_i7 ._                : PHIE_i7
PHIE_i8 ._                : PHIE_i8
PHIE_i8i7 ._              : PHIE_i8i7
PHIE_mlfilled ._          : PHIE_mlfilled
PHIEed ._                 : PHIEed
RDEP ._                   : RDEP
RMED ._                   : RMED
~Parameter
#==================================================================
~Ascii
# ...
 1956.4075900 2.2258999348 144.11109924 445.76077271 66.471473694 0.3971999884 445.79238892 445.76077271 5891.0000000 5891.0000000 5891.0000000 5891.0000000 5891.0000000  -999.250000 0.0461100005 0.0461100005 0.0462800004 0.0462800004 0.4453000128 0.4426999986
 1956.5600600 2.2256000042 144.43350220 432.71191406 66.282501221 0.4481000006 440.51434326 432.71194458 5891.0000000 5891.0000000 5891.0000000 5891.0000000 5891.0000000  -999.250000 0.0471500009 0.0471500009 0.0470799990 0.0470799990 0.4489000142 0.4460999966
 1956.7124000 2.2283000946 143.88929749 429.65277100 66.143951416 0.4526999891 432.96817017 429.65277100 5891.0000000 5891.0000000 5891.0000000 5891.0000000 5891.0000000  -999.250000 0.0465399995 0.0465399995 0.0459900014 0.0459900014 0.4540899992 0.4511899948
 1956.8647500 2.2251000404 143.01069641 426.19818115 66.315193176 0.4474000037 430.81161499 426.19818115 5891.0000000 5891.0000000 5891.0000000 5891.0000000 5891.0000000  -999.250000 0.0477100015 0.0477100015 0.0472499989 0.0472499989 0.4605000019 0.4573999941
 1957.0172100 2.2311000824 142.26260376 423.12298584 67.372367859 0.4194999933 427.65951538 423.12298584 5891.0000000 5891.0000000 5891.0000000 5891.0000000 5891.0000000  -999.250000 0.0423399992 0.0423399992 0.0403500013 0.0403500013 0.4670999944 0.4638000131
 1957.1695600 2.2407000065 141.93139648 423.86026001 69.193443298 0.4438000023 424.71130371 423.86026001 5891.0000000 5891.0000000 5891.0000000 5891.0000000 5891.0000000  -999.250000 0.0295400005 0.0295400005 0.0288600009 0.0288600009 0.4729999900 0.4697000086
 1957.3220200 2.2367999554 142.08329773 425.43405151 70.144172668 0.4316999912 431.42453003 425.43405151 5891.0000000 5891.0000000 5891.0000000 5891.0000000 5891.0000000  -999.250000 0.0282300003 0.0282300003 0.0279500000 0.0279500000 0.4769000113 0.4735000134
 1957.4743700 2.2409999371 141.67610168 429.26510620 69.625679016 0.4147999883 434.23437500 429.26510620 5891.0000000 5891.0000000 5891.0000000 5891.0000000 5891.0000000  -999.250000 0.0275500007 0.0275500007 0.0272599999 0.0272599999 0.4781999886 0.4747000039
 1957.6268300 2.2274999619 141.24540710 432.15628052 69.603080750 0.4174000025 433.46026611 432.15628052 5891.0000000 5891.0000000 5891.0000000 5891.0000000 5891.0000000  -999.250000 0.0346800014 0.0346800014 0.0350399986 0.0350399986 0.4772000015 0.4736999869
 1957.7791700 2.2263998985 141.76181030 434.40899658 70.815849304 0.4494999945 434.43588257 434.40899658 5891.0000000 5891.0000000 5891.0000000 5891.0000000 5891.0000000  -999.250000 0.0321800001 0.0321800001 0.0316799991 0.0316799991 0.4742999971 0.4708000124
 1957.9316400 2.2155001163 142.65199280 437.55728149 71.632713318 0.4458999932 435.80548096 437.55728149 5891.0000000 5891.0000000 5891.0000000 5891.0000000 5891.0000000  -999.250000 0.0349499993 0.0349499993 0.0352099985 0.0352099985 0.4704000056 0.4668999910
 1958.0839800 2.2166998386 143.26319885 439.95666504 71.614356995 0.4517000020 440.34893799 439.95666504 5891.0000000 5891.0000000 5891.0000000 5891.0000000 5891.0000000  -999.250000 0.0345700011 0.0345700011 0.0345899984 0.0345899984 0.4663999975 0.4627999961
 1958.2364500 2.2102999687 143.57139587 441.97122192 72.384033203 0.4596999884 440.04370117 441.97119141 5891.0000000 5891.0000000 5891.0000000 5891.0000000 5891.0000000  -999.250000 0.0364399999 0.0364399999 0.0357000008 0.0357000008 0.4632999897 0.4596000016
 1958.3887900 2.2063000202 143.46659851 442.32058716 74.990150452 0.4900999963 424.15502930 442.32055664 5891.0000000 5891.0000000 5891.0000000 5891.0000000 5891.0000000  -999.250000 0.0306800008 0.0306800008 0.0294100009 0.0294100009 0.4612999856 0.4575999975
 1958.5412600 2.2026000023 143.62289429 441.58279419 77.705200195 0.4864000082 435.23773193 441.58279419 5891.0000000 5891.0000000 5891.0000000 5891.0000000 5891.0000000  -999.250000 0.0248399992 0.0248399992 0.0225699991 0.0225699991 0.4605000019 0.4568000138
 1958.6936000 2.2011001110 144.10562134 440.10159302 78.483360291 0.4726000130 426.14901733 440.10159302 5891.0000000 5891.0000000 5891.0000000 5891.0000000 5891.0000000  -999.250000 0.0254200008 0.0254200008 0.0208599996 0.0208599996 0.4607000053 0.4569000006
 1958.8459500 2.1948997974 144.64900208 435.94131470 77.823951721 0.4745999873 410.68621826 435.94131470 5891.0000000 5891.0000000 5891.0000000 5891.0000000 5891.0000000  -999.250000 0.0266699996 0.0266699996 0.0265699998 0.0265699998 0.4614999890 0.4575999975
 1958.9984100 2.1893999577 144.34359741 434.60763550 75.753532410 0.4575000107 436.18334961 434.60763550 5891.0000000 5891.0000000 5891.0000000 5891.0000000 5891.0000000  -999.250000 0.0407200009 0.0407200009 0.0365200005 0.0365200005 0.4627999961 0.4587999880
 1959.1507600 2.1983001232 143.00140381 432.02359009 72.967369080 0.4237999916 433.74353027 432.02359009 5891.0000000 5891.0000000 5891.0000000 5891.0000000 5891.0000000  -999.250000 0.0454999991 0.0454999991 0.0406400003 0.0406400003 0.4641999900 0.4603999853
 1959.3032200 2.2107000351 141.58689880 437.62319946 71.471008301 0.3932999969 434.54403687 437.62319946 5891.0000000 5891.0000000 5891.0000000 5891.0000000 5891.0000000  -999.250000 0.0404799990 0.0404799990 0.0384900011 0.0384900011 0.4645999968 0.4607000053
 1959.4555700 2.2278997898 141.23970032 442.57113647 72.270828247 0.4151000082 436.35015869 442.57113647 5891.0000000 5891.0000000 5891.0000000 5891.0000000 5891.0000000  -999.250000 0.0267800000 0.0267800000 0.0260400008 0.0260400008 0.4625999928 0.4587999880
 1959.6080300 2.2186999321 142.49850464 452.97613525 74.578758240 0.4472000003 441.25094604 452.97613525 5891.0000000 5891.0000000 5891.0000000 5891.0000000 5891.0000000  -999.250000 0.0258000009 0.0258000009 0.0236699991 0.0236699991 0.4577899873 0.4543899894
 1959.7603800 2.2028000355 143.79930115 452.13787842 76.337867737 0.4792999923 451.81228638 452.13787842 5891.0000000 5891.0000000 5891.0000000 5891.0000000 5891.0000000  -999.250000 0.0286599994 0.0286599994 0.0269499999 0.0269499999 0.4519000053 0.4489000142
 1959.9128400 2.1878998280 144.76400757 452.20285034 76.820327759 0.4327000082 453.86557007 452.20285034 5891.0000000 5891.0000000 5891.0000000 5891.0000000 5891.0000000  -999.250000 0.0345400013 0.0345400013 0.0338700004 0.0338700004 0.4467000067 0.4438000023
 1960.0651900 2.1895000935 144.29449463 450.11227417 76.381591797 0.4408000112 448.37786865 450.11227417 5891.0000000 5891.0000000 5891.0000000 5891.0000000 5891.0000000  -999.250000 0.0379800014 0.0379800014 0.0344099998 0.0344099998 0.4433999956 0.4404999912
 1960.2176500 2.1971001625 143.93690491 446.74511719 75.319763184 0.4320000112 446.38061523 446.74508667 5891.0000000 5891.0000000 5891.0000000 5891.0000000 5891.0000000  -999.250000 0.0367899984 0.0367899984 0.0335699990 0.0335699990 0.4420999885 0.4393000007
 1960.3700000 2.2008998394 143.84210205 445.31747437 74.502113342 0.4535000026 445.46670532 445.31747437 5891.0000000 5891.0000000 5891.0000000 5891.0000000 5891.0000000  -999.250000 0.0341700017 0.0341700017 0.0340900011 0.0340900011 0.4426000118 0.4397000074
 1960.5224600 2.2083001137 143.88589478 443.39337158 73.610809326 0.4512999952 445.69039917 443.39337158 5891.0000000 5891.0000000 5891.0000000 5891.0000000 5891.0000000  -999.250000 0.0333099999 0.0333099999 0.0328099988 0.0328099988 0.4433999956 0.4404999912
 1960.6748000 2.2142000198 143.92109680 442.24700928 72.093147278 0.4239999950 443.82943726 442.24700928 5891.0000000 5891.0000000 5891.0000000 5891.0000000 5891.0000000  -999.250000 0.0352099985 0.0352099985 0.0344399996 0.0344399996 0.4442000091 0.4413000047
 1960.8271500 2.2130000591 143.81730652 441.87216187 70.313926697 0.4117999971 443.34912109 441.87219238 5891.0000000 5891.0000000 5891.0000000 5891.0000000 5891.0000000  -999.250000 0.0414500013 0.0414500013 0.0409800000 0.0409800000 0.4451000094 0.4420999885
 1960.9796100 2.2051000595 143.57739258 447.50207520 69.221748352 0.4140000045 446.79092407 447.50207520 5891.0000000 5891.0000000 5891.0000000 5891.0000000 5891.0000000  -999.250000 0.0493800007 0.0493800007 0.0490900017 0.0490900017 0.4458999932 0.4426000118
