# LAS format log file from PETREL
# Project units are specified as depth units
#==================================================================
~Version information
VERS.   2.0:
WRAP.   NO:
#==================================================================
~Well
STRT .m      160.22121000 :
STOP .m      2263.6457500 :
STEP .m     0.00000000 :
NULL .        -999.250000 :
COMP.           : COMPANY
WELL.  16/7-10   : WELL
FLD.            : FIELD
LOC.            : LOCATION
SRVC.           : SERVICE COMPANY
DATE.  2018-06-09 11:12:05   : Log Export Date {yyyy-MM-dd HH:mm:ss}
PROV.           : PROVINCE
UWI.   6607   : UNIQUE WELL ID
API.            : API NUMBER
#==================================================================
~Curve
DEPT .m                   : DEPTH
DEN .g/cm3                : DEN
DT .us/ft                 : DT
DTS .us/ft                : DTS
GR .gAPI                  : GR
NPHI .m3/m3               : NPHI
DTS_i7 ._                 : DTS_i7
DTS_mlFilled ._           : DTS_mlFilled
LITHesa10 ._              : LITHesa10
LITHesa9_filtr ._         : LITHesa9_filtr
LITHesa9_i4 ._            : LITHesa9_i4
LITHesa9_i8 ._            : LITHesa9_i8
LITHesa9_i8i4 ._          : LITHesa9_i8i4
PHIE_i7 ._                : PHIE_i7
PHIE_i8 ._                : PHIE_i8
PHIE_i8i7 ._              : PHIE_i8i7
PHIE_mlfilled ._          : PHIE_mlfilled
PHIEed ._                 : PHIEed
RDEP ._                   : RDEP
RMED ._                   : RMED
~Parameter
#==================================================================
~Ascii
# ...
 1393.2894300 2.1484999657 142.56047058 399.69726563 105.81860352 0.4792000055 393.28408813 399.69726563  -999.250000  -999.250000 5891.0000000 5891.0000000 5891.0000000  -999.250000  -999.250000  -999.250000  -999.250000  -999.250000 1.0634000301 1.0541000366
 1393.4417700 2.1551001072 142.63407898 396.66943359 104.70500183 0.4873999953 390.54287720 396.66943359  -999.250000  -999.250000 5891.0000000 5891.0000000 5891.0000000  -999.250000  -999.250000  -999.250000  -999.250000  -999.250000 1.0634000301 1.0541000366
 1393.5942400 2.1612000465 142.68486023 393.89782715 102.75279999 0.5260999799 390.74151611 393.89782715  -999.250000  -999.250000 5891.0000000 5891.0000000 5891.0000000  -999.250000  -999.250000  -999.250000  -999.250000  -999.250000 1.0634000301 1.0541000366
 1393.7465800 2.1546001434 142.22953796 385.53149414 101.38739777 0.5382000208 380.02737427 385.53152466  -999.250000  -999.250000 5891.0000000 5891.0000000 5891.0000000  -999.250000  -999.250000  -999.250000  -999.250000  -999.250000 1.0521999598 1.0493999720
 1393.8990500 2.1398999691 141.73959351 380.61532593 104.78140259 0.4938000143 379.18130493 380.61532593  -999.250000  -999.250000 5891.0000000 5891.0000000 5891.0000000  -999.250000  -999.250000  -999.250000  -999.250000  -999.250000 1.0742000341 1.0859999657
 1394.0513900 2.1143999100 141.85432434 377.49581909 109.83670044 0.4691999853 376.72653198 377.49581909  -999.250000  -999.250000 5891.0000000 5891.0000000 5891.0000000  -999.250000  -999.250000  -999.250000  -999.250000  -999.250000 1.0742000341 1.0859999657
 1394.2038600 2.0915000439 142.66394043 374.37271118 114.82510376 0.4645000100 373.00088501 374.37271118 5891.0000000 5891.0000000 5891.0000000 5891.0000000 5891.0000000  -999.250000  -999.250000  -999.250000  -999.250000  -999.250000 1.0923000574 1.1114000082
 1394.3562000 2.0873999596 143.32536316 376.94631958 120.59320068 0.5228000283 376.66641235 376.94631958 5891.0000000 5891.0000000 5891.0000000 5891.0000000 5891.0000000  -999.250000  -999.250000  -999.250000  -999.250000  -999.250000 1.0923000574 1.1114000082
 1394.5086700 2.1070001125 142.90702820 370.62677002 117.18720245 0.5004000068 368.52197266 370.62677002 5891.0000000 5891.0000000 5891.0000000 5891.0000000 5891.0000000  -999.250000  -999.250000  -999.250000  -999.250000  -999.250000 1.0923000574 1.1114000082
 1394.6610100 2.1421000957 142.17070007 370.03906250 108.84570313 0.5213999748 372.62759399 370.03906250  -999.250000  -999.250000 5891.0000000 5891.0000000 5891.0000000  -999.250000  -999.250000  -999.250000  -999.250000  -999.250000 1.1153000593 1.1147999763
 1394.8134800 2.1668000221 141.30300903 371.45037842 102.86380005 0.5073999763 371.32781982 371.45037842  -999.250000  -999.250000 5891.0000000 5891.0000000 5891.0000000  -999.250000  -999.250000  -999.250000  -999.250000  -999.250000 1.0306999683 1.0374000072
 1394.9658200 2.1742000580 140.49484253 364.97048950 102.32749939 0.5156999826 365.03198242 364.97048950  -999.250000  -999.250000 5891.0000000 5891.0000000 5891.0000000  -999.250000  -999.250000  -999.250000  -999.250000  -999.250000 1.0133999586 1.0188000202
 1395.1182900 2.1711001396 140.77717590 368.93591309 101.43039703 0.5011000037 373.47232056 368.93591309  -999.250000  -999.250000 5891.0000000 5891.0000000 5891.0000000  -999.250000  -999.250000  -999.250000  -999.250000  -999.250000 1.0133999586 1.0188000202
 1395.2706300 2.1717000008 141.49101257 376.88220215 101.51280212 0.4745999873 367.50686646 376.88223267  -999.250000  -999.250000 5891.0000000 5891.0000000 5891.0000000  -999.250000  -999.250000  -999.250000  -999.250000  -999.250000 1.0024000406 1.0060000420
 1395.4229700 2.1743998528 141.60052490 381.00662231 103.80760193 0.4884000123 379.40676880 381.00662231  -999.250000  -999.250000 5891.0000000 5891.0000000 5891.0000000  -999.250000  -999.250000  -999.250000  -999.250000  -999.250000 1.0320999622 1.0295000076
 1395.5754400 2.1746001244 141.08430481 390.12481689 106.69770050 0.4810000062 375.37374878 390.12481689  -999.250000  -999.250000 5891.0000000 5891.0000000 5891.0000000  -999.250000  -999.250000  -999.250000  -999.250000  -999.250000 1.0283000469 1.0245000124
 1395.7277800 2.1688001156 140.76699829 385.00952148 108.39080048 0.4961999953 383.54754639 385.00952148  -999.250000  -999.250000 5891.0000000 5891.0000000 5891.0000000  -999.250000  -999.250000  -999.250000  -999.250000  -999.250000 1.0204999447 1.0268000364
 1395.8802500 2.1624000072 140.90399170 387.91473389 106.40070343 0.4916000068 381.12265015 387.91476440  -999.250000  -999.250000 5891.0000000 5891.0000000 5891.0000000  -999.250000  -999.250000  -999.250000  -999.250000  -999.250000 1.0212999582 1.0247999430
 1396.0325900 2.1523001194 141.41629028 387.42721558 107.29640198 0.4918999970 386.60409546 387.42718506  -999.250000  -999.250000 5891.0000000 5891.0000000 5891.0000000  -999.250000  -999.250000  -999.250000  -999.250000  -999.250000 1.0182000399 1.0270999670
 1396.1850600 2.1476001740 142.00202942 392.22036743 107.14040375 0.4634000063 380.66653442 392.22036743  -999.250000  -999.250000 5891.0000000 5891.0000000 5891.0000000  -999.250000  -999.250000  -999.250000  -999.250000  -999.250000 1.0210000277 1.0268000364
 1396.3374000 2.1454999447 142.36140442 397.29135132 106.55580139 0.4383000135 383.66738892 397.29135132  -999.250000  -999.250000 5891.0000000 5891.0000000 5891.0000000  -999.250000  -999.250000  -999.250000  -999.250000  -999.250000 1.0190999508 1.0266000032
 1396.4898700 2.1454999447 142.49328613 398.15640259 110.53420258 0.4758000076 391.10617065 398.15640259  -999.250000  -999.250000 5891.0000000 5891.0000000 5891.0000000  -999.250000  -999.250000  -999.250000  -999.250000  -999.250000 1.0178999901 1.0297000408
 1396.6422100 2.1470000744 142.39848328 396.01763916 107.82319641 0.4853999913 392.39691162 396.01760864  -999.250000  -999.250000 5891.0000000 5891.0000000 5891.0000000  -999.250000  -999.250000  -999.250000  -999.250000  -999.250000 1.0049999952 1.0146000385
 1396.7946800 2.1448998451 142.41328430 388.90332031 112.61560059 0.5137000084 390.43344116 388.90332031  -999.250000  -999.250000 5891.0000000 5891.0000000 5891.0000000  -999.250000  -999.250000  -999.250000  -999.250000  -999.250000 1.0049999952 1.0146000385
 1396.9470200 2.1446001530 142.39511108 391.22055054 109.65339661 0.5335999727 391.04440308 391.22055054  -999.250000  -999.250000 5891.0000000 5891.0000000 5891.0000000  -999.250000  -999.250000  -999.250000  -999.250000  -999.250000 1.0049999952 1.0146000385
 1397.0994900 2.1380000114 141.88131714 397.26599121 107.77429962 0.5606999993 386.88687134 397.26599121  -999.250000  -999.250000 5891.0000000 5891.0000000 5891.0000000  -999.250000  -999.250000  -999.250000  -999.250000  -999.250000 0.9743999839 0.9857000113
 1397.2518300 2.1217999458 141.71783447 391.16726685 98.861000061 0.5652999878 390.93594360 391.16726685  -999.250000  -999.250000 5891.0000000 5891.0000000 5891.0000000  -999.250000  -999.250000  -999.250000  -999.250000  -999.250000 0.7734000087 0.7824000120
 1397.4041700 2.0861001015 142.43255615 379.18383789 82.211898804 0.4921999872 377.33642578 379.18383789  -999.250000  -999.250000 5891.0000000 5891.0000000 5891.0000000  -999.250000  -999.250000  -999.250000  -999.250000  -999.250000 0.7002000213 0.7292000055
 1397.5566400 2.0455999374 143.64262390 335.42495728 63.745300293 0.4295000136 345.09262085 335.42495728  -999.250000  -999.250000 5891.0000000 5891.0000000 5891.0000000  -999.250000  -999.250000  -999.250000  -999.250000  -999.250000 0.7002000213 0.7292000055
 1397.7089800 2.0197999477 145.28616333 329.40917969 42.544399261 0.3806000054 339.59146118 329.40917969 5868.0000000 5868.0000000 5868.0000000 5868.0000000 5868.0000000  -999.250000  -999.250000  -999.250000  -999.250000  -999.250000 0.6722999811 0.6816999912
 1397.8614500 2.0203001499 145.30078125 330.77590942 35.278198242 0.3666999936 336.99066162 330.77590942 5868.0000000 5868.0000000 5868.0000000 5868.0000000 5868.0000000  -999.250000  -999.250000  -999.250000  -999.250000  -999.250000 0.6796000004 0.6823999882
