# LAS format log file from PETREL
# Project units are specified as depth units
#==================================================================
~Version information
VERS.   2.0:
WRAP.   NO:
#==================================================================
~Well
STRT .m      1110.7399900 :
STOP .m      2724.9606900 :
STEP .m     0.00000000 :
NULL .        -999.250000 :
COMP.           : COMPANY
WELL.  16/7-6   : WELL
FLD.            : FIELD
LOC.            : LOCATION
SRVC.           : SERVICE COMPANY
DATE.  2018-06-09 11:12:04   : Log Export Date {yyyy-MM-dd HH:mm:ss}
PROV.           : PROVINCE
UWI.   3067   : UNIQUE WELL ID
API.            : API NUMBER
#==================================================================
~Curve
DEPT .m                   : DEPTH
DEN .g/cm3                : DEN
DT .us/ft                 : DT
DTS .us/ft                : DTS
GR .gAPI                  : GR
NPHI .m3/m3               : NPHI
DTS_i7 ._                 : DTS_i7
DTS_mlFilled ._           : DTS_mlFilled
LITHesa10 ._              : LITHesa10
LITHesa9_filtr ._         : LITHesa9_filtr
LITHesa9_i4 ._            : LITHesa9_i4
LITHesa9_i8 ._            : LITHesa9_i8
LITHesa9_i8i4 ._          : LITHesa9_i8i4
PHIE_i7 ._                : PHIE_i7
PHIE_i8 ._                : PHIE_i8
PHIE_i8i7 ._              : PHIE_i8i7
PHIE_mlfilled ._          : PHIE_mlfilled
PHIEed ._                 : PHIEed
RDEP ._                   : RDEP
RMED ._                   : RMED
~Parameter
#==================================================================
~Ascii
# ...
 2480.8159200 2.5938999653 78.752899170 136.84057617 41.276081085 0.1195999980 144.76678467 136.84057617  -999.250000  -999.250000 5874.0000000 5877.0000000 5877.0000000 0.0401300006 0.0259000007 0.0259000007 0.0161799993  -999.250000 2.2879500389 2.3340399265
 2480.9685100 2.6131000519 74.753097534 129.88932800 36.137748718 0.1062000021 137.09776306 129.88932800 5877.0000000 5877.0000000 5874.0000000 5877.0000000 5877.0000000 0.0348500013 0.0435499996 0.0435499996 0.0127600003  -999.250000 2.7624700069 2.8031699657
 2481.1208500 2.6168000698 72.603599548 126.10369873 30.430669785 0.0886000022 137.73568726 126.10369873 5877.0000000 5877.0000000 5874.0000000 5877.0000000 5877.0000000 0.0348500013 0.0342000015 0.0342000015 0.0186999999  -999.250000 3.4955999851 3.5301399231
 2481.2731900 2.6315000057 68.548599243 126.09200287 25.890220642 0.0728000030 127.71288300 126.09200287 5877.0000000 5877.0000000 5877.0000000 5877.0000000 5877.0000000 0.0333000012 0.0287500005 0.0287500005 0.0169300009  -999.250000 4.4403500557 4.5240001678
 2481.4255400 2.6311998367 62.778499603 126.83570099 22.922729492 0.0713000000 129.59390259 126.83570099 5877.0000000 5877.0000000 5877.0000000 5877.0000000 5877.0000000 0.0260600001 0.0305000003 0.0305000003 0.0212500002 0.0212500002 5.3040299416 5.4349098206
 2481.5778800 2.6333999634 62.005203247 137.71134949 21.233629227 0.0702999979 133.46641541 137.71134949 5877.0000000  -999.250000 5877.0000000 5877.0000000 5877.0000000 0.0261799991 0.0253199991 0.0253199991 0.0223999992 0.0223999992 5.7071800232 5.8709897995
 2481.7304700 2.6189999580 61.906898499 138.26014709 21.092119217 0.0715999976 132.13116455 138.26014709 5877.0000000 5877.0000000 5877.0000000 5877.0000000 5877.0000000 0.0381399989 0.0353999995 0.0353999995 0.0305499993 0.0305499993 5.4508199692 5.6474099159
 2481.8828100 2.6068000793 63.146900177 147.08009338 23.328990936 0.0785000026 133.79936218 147.08009338 5877.0000000  -999.250000 5877.0000000 5877.0000000 5877.0000000 0.0378700010 0.0342100002 0.0342100002 0.0341599993 0.0341599993 4.7416601181 4.9303097725
 2482.0351600 2.6061000824 67.912696838 153.19619751 27.950050354 0.0944000036 145.32258606 153.19619751 5877.0000000  -999.250000 5877.0000000 5877.0000000 5877.0000000 0.0354899988 0.0312500000 0.0312500000 0.0280799996 0.0280799996 3.9464399815 4.0910301208
 2482.1875000 2.6129999161 71.797897339 158.35134888 33.760501862 0.1189000010 150.01606750 158.35134888 5877.0000000  -999.250000 5877.0000000 5874.0000000 5874.0000000 0.0422700010 0.0276699997 0.0276699997 0.0161400009  -999.250000 3.2209401131 3.3198399544
 2482.3400900 2.6111001968 74.727096558 164.49794006 38.600070953 0.1351999938 154.12351990 164.49794006  -999.250000  -999.250000 5874.0000000 5874.0000000 5874.0000000 0.0380199999 0.0330200009 0.0330200009 0.0104099996  -999.250000 2.6947300434 2.7663199902
 2482.4924300 2.5883998871 76.861801147 169.12847900 41.129978180 0.1396999955 165.48904419 169.12847900 5874.0000000 5874.0000000 5874.0000000 5874.0000000 5874.0000000 0.0383099988 0.0254500005 0.0254500005 0.0194099993  -999.250000 2.3469500542 2.4016399384
 2482.6447800 2.5752999783 78.822898865 172.08547974 42.398941040 0.1432999969 162.53242493 172.08549500 5874.0000000 5874.0000000 5874.0000000 5874.0000000 5874.0000000 0.0248799995 0.0313000008 0.0313000008 0.0248799995 0.0248799995 2.1009099483 2.1460900307
 2482.7971200 2.5721001625 79.689300537 175.30004883 43.562408447 0.1398999989 170.36170959 175.30004883 5874.0000000 5874.0000000 5874.0000000 5874.0000000 5874.0000000 0.0313500017 0.0257300008 0.0257300008 0.0250100009 0.0250100009 1.9604500532 1.9900499582
 2482.9497100 2.5666999817 80.511901855 172.18101501 45.034149170 0.1476999968 170.51943970 172.18101501 5874.0000000 5874.0000000 5874.0000000 5874.0000000 5874.0000000 0.0287100002 0.0264599994 0.0264599994 0.0259399991 0.0259399991 1.8890000582 1.9094099998
 2483.1020500 2.5608999729 79.261100769 168.45887756 45.559841156 0.1445000023 167.69865417 168.45887756 5874.0000000  -999.250000 5874.0000000 5874.0000000 5874.0000000 0.0327499993 0.0286699999 0.0286699999 0.0284100007 0.0284100007 1.8490099907 1.8780100346
 2483.2543900 2.5611000061 81.459297180 164.23161316 44.150218964 0.1430000067 166.12536621 164.23161316 5874.0000000  -999.250000 5874.0000000 5874.0000000 5874.0000000 0.0318100005 0.0298900008 0.0298900008 0.0302700009 0.0302700009 1.8506599665 1.8852699995
 2483.4067400 2.5746998787 80.820503235 160.56217957 42.250381470 0.1280000061 158.63858032 160.56217957 5874.0000000  -999.250000 5874.0000000 5874.0000000 5874.0000000 0.0269900002 0.0256800000 0.0256800000 0.0254200008 0.0254200008 1.9043099880 1.9419100285
 2483.5590800 2.5803999901 79.565895081 161.78062439 41.182510376 0.1298000067 161.89808655 161.78062439 5874.0000000 5874.0000000 5874.0000000 5874.0000000 5874.0000000 0.0258799996 0.0251700003 0.0251700003 0.0237600002 0.0237600002 1.9748300314 2.0177299976
 2483.7116700 2.5838000774 79.631904602 160.74847412 40.900821686 0.1266999990 160.27183533 160.74845886 5874.0000000  -999.250000 5874.0000000 5874.0000000 5874.0000000 0.0237600002 0.0262499992 0.0262499992 0.0222800002 0.0222800002 2.0544500351 2.1002600193
 2483.8640100 2.5883998871 79.024993896 160.13240051 40.737541199 0.1325999945 162.34072876 160.13240051 5874.0000000 5874.0000000 5874.0000000 5874.0000000 5874.0000000 0.0259900000 0.0236399993 0.0236399993 0.0199599992  -999.250000 2.1307699680 2.1836800575
 2484.0163600 2.5938999653 77.417594910 161.26390076 39.654888153 0.1295000017 161.37184143 161.26390076 5874.0000000 5874.0000000 5874.0000000 5874.0000000 5874.0000000 0.0276599992 0.0232100002 0.0232100002 0.0184400007  -999.250000 2.1991600990 2.2624700069
 2484.1687000 2.6058001518 77.005203247 162.59664917 37.774551392 0.1224000007 163.20954895 162.59666443 5874.0000000 5874.0000000 5874.0000000 5874.0000000 5874.0000000 0.0414200015 0.0224799998 0.0224799998 0.0144999996  -999.250000 2.2395699024 2.3217799664
 2484.3212900 2.6126999855 76.257598877 162.87547302 36.750579834 0.1181999967 163.17639160 162.87545776 5874.0000000 5874.0000000 5874.0000000 5874.0000000 5874.0000000 0.0426900014 0.0293700006 0.0293700006 0.0121200001  -999.250000 2.2466800213 2.3460700512
 2484.4736300 2.5950000286 76.887199402 164.35519409 38.056461334 0.1230000034 159.98243713 164.35519409 5874.0000000 5874.0000000 5874.0000000 5874.0000000 5874.0000000 0.0231599994 0.0225600004 0.0225600004 0.0200699996 0.0200699996 2.2301099300 2.3259100914
 2484.6259800 2.5866000652 76.964996338 169.51741028 40.613941193 0.1345999986 165.01423645 169.51739502 5874.0000000 5874.0000000 5874.0000000 5874.0000000 5874.0000000 0.0287100002 0.0235099997 0.0235099997 0.0211299993 0.0211299993 2.1394801140 2.2326800823
 2484.7783200 2.5931000710 77.841293335 175.28305054 41.936939240 0.1360000074 169.42977905 175.28305054 5874.0000000 5874.0000000 5874.0000000 5874.0000000 5874.0000000 0.0289799999 0.0230100006 0.0230100006 0.0156900007  -999.250000 1.9824500084 2.0705499649
 2484.9309100 2.5924999714 81.075698853 178.12464905 43.089050293 0.1330000013 173.94297791 178.12464905 5874.0000000  -999.250000 5891.0000000 5877.0000000 5877.0000000 0.0345100015 0.0260799993 0.0260799993 0.0144100003  -999.250000 1.8056099415 1.8825000525
 2485.0832500 2.5827000141 84.101898193 180.33477783 48.783580780 0.1516000032 176.15257263 180.33477783 5874.0000000  -999.250000 5874.0000000 5874.0000000 5874.0000000 0.0369700007 0.0304199997 0.0304199997 0.0118500004  -999.250000 1.6311800480 1.6939599514
 2485.2356000 2.5498998165 86.109603882 176.08000183 59.300079346 0.1924999952 176.61770630 176.08000183 5874.0000000 5874.0000000 5891.0000000 5874.0000000 5874.0000000 0.0321299993 0.0305400006 0.0305400006 0.0152599998  -999.250000 1.4847899675 1.5290800333
 2485.3879400 2.5144000053 87.559494019 167.36167908 68.013473511 0.2261999995 169.71569824 167.36167908 5874.0000000 5874.0000000 5891.0000000 5874.0000000 5874.0000000 0.0301300008 0.0271899998 0.0271899998 0.0226499997 0.0226499997 1.3959000111 1.4312100410
