# LAS format log file from PETREL
# Project units are specified as depth units
#==================================================================
~Version information
VERS.   2.0:
WRAP.   NO:
#==================================================================
~Well
STRT .m      1110.7399900 :
STOP .m      2724.9606900 :
STEP .m     0.00000000 :
NULL .        -999.250000 :
COMP.           : COMPANY
WELL.  16/7-6   : WELL
FLD.            : FIELD
LOC.            : LOCATION
SRVC.           : SERVICE COMPANY
DATE.  2018-06-09 11:12:04   : Log Export Date {yyyy-MM-dd HH:mm:ss}
PROV.           : PROVINCE
UWI.   3067   : UNIQUE WELL ID
API.            : API NUMBER
#==================================================================
~Curve
DEPT .m                   : DEPTH
DEN .g/cm3                : DEN
DT .us/ft                 : DT
DTS .us/ft                : DTS
GR .gAPI                  : GR
NPHI .m3/m3               : NPHI
DTS_i7 ._                 : DTS_i7
DTS_mlFilled ._           : DTS_mlFilled
LITHesa10 ._              : LITHesa10
LITHesa9_filtr ._         : LITHesa9_filtr
LITHesa9_i4 ._            : LITHesa9_i4
LITHesa9_i8 ._            : LITHesa9_i8
LITHesa9_i8i4 ._          : LITHesa9_i8i4
PHIE_i7 ._                : PHIE_i7
PHIE_i8 ._                : PHIE_i8
PHIE_i8i7 ._              : PHIE_i8i7
PHIE_mlfilled ._          : PHIE_mlfilled
PHIEed ._                 : PHIEed
RDEP ._                   : RDEP
RMED ._                   : RMED
~Parameter
#==================================================================
~Ascii
# ...
 1847.7464600 2.2296998501 135.75219727 393.78030396 100.39050293 0.4427999854 382.82058716 393.78030396 5891.0000000 5891.0000000 5891.0000000 5891.0000000 5891.0000000 0.0608499981 0.0313000008 0.0313000008 0.0000000000  -999.250000 0.6152899861 0.6163899899
 1847.8988000 2.2366001606 138.60249329 391.98110962 98.540893555 0.4063999951 384.05743408 391.98110962 5891.0000000 5891.0000000 5891.0000000 5891.0000000 5891.0000000 0.0461100005 0.0320199989 0.0320199989 0.0000000000  -999.250000 0.6064900160 0.6091899872
 1848.0511500 2.2493000031 138.21719360 396.00228882 98.751838684 0.4172999859 390.49224854 396.00228882 5891.0000000 5891.0000000 5891.0000000 5891.0000000 5891.0000000 0.0608199984 0.0492299981 0.0492299981 0.0000000000  -999.250000 0.5997999907 0.6036000252
 1848.2036100 2.2509999275 137.38310242 399.28060913 102.87750244 0.4377999902 387.23168945 399.28060913 5891.0000000 5891.0000000 5891.0000000 5891.0000000 5891.0000000 0.0584300011 0.0541500002 0.0541500002 0.0000000000  -999.250000 0.5950000286 0.5995000005
 1848.3559600 2.2455000877 138.22850037 402.12030029 106.56050110 0.4587000012 391.35067749 402.12030029 5891.0000000 5891.0000000 5891.0000000 5891.0000000 5891.0000000 0.0464800000 0.0515899993 0.0515899993 0.0000000000  -999.250000 0.5924000144 0.5971000195
 1848.5084200 2.2349998951 139.27949524 389.36514282 105.96910095 0.4476000071 387.59109497 389.36514282 5891.0000000 5891.0000000 5891.0000000 5891.0000000 5891.0000000 0.0509099998 0.0288800001 0.0288800001 0.0000000000  -999.250000 0.5926100016 0.5980100036
 1848.6607700 2.2363998890 140.38310242 365.71969604 103.08609772 0.4557000101 371.38015747 365.71969604 5891.0000000 5891.0000000 5891.0000000 5891.0000000 5891.0000000 0.0651500002 0.0344800018 0.0344800018 0.0000000000  -999.250000 0.5995200276 0.6049200296
 1848.8132300 2.2232999802 139.82099915 349.43923950 101.11509705 0.4541000128 358.82064819 349.43923950 5891.0000000 5891.0000000 5891.0000000 5891.0000000 5891.0000000 0.0678199977 0.0318300016 0.0318300016 0.0000000000  -999.250000 0.6156299710 0.6196299791
 1848.9655800 2.2316999435 138.03570557 342.41055298 98.230567932 0.4239999950 351.73660278 342.41058350 5891.0000000 5891.0000000 5891.0000000 5891.0000000 5891.0000000 0.0521400012 0.0270099994 0.0270099994 0.0000000000  -999.250000 0.6393399835 0.6413300037
 1849.1180400 2.3228001595 130.05700684 343.00381470 90.210983276 0.3851999938 340.89718628 343.00381470 5891.0000000 5891.0000000 5891.0000000 5891.0000000 5891.0000000 0.0508500002 0.0326899998 0.0326899998 0.0000000000  -999.250000 0.6642100215 0.6645100117
 1849.2703900 2.5063998699 125.42669678 368.01998901 80.148727417 0.3603999913 351.24252319 368.01998901  -999.250000  -999.250000 5891.0000000 5891.0000000 5891.0000000 0.0463100001 0.0392099991 0.0392099991 0.0000000000  -999.250000 0.6785899997 0.6787899733
 1849.4228500 2.6229000092 120.76720428 366.86389160 76.767791748 0.3948000073 341.60290527 366.86389160  -999.250000  -999.250000 5891.0000000 5891.0000000 5891.0000000 0.1322900057 0.0525499992 0.0525499992 0.0000000000  -999.250000 0.6748600006 0.6759600043
 1849.5752000 2.4523000717 123.94010162 381.98510742 82.637702942 0.4641000032 347.70971680 381.98510742  -999.250000  -999.250000 5891.0000000 5891.0000000 5891.0000000 0.0468199998 0.0372099988 0.0372099988 0.0000000000  -999.250000 0.6551600099 0.6555600166
 1849.7275400 2.2908000946 141.74719238 393.62582397 91.249679565 0.5016999841 381.89569092 393.62585449  -999.250000  -999.250000 5891.0000000 5891.0000000 5891.0000000 0.0531999990 0.0718899965 0.0718899965 0.0000000000  -999.250000 0.6287800074 0.6283800006
 1849.8800000 2.2223000526 141.66090393 405.19241333 96.292030334 0.4873999953 393.72445679 405.19241333 5891.0000000 5891.0000000 5891.0000000 5891.0000000 5891.0000000 0.0502099991 0.0316100009 0.0316100009 0.0000000000  -999.250000 0.6049799919 0.6038799882
 1850.0323500 2.2181999683 142.49299622 402.29199219 98.798667908 0.4609999955 398.84646606 402.29199219 5891.0000000 5891.0000000 5891.0000000 5891.0000000 5891.0000000 0.0490199998 0.0296899993 0.0296899993 0.0000000000  -999.250000 0.5879999995 0.5860000253
 1850.1848100 2.2135000229 141.51669312 400.51809692 101.24109650 0.4675000012 399.45193481 400.51809692 5891.0000000 5891.0000000 5891.0000000 5891.0000000 5891.0000000 0.0561500005 0.0306299999 0.0306299999 0.0000000000  -999.250000 0.5782999992 0.5756000280
 1850.3371600 2.2114999294 142.20300293 400.21051025 102.37879944 0.4643999934 395.46594238 400.21051025 5891.0000000 5891.0000000 5891.0000000 5891.0000000 5891.0000000 0.0504500009 0.0345899984 0.0345899984 0.0000000000  -999.250000 0.5753999949 0.5723000169
 1850.4896200 2.2091999054 142.57330322 399.74578857 100.30770111 0.4708999991 400.35922241 399.74578857 5891.0000000 5891.0000000 5891.0000000 5891.0000000 5891.0000000 0.0422799997 0.0306899995 0.0306899995 0.0000000000  -999.250000 0.5758000016 0.5720999837
 1850.6419700 2.2178997993 142.74119568 400.13391113 97.208808899 0.4769000113 399.66195679 400.13391113 5891.0000000 5891.0000000 5891.0000000 5891.0000000 5891.0000000 0.0408000015 0.0284000002 0.0284000002 0.0000000000  -999.250000 0.5762000084 0.5720000267
 1850.7944300 2.2226998806 142.68089294 401.73724365 95.759613037 0.4472000003 400.94284058 401.73724365 5891.0000000 5891.0000000 5891.0000000 5891.0000000 5891.0000000 0.0407500006 0.0359200016 0.0359200016 0.0000000000  -999.250000 0.5763999820 0.5716000199
 1850.9467800 2.2269999981 143.70199585 402.97546387 95.861099243 0.4648000002 400.60391235 402.97546387 5891.0000000 5891.0000000 5891.0000000 5891.0000000 5891.0000000 0.0407299995 0.0285999998 0.0285999998 0.0000000000  -999.250000 0.5755000114 0.5702900290
 1851.0992400 2.2261998653 144.09680176 407.37786865 96.192520142 0.4458999932 405.50585938 407.37786865 5891.0000000 5891.0000000 5891.0000000 5891.0000000 5891.0000000 0.0405800007 0.0302499998 0.0302499998 0.0000000000  -999.250000 0.5727900267 0.5671899915
 1851.2515900 2.2343001366 143.87739563 409.89916992 97.282516479 0.4372999966 399.98718262 409.89916992 5891.0000000 5891.0000000 5891.0000000 5891.0000000 5891.0000000 0.0433700010 0.0270499997 0.0270499997 0.0000000000  -999.250000 0.5687900186 0.5624899864
 1851.4040500 2.2439999580 143.64489746 410.04180908 100.40370178 0.4273000062 395.11550903 410.04180908 5891.0000000 5891.0000000 5891.0000000 5891.0000000 5891.0000000 0.0513500012 0.0501199998 0.0501199998 0.0000000000  -999.250000 0.5638899803 0.5563899875
 1851.5564000 2.2439999580 143.32130432 411.09188843 103.87729645 0.4715000093 402.71896362 411.09188843 5891.0000000 5891.0000000 5891.0000000 5891.0000000 5891.0000000 0.0511000007 0.0515200011 0.0515200011 0.0000000000  -999.250000 0.5587900281 0.5500900149
 1851.7087400 2.2337999344 143.83129883 411.37268066 105.76799774 0.4783999920 407.04522705 411.37268066 5891.0000000 5891.0000000 5891.0000000 5891.0000000 5891.0000000 0.0538199991 0.0372500010 0.0372500010 0.0000000000  -999.250000 0.5534999967 0.5439000130
 1851.8612100 2.2221000195 144.46740723 404.77108765 105.72570038 0.4891999960 402.15673828 404.77108765 5891.0000000 5891.0000000 5891.0000000 5891.0000000 5891.0000000 0.0541800000 0.0371100008 0.0371100008 0.0000000000  -999.250000 0.5487999916 0.5383999944
 1852.0135500 2.2186999321 145.33929443 405.59115601 104.75620270 0.5135999918 403.61154175 405.59115601 5891.0000000 5891.0000000 5891.0000000 5891.0000000 5891.0000000 0.0611100011 0.0392600000 0.0392600000 0.0000000000  -999.250000 0.5464000106 0.5351999998
 1852.1660200 2.2178997993 145.68150330 404.70239258 103.52529907 0.4907999933 407.55276489 404.70239258 5891.0000000 5891.0000000 5891.0000000 5891.0000000 5891.0000000 0.0545599982 0.0336299986 0.0336299986 0.0000000000  -999.250000 0.5473099947 0.5356100202
 1852.3183600 2.2163000107 145.38209534 399.50570679 102.71600342 0.4591999948 402.29290771 399.50570679 5891.0000000 5891.0000000 5891.0000000 5891.0000000 5891.0000000 0.0504000001 0.0335800014 0.0335800014 0.0000000000  -999.250000 0.5537099838 0.5410100222
