# LAS format log file from PETREL
# Project units are specified as depth units
#==================================================================
~Version information
VERS.   2.0:
WRAP.   NO:
#==================================================================
~Well
STRT .m      160.22121000 :
STOP .m      2263.6457500 :
STEP .m     0.00000000 :
NULL .        -999.250000 :
COMP.           : COMPANY
WELL.  16/7-10   : WELL
FLD.            : FIELD
LOC.            : LOCATION
SRVC.           : SERVICE COMPANY
DATE.  2018-06-09 11:12:05   : Log Export Date {yyyy-MM-dd HH:mm:ss}
PROV.           : PROVINCE
UWI.   6607   : UNIQUE WELL ID
API.            : API NUMBER
#==================================================================
~Curve
DEPT .m                   : DEPTH
DEN .g/cm3                : DEN
DT .us/ft                 : DT
DTS .us/ft                : DTS
GR .gAPI                  : GR
NPHI .m3/m3               : NPHI
DTS_i7 ._                 : DTS_i7
DTS_mlFilled ._           : DTS_mlFilled
LITHesa10 ._              : LITHesa10
LITHesa9_filtr ._         : LITHesa9_filtr
LITHesa9_i4 ._            : LITHesa9_i4
LITHesa9_i8 ._            : LITHesa9_i8
LITHesa9_i8i4 ._          : LITHesa9_i8i4
PHIE_i7 ._                : PHIE_i7
PHIE_i8 ._                : PHIE_i8
PHIE_i8i7 ._              : PHIE_i8i7
PHIE_mlfilled ._          : PHIE_mlfilled
PHIEed ._                 : PHIEed
RDEP ._                   : RDEP
RMED ._                   : RMED
~Parameter
#==================================================================
~Ascii
# ...
 2059.4299300 2.1371998787 135.52589417 402.30480957 74.664802551 0.5263000131 401.88711548 402.30480957 5891.0000000 5891.0000000 5891.0000000 5891.0000000 5891.0000000  -999.250000  -999.250000  -999.250000  -999.250000  -999.250000 0.4668000042 0.4548000097
 2059.5822800 2.0982999802 135.98620605 388.94210815 74.262397766 0.5063999891 388.12863159 388.94210815 5891.0000000 5891.0000000 5891.0000000 5891.0000000 5891.0000000  -999.250000  -999.250000  -999.250000  -999.250000  -999.250000 0.4675000012 0.4578999877
 2059.7346200 2.0748999119 136.78991699 380.15139771 69.041099548 0.5340999961 382.38751221 380.15139771 5891.0000000 5891.0000000 5891.0000000 5891.0000000 5891.0000000  -999.250000  -999.250000  -999.250000  -999.250000  -999.250000 0.4648999870 0.4449000061
 2059.8869600 2.1151001453 137.05506897 374.90478516 66.209800720 0.5113000274 376.11102295 374.90478516 5891.0000000 5891.0000000 5891.0000000 5891.0000000 5891.0000000  -999.250000  -999.250000  -999.250000  -999.250000  -999.250000 0.4587000012 0.4433000088
 2060.0393100 2.1673998833 137.09243774 374.42691040 64.305198669 0.5311999917 377.29547119 374.42691040 5891.0000000 5891.0000000 5891.0000000 5891.0000000 5891.0000000  -999.250000  -999.250000  -999.250000  -999.250000  -999.250000 0.4541000128 0.4444000125
 2060.1918900 2.1938998699 137.16738892 380.03570557 67.263198853 0.5297999978 383.54626465 380.03570557 5891.0000000 5891.0000000 5891.0000000 5891.0000000 5891.0000000  -999.250000  -999.250000  -999.250000  -999.250000  -999.250000 0.4472000003 0.4429999888
 2060.3442400 2.2195000648 137.52792358 395.52017212 65.803298950 0.5485000014 387.07489014 395.52017212 5891.0000000 5891.0000000 5891.0000000 5891.0000000 5891.0000000  -999.250000  -999.250000  -999.250000  -999.250000  -999.250000 0.4438999891 0.4447000027
 2060.4965800 2.2356998920 138.21730042 400.10476685 64.911903381 0.5631999969 392.55868530 400.10476685 5891.0000000 5891.0000000 5891.0000000 5891.0000000 5891.0000000  -999.250000  -999.250000  -999.250000  -999.250000  -999.250000 0.4438999891 0.4447000027
 2060.6489300 2.2303998470 138.42646790 396.85571289 63.907501221 0.5052000284 396.64962769 396.85571289 5891.0000000 5891.0000000 5891.0000000 5891.0000000 5891.0000000  -999.250000  -999.250000  -999.250000  -999.250000  -999.250000 0.4611999989 0.4530000091
 2060.8015100 2.1872999668 138.46099854 386.43460083 66.093597412 0.4941999912 389.02731323 386.43460083 5891.0000000 5891.0000000 5891.0000000 5891.0000000 5891.0000000  -999.250000  -999.250000  -999.250000  -999.250000  -999.250000 0.4620000124 0.4523999989
 2060.9538600 2.1388998032 138.71899414 385.53561401 67.719703674 0.4970999956 389.52777100 385.53561401 5891.0000000 5891.0000000 5891.0000000 5891.0000000 5891.0000000  -999.250000  -999.250000  -999.250000  -999.250000  -999.250000 0.4368999898 0.4325999916
 2061.1062000 2.1201999187 138.76531982 391.30462646 66.566101074 0.5047000051 390.85305786 391.30459595 5891.0000000 5891.0000000 5891.0000000 5891.0000000 5891.0000000  -999.250000  -999.250000  -999.250000  -999.250000  -999.250000 0.4368999898 0.4325999916
 2061.2585400 2.1341998577 138.03417969 387.16149902 66.544296265 0.5256000161 389.26913452 387.16149902 5891.0000000 5891.0000000 5891.0000000 5891.0000000 5891.0000000  -999.250000  -999.250000  -999.250000  -999.250000  -999.250000 0.4808999896 0.4670999944
 2061.4111300 2.1676001549 136.59480286 369.57971191 64.714202881 0.5421000123 365.88787842 369.57971191 5891.0000000 5891.0000000 5891.0000000 5891.0000000 5891.0000000  -999.250000  -999.250000  -999.250000  -999.250000  -999.250000 0.4959999919 0.4785000086
 2061.5634800 2.1658999920 135.89289856 358.41790771 65.067199707 0.5705000162 367.17770386 358.41790771 5891.0000000 5891.0000000 5891.0000000 5891.0000000 5891.0000000  -999.250000  -999.250000  -999.250000  -999.250000  -999.250000 0.4902000129 0.4745999873
 2061.7158200 2.1528000832 136.36793518 356.03781128 66.818000793 0.5087000132 369.18417358 356.03781128 5891.0000000 5891.0000000 5891.0000000 5891.0000000 5891.0000000  -999.250000  -999.250000  -999.250000  -999.250000  -999.250000 0.4596000016 0.4472999871
 2061.8681600 2.1156001091 137.50238037 365.64556885 62.687400818 0.4616999924 373.59982300 365.64556885 5891.0000000 5891.0000000 5891.0000000 5891.0000000 5891.0000000  -999.250000  -999.250000  -999.250000  -999.250000  -999.250000 0.4463999867 0.4350000024
 2062.0205100 2.0899999142 138.79322815 394.72210693 62.275398254 0.4670999944 385.31222534 394.72210693 5891.0000000 5891.0000000 5891.0000000 5891.0000000 5891.0000000  -999.250000  -999.250000  -999.250000  -999.250000  -999.250000 0.4354000092 0.4214000106
 2062.1731000 2.0876998901 139.49090576 402.71478271 62.223499298 0.4742000103 390.89804077 402.71478271 5891.0000000 5891.0000000 5891.0000000 5891.0000000 5891.0000000  -999.250000  -999.250000  -999.250000  -999.250000  -999.250000 0.4354000092 0.4214000106
 2062.3254400 2.0917999744 139.89904785 410.40579224 60.243198395 0.5044000149 410.98287964 410.40579224  -999.250000  -999.250000 5891.0000000 5891.0000000 5891.0000000  -999.250000  -999.250000  -999.250000  -999.250000  -999.250000 0.4293000102 0.4111000001
 2062.4777800 2.0973000526 139.87823486 418.61459351 57.175399780 0.4832000136 409.54434204 418.61459351  -999.250000  -999.250000 5891.0000000 5891.0000000 5891.0000000  -999.250000  -999.250000  -999.250000  -999.250000  -999.250000 0.4234000146 0.4119000137
 2062.6301300 2.1119999886 139.20777893 421.00070190 59.517700195 0.5388000011 408.98648071 421.00070190  -999.250000  -999.250000 5891.0000000 5891.0000000 5891.0000000  -999.250000  -999.250000  -999.250000  -999.250000  -999.250000 0.4234000146 0.4119000137
 2062.7827100 2.1411001682 138.61659241 418.55569458 70.558799744 0.5058000088 413.25540161 418.55569458  -999.250000  -999.250000 5868.0000000 5891.0000000 5891.0000000  -999.250000  -999.250000  -999.250000  -999.250000  -999.250000 0.4097000062 0.4004000127
 2062.9350600 2.1678998470 138.34770203 414.72848511 69.624603271 0.5084000230 411.03280640 414.72848511 5891.0000000 5891.0000000 5891.0000000 5891.0000000 5891.0000000  -999.250000  -999.250000  -999.250000  -999.250000  -999.250000 0.4257999957 0.4201000035
 2063.0874000 2.1700000763 138.29249573 408.72961426 67.826499939 0.4799999893 404.00537109 408.72961426 5891.0000000 5891.0000000 5891.0000000 5891.0000000 5891.0000000  -999.250000  -999.250000  -999.250000  -999.250000  -999.250000 0.4273000062 0.4226999879
 2063.2397500 2.1491999626 138.69168091 399.48278809 66.414703369 0.4857999980 398.86840820 399.48278809 5891.0000000 5891.0000000 5891.0000000 5891.0000000 5891.0000000  -999.250000  -999.250000  -999.250000  -999.250000  -999.250000 0.4273000062 0.4226999879
 2063.3923300 2.1465001106 139.23739624 400.79098511 66.459098816 0.4839999974 399.32040405 400.79098511 5891.0000000 5891.0000000 5891.0000000 5891.0000000 5891.0000000  -999.250000  -999.250000  -999.250000  -999.250000  -999.250000 0.4361000061 0.4320000112
 2063.5446800 2.1600000858 139.24490356 396.79251099 69.599296570 0.4665000141 389.99249268 396.79251099 5891.0000000 5891.0000000 5891.0000000 5891.0000000 5891.0000000  -999.250000  -999.250000  -999.250000  -999.250000  -999.250000 0.4399000108 0.4302999973
 2063.6970200 2.1523001194 139.38159180 394.00109863 70.831703186 0.4767999947 390.01150513 394.00109863 5891.0000000 5891.0000000 5891.0000000 5891.0000000 5891.0000000  -999.250000  -999.250000  -999.250000  -999.250000  -999.250000 0.4411999881 0.4332999885
 2063.8493700 2.1317000389 139.23962402 387.43585205 67.608596802 0.5228999853 390.23376465 387.43588257 5891.0000000 5891.0000000 5891.0000000 5891.0000000 5891.0000000  -999.250000  -999.250000  -999.250000  -999.250000  -999.250000 0.4426000118 0.4363999963
 2064.0017100 2.1303999424 138.62977600 384.91870117 68.345901489 0.4999000132 386.78564453 384.91870117 5891.0000000 5891.0000000 5891.0000000 5891.0000000 5891.0000000  -999.250000  -999.250000  -999.250000  -999.250000  -999.250000 0.4426000118 0.4363999963
