# LAS format log file from PETREL
# Project units are specified as depth units
#==================================================================
~Version information
VERS.   2.0:
WRAP.   NO:
#==================================================================
~Well
STRT .m      160.22121000 :
STOP .m      2263.6457500 :
STEP .m     0.00000000 :
NULL .        -999.250000 :
COMP.           : COMPANY
WELL.  16/7-10   : WELL
FLD.            : FIELD
LOC.            : LOCATION
SRVC.           : SERVICE COMPANY
DATE.  2018-06-09 11:12:05   : Log Export Date {yyyy-MM-dd HH:mm:ss}
PROV.           : PROVINCE
UWI.   6607   : UNIQUE WELL ID
API.            : API NUMBER
#==================================================================
~Curve
DEPT .m                   : DEPTH
DEN .g/cm3                : DEN
DT .us/ft                 : DT
DTS .us/ft                : DTS
GR .gAPI                  : GR
NPHI .m3/m3               : NPHI
DTS_i7 ._                 : DTS_i7
DTS_mlFilled ._           : DTS_mlFilled
LITHesa10 ._              : LITHesa10
LITHesa9_filtr ._         : LITHesa9_filtr
LITHesa9_i4 ._            : LITHesa9_i4
LITHesa9_i8 ._            : LITHesa9_i8
LITHesa9_i8i4 ._          : LITHesa9_i8i4
PHIE_i7 ._                : PHIE_i7
PHIE_i8 ._                : PHIE_i8
PHIE_i8i7 ._              : PHIE_i8i7
PHIE_mlfilled ._          : PHIE_mlfilled
PHIEed ._                 : PHIEed
RDEP ._                   : RDEP
RMED ._                   : RMED
~Parameter
#==================================================================
~Ascii
# ...
 1057.8570600 2.0153000355 139.51789856 361.59695435 122.87329865 0.4871999919 364.07614136 361.59695435  -999.250000  -999.250000 5891.0000000 5891.0000000 5891.0000000  -999.250000  -999.250000  -999.250000  -999.250000  -999.250000 0.9351999760 0.8669000268
 1058.0095200 2.0243999958 138.77839661 361.24499512 123.59310150 0.5023000240 362.61773682 361.24499512  -999.250000  -999.250000 5891.0000000 5891.0000000 5891.0000000  -999.250000  -999.250000  -999.250000  -999.250000  -999.250000 0.9552999735 0.8744000196
 1058.1618700 2.0271999836 138.12841797 360.87081909 123.85260010 0.4979999959 360.02462769 360.87081909  -999.250000  -999.250000 5891.0000000 5891.0000000 5891.0000000  -999.250000  -999.250000  -999.250000  -999.250000  -999.250000 0.9986000061 0.9063000083
 1058.3143300 2.0274000168 137.72579956 358.24200439 122.54650116 0.4898000062 358.17041016 358.24200439  -999.250000  -999.250000 5891.0000000 5891.0000000 5891.0000000  -999.250000  -999.250000  -999.250000  -999.250000  -999.250000 0.9071999788 0.8396999836
 1058.4666700 2.0321998596 137.49938965 353.54516602 125.77570343 0.4661999941 362.49014282 353.54516602  -999.250000  -999.250000 5891.0000000 5891.0000000 5891.0000000  -999.250000  -999.250000  -999.250000  -999.250000  -999.250000 0.8889999986 0.8170999885
 1058.6191400 2.0353000164 137.23120117 348.04098511 128.27909851 0.4727999866 350.88308716 348.04098511  -999.250000  -999.250000 5891.0000000 5891.0000000 5891.0000000  -999.250000  -999.250000  -999.250000  -999.250000  -999.250000 1.0176000595 0.9253000021
 1058.7714800 2.0324001312 137.08482361 346.18576050 126.20050049 0.4938000143 346.36566162 346.18572998  -999.250000  -999.250000 5891.0000000 5891.0000000 5891.0000000  -999.250000  -999.250000  -999.250000  -999.250000  -999.250000 1.1160999537 1.0063999891
 1058.9239500 2.0230000019 137.33052063 345.42459106 123.79229736 0.5085999966 341.98812866 345.42459106  -999.250000  -999.250000 5891.0000000 5891.0000000 5891.0000000  -999.250000  -999.250000  -999.250000  -999.250000  -999.250000 1.1561000347 1.0629999638
 1059.0762900 2.0143001080 137.96279907 344.32147217 121.51899719 0.4850000143 349.84280396 344.32147217  -999.250000  -999.250000 5891.0000000 5891.0000000 5891.0000000  -999.250000  -999.250000  -999.250000  -999.250000  -999.250000 1.1785999537 1.0744999647
 1059.2287600 2.0053999424 138.70060730 352.06250000 117.75440216 0.5036000013 352.06027222 352.06250000  -999.250000  -999.250000 5891.0000000 5891.0000000 5891.0000000  -999.250000  -999.250000  -999.250000  -999.250000  -999.250000 1.1626000404 1.0457999706
 1059.3811000 2.0043001175 139.22937012 355.62982178 117.03949738 0.4805999994 352.69247437 355.62982178  -999.250000  -999.250000 5891.0000000 5891.0000000 5891.0000000  -999.250000  -999.250000  -999.250000  -999.250000  -999.250000 1.1622999907 1.0334999561
 1059.5334500 2.0118000507 139.40075684 362.02728271 113.72899628 0.5095999837 360.14581299 362.02728271  -999.250000  -999.250000 5891.0000000 5891.0000000 5891.0000000  -999.250000  -999.250000  -999.250000  -999.250000  -999.250000 0.9864000082 0.9139000177
 1059.6859100 2.0236999989 139.07475281 367.05715942 115.83940125 0.4848999977 366.87622070 367.05715942  -999.250000  -999.250000 5891.0000000 5891.0000000 5891.0000000  -999.250000  -999.250000  -999.250000  -999.250000  -999.250000 0.9147999883 0.8424999714
 1059.8382600 2.0256998539 138.39724731 360.45153809 116.64459991 0.4887999892 358.51718140 360.45150757  -999.250000  -999.250000 5891.0000000 5891.0000000 5891.0000000  -999.250000  -999.250000  -999.250000  -999.250000  -999.250000 0.9304999709 0.8398000002
 1059.9907200 2.0232999325 138.08859253 359.20681763 117.38369751 0.4882000089 360.29885864 359.20681763  -999.250000  -999.250000 5891.0000000 5891.0000000 5891.0000000  -999.250000  -999.250000  -999.250000  -999.250000  -999.250000 1.0194000006 0.9164000154
 1060.1430700 2.0218000412 138.72079468 353.39825439 118.79550171 0.5049999952 358.33969116 353.39825439  -999.250000  -999.250000 5891.0000000 5891.0000000 5891.0000000  -999.250000  -999.250000  -999.250000  -999.250000  -999.250000 1.0300999880 0.9356999993
 1060.2955300 2.0269000530 140.16870117 350.96908569 113.70760345 0.5138000250 357.67797852 350.96908569  -999.250000  -999.250000 5891.0000000 5891.0000000 5891.0000000  -999.250000  -999.250000  -999.250000  -999.250000  -999.250000 0.9742000103 0.8812999725
 1060.4478800 2.0311000347 141.98724365 356.33920288 106.86319733 0.4914000034 364.90933228 356.33920288  -999.250000  -999.250000 5891.0000000 5891.0000000 5891.0000000  -999.250000  -999.250000  -999.250000  -999.250000  -999.250000 1.0031000376 0.9070000052
 1060.6003400 2.0333001614 143.63999939 367.82180786 99.241897583 0.4801999927 377.12924194 367.82180786 5868.0000000  -999.250000 5868.0000000 5891.0000000 5891.0000000  -999.250000  -999.250000  -999.250000  -999.250000  -999.250000 0.9229999781 0.8460999727
 1060.7526900 2.0355000496 144.89169312 390.41171265 96.224800110 0.4855000079 399.89395142 390.41171265 5868.0000000  -999.250000 5868.0000000 5891.0000000 5891.0000000  -999.250000  -999.250000  -999.250000  -999.250000  -999.250000 0.8248000145 0.7569000125
 1060.9051500 2.0350999832 145.69290161 401.33099365 95.709800720 0.4794000089 405.71682739 401.33099365 5868.0000000  -999.250000 5868.0000000 5891.0000000 5891.0000000  -999.250000  -999.250000  -999.250000  -999.250000  -999.250000 0.7687000036 0.7134000063
 1061.0575000 2.0369000435 145.86915588 404.46371460 94.120101929 0.4991999865 405.91107178 404.46371460 5868.0000000  -999.250000 5868.0000000 5891.0000000 5891.0000000  -999.250000  -999.250000  -999.250000  -999.250000  -999.250000 0.7754999995 0.7057999969
 1061.2099600 2.0356998444 145.70060730 410.82159424 92.017196655 0.4729000032 412.56875610 410.82159424 5868.0000000  -999.250000 5868.0000000 5891.0000000 5891.0000000  -999.250000  -999.250000  -999.250000  -999.250000  -999.250000 0.7763000131 0.7030000091
 1061.3623000 2.0365998745 145.38136292 413.50219727 91.515899658 0.4821000099 415.49951172 413.50219727 5868.0000000  -999.250000 5868.0000000 5891.0000000 5891.0000000  -999.250000  -999.250000  -999.250000  -999.250000  -999.250000 0.7922000289 0.7070999742
 1061.5146500 2.0381000042 145.19215393 418.57189941 90.386596680 0.4652999938 411.86453247 418.57189941 5868.0000000  -999.250000 5868.0000000 5891.0000000 5891.0000000  -999.250000  -999.250000  -999.250000  -999.250000  -999.250000 0.7764999866 0.7057999969
 1061.6671100 2.0394001007 145.27972412 416.85659790 93.868896484 0.4905000031 414.88919067 416.85659790 5868.0000000  -999.250000 5868.0000000 5891.0000000 5891.0000000  -999.250000  -999.250000  -999.250000  -999.250000  -999.250000 0.7878000140 0.7062000036
 1061.8194600 2.0430998802 145.38531494 418.32940674 97.070198059 0.4835999906 416.15783691 418.32940674 5868.0000000  -999.250000 5868.0000000 5891.0000000 5891.0000000  -999.250000  -999.250000  -999.250000  -999.250000  -999.250000 0.7864000201 0.7128000259
 1061.9719200 2.0471999645 145.53599548 414.32449341 98.876899719 0.4546999931 412.89767456 414.32449341 5868.0000000  -999.250000 5868.0000000 5891.0000000 5891.0000000  -999.250000  -999.250000  -999.250000  -999.250000  -999.250000 0.7876999974 0.7172999978
 1062.1242700 2.0520000458 145.67399597 411.15380859 97.582099915 0.4255000055 411.95117188 411.15380859 5868.0000000  -999.250000 5868.0000000 5891.0000000 5891.0000000  -999.250000  -999.250000  -999.250000  -999.250000  -999.250000 0.7781999707 0.7166000009
 1062.2767300 2.0506000519 145.45190430 415.08828735 94.970397949 0.4411999881 414.51004028 415.08828735 5868.0000000  -999.250000 5868.0000000 5891.0000000 5891.0000000  -999.250000  -999.250000  -999.250000  -999.250000  -999.250000 0.7789000273 0.7153999805
 1062.4290800 2.0446999073 145.02114868 419.72650146 95.960601807 0.4616999924 415.77279663 419.72650146 5868.0000000  -999.250000 5868.0000000 5891.0000000 5891.0000000  -999.250000  -999.250000  -999.250000  -999.250000  -999.250000 0.7796000242 0.7142000198
