# LAS format log file from PETREL
# Project units are specified as depth units
#==================================================================
~Version information
VERS.   2.0:
WRAP.   NO:
#==================================================================
~Well
STRT .m      1110.7399900 :
STOP .m      2724.9606900 :
STEP .m     0.00000000 :
NULL .        -999.250000 :
COMP.           : COMPANY
WELL.  16/7-6   : WELL
FLD.            : FIELD
LOC.            : LOCATION
SRVC.           : SERVICE COMPANY
DATE.  2018-06-09 11:12:04   : Log Export Date {yyyy-MM-dd HH:mm:ss}
PROV.           : PROVINCE
UWI.   3067   : UNIQUE WELL ID
API.            : API NUMBER
#==================================================================
~Curve
DEPT .m                   : DEPTH
DEN .g/cm3                : DEN
DT .us/ft                 : DT
DTS .us/ft                : DTS
GR .gAPI                  : GR
NPHI .m3/m3               : NPHI
DTS_i7 ._                 : DTS_i7
DTS_mlFilled ._           : DTS_mlFilled
LITHesa10 ._              : LITHesa10
LITHesa9_filtr ._         : LITHesa9_filtr
LITHesa9_i4 ._            : LITHesa9_i4
LITHesa9_i8 ._            : LITHesa9_i8
LITHesa9_i8i4 ._          : LITHesa9_i8i4
PHIE_i7 ._                : PHIE_i7
PHIE_i8 ._                : PHIE_i8
PHIE_i8i7 ._              : PHIE_i8i7
PHIE_mlfilled ._          : PHIE_mlfilled
PHIEed ._                 : PHIEed
RDEP ._                   : RDEP
RMED ._                   : RMED
~Parameter
#==================================================================
~Ascii
# ...
 1214.6767600 2.0863001347 145.13938904 385.50051880 92.784523010 0.5396000147 385.25885010 385.50051880 5891.0000000 5891.0000000 5891.0000000 5891.0000000 5891.0000000  -999.250000 0.0469099991 0.0469099991 0.0480300002 0.0480300002 1.2001999617 1.1345000267
 1214.8292200 2.0883998871 145.30020142 382.66088867 94.773216248 0.5444999933 381.48516846 382.66088867 5891.0000000 5891.0000000 5891.0000000 5891.0000000 5891.0000000  -999.250000 0.0405599996 0.0405599996 0.0400799997 0.0400799997 1.1936999559 1.1280000210
 1214.9815700 2.0876998901 143.85580444 382.00497437 95.500457764 0.5393000245 380.40225220 382.00500488 5891.0000000 5891.0000000 5891.0000000 5891.0000000 5891.0000000  -999.250000 0.0403300002 0.0403300002 0.0380100012 0.0380100012 1.1856000423 1.1220999956
 1215.1340300 2.0892000198 145.29917908 379.99914551 95.652893066 0.5475000143 381.26800537 379.99914551 5891.0000000 5891.0000000 5891.0000000 5891.0000000 5891.0000000  -999.250000 0.0421999991 0.0421999991 0.0366300009 0.0366300009 1.1770999432 1.1187000275
 1215.2863800 2.0757999420 144.02520752 380.15435791 96.603347778 0.5128999949 377.28948975 380.15435791 5891.0000000 5891.0000000 5891.0000000 5891.0000000 5891.0000000  -999.250000 0.0419799984 0.0419799984 0.0410600007 0.0410600007 1.1783000231 1.1229000092
 1215.4388400 2.0694999695 143.70880127 378.22100830 97.652999878 0.4634999931 373.13879395 378.22100830 5891.0000000 5891.0000000 5891.0000000 5891.0000000 5891.0000000  -999.250000 0.0481499992 0.0481499992 0.0411100015 0.0411100015 1.1857999563 1.1306999922
 1215.5911900 2.0733001232 143.09100342 372.65106201 97.518463135 0.4817000031 369.24526978 372.65106201 5891.0000000 5891.0000000 5891.0000000 5891.0000000 5891.0000000  -999.250000 0.0415799990 0.0415799990 0.0393900014 0.0393900014 1.1935000420 1.1392999887
 1215.7436500 2.0764999390 144.09480286 370.53573608 96.625137329 0.4993999898 373.82876587 370.53570557 5891.0000000 5891.0000000 5891.0000000 5891.0000000 5891.0000000  -999.250000 0.0424299985 0.0424299985 0.0405899994 0.0405899994 1.2069000006 1.1503000259
 1215.8960000 2.0697000027 142.20950317 361.83465576 96.775199890 0.5044999719 363.66796875 361.83465576 5891.0000000 5891.0000000 5891.0000000 5891.0000000 5891.0000000  -999.250000 0.0451899990 0.0451899990 0.0439700000 0.0439700000 1.2230000496 1.1648999453
 1216.0483400 2.0711998940 141.44949341 349.87344360 97.244087219 0.5239999890 354.95172119 349.87344360 5891.0000000 5891.0000000 5891.0000000 5891.0000000 5891.0000000  -999.250000 0.0464700013 0.0464700013 0.0415199995 0.0415199995 1.2367000580 1.1798000336
 1216.2008100 2.0893998146 140.47309875 345.14495850 95.314758301 0.4779999852 349.62902832 345.14495850 5891.0000000 5891.0000000 5891.0000000 5891.0000000 5891.0000000  -999.250000 0.0374099985 0.0374099985 0.0376700014 0.0376700014 1.2508000135 1.1953999996
 1216.3531500 2.1196999550 139.31900024 337.87713623 89.606773376 0.4338000119 347.03787231 337.87713623 5891.0000000 5891.0000000 5891.0000000 5891.0000000 5891.0000000  -999.250000 0.0553600006 0.0553600006 0.0397100002 0.0397100002 1.2696100473 1.2183099985
 1216.5056200 2.1528000832 135.34240723 343.19952393 82.005920410 0.3551999927 346.26641846 343.19952393 5891.0000000 5891.0000000 5891.0000000 5891.0000000 5891.0000000  -999.250000 0.0511399992 0.0511399992 0.0465900004 0.0465900004 1.2789000273 1.2322000265
 1216.6579600 2.1658999920 134.27279663 351.39331055 77.460403442 0.3497999907 351.21835327 351.39334106 5891.0000000 5891.0000000 5891.0000000 5891.0000000 5891.0000000  -999.250000 0.0782100037 0.0782100037 0.0545299985 0.0545299985 1.2726900578 1.2263900042
 1216.8104200 2.1549999714 134.60881042 361.58709717 79.447647095 0.4063999951 355.80639648 361.58709717 5891.0000000 5891.0000000 5891.0000000 5891.0000000 5891.0000000  -999.250000 0.0639699996 0.0639699996 0.0540199988 0.0540199988 1.2572000027 1.2072000504
 1216.9627700 2.1287000179 136.92579651 373.66052246 86.159042358 0.5174999833 359.45523071 373.66055298 5891.0000000 5891.0000000 5891.0000000 5891.0000000 5891.0000000  -999.250000 0.0715999976 0.0715999976 0.0462899990 0.0462899990 1.2379900217 1.1830899715
 1217.1152300 2.1038000584 139.03030396 382.36331177 92.918327332 0.5821999907 375.59661865 382.36331177 5891.0000000 5891.0000000 5891.0000000 5891.0000000 5891.0000000  -999.250000 0.0419000015 0.0419000015 0.0375699997 0.0375699997 1.2187000513 1.1598000526
 1217.2675800 2.0899000168 140.21650696 387.90765381 96.911231995 0.5537999868 382.31619263 387.90765381 5891.0000000 5891.0000000 5891.0000000 5891.0000000 5891.0000000  -999.250000 0.0328500010 0.0328500010 0.0319700018 0.0319700018 1.2065999508 1.1444000006
 1217.4200400 2.0959999561 141.79840088 389.10629272 99.152168274 0.5443000197 386.92422485 389.10629272 5891.0000000 5891.0000000 5891.0000000 5891.0000000 5891.0000000  -999.250000 0.0264699999 0.0264699999 0.0208800007 0.0208800007 1.2064000368 1.1407999992
 1217.5723900 2.1122000217 143.49620056 387.12527466 100.44940186 0.5221999884 383.32821655 387.12527466 5891.0000000 5891.0000000 5891.0000000 5891.0000000 5891.0000000  -999.250000 0.0261000004 0.0261000004 0.0072300001  -999.250000 1.2142000198 1.1462999582
 1217.7248500 2.1235001087 143.43440247 386.28640747 99.820709229 0.5407999754 384.74877930 386.28640747 5891.0000000 5891.0000000 5891.0000000 5891.0000000 5891.0000000  -999.250000 0.0262100007 0.0262100007 0.0029000000  -999.250000 1.2257000208 1.1565999985
 1217.8772000 2.1221001148 142.63890076 387.53558350 98.720176697 0.4846000075 385.70312500 387.53558350 5891.0000000 5891.0000000 5891.0000000 5891.0000000 5891.0000000  -999.250000 0.0245600007 0.0245600007 0.0074200002  -999.250000 1.2380000353 1.1677999496
 1218.0295400 2.1221001148 142.16990662 385.13439941 99.132911682 0.4693000019 382.34783936 385.13439941 5891.0000000 5891.0000000 5891.0000000 5891.0000000 5891.0000000  -999.250000 0.0241100006 0.0241100006 0.0060299998  -999.250000 1.2439999580 1.1743999720
 1218.1820100 2.1263000965 142.16789246 383.30676270 99.780197144 0.4490999877 381.92239380 383.30676270 5891.0000000 5891.0000000 5891.0000000 5891.0000000 5891.0000000  -999.250000 0.0260899998 0.0260899998 0.0014400000  -999.250000 1.2457000017 1.1776000261
 1218.3343500 2.1219999790 142.30940247 380.83120728 99.056831360 0.4666000009 378.56851196 380.83120728 5891.0000000 5891.0000000 5891.0000000 5891.0000000 5891.0000000  -999.250000 0.0238000005 0.0238000005 0.0063399998  -999.250000 1.2474000454 1.1804000139
 1218.4868200 2.1159999371 142.44599915 378.86169434 96.572616577 0.5108000040 376.09500122 378.86169434 5891.0000000 5891.0000000 5891.0000000 5891.0000000 5891.0000000  -999.250000 0.0304499995 0.0304499995 0.0181900002  -999.250000 1.2476999760 1.1823999882
 1218.6391600 2.1066000462 142.50180054 378.35723877 94.190299988 0.5368000269 375.06549072 378.35720825 5891.0000000 5891.0000000 5891.0000000 5891.0000000 5891.0000000  -999.250000 0.0371600017 0.0371600017 0.0316499993 0.0316499993 1.2460000515 1.1830999851
 1218.7916300 2.1001999378 143.44859314 370.97848511 92.839797974 0.5421000123 374.38900757 370.97848511 5891.0000000 5891.0000000 5891.0000000 5891.0000000 5891.0000000  -999.250000 0.0394000001 0.0394000001 0.0398899987 0.0398899987 1.2503000498 1.1878999472
 1218.9439700 2.0986001492 142.13529968 366.66867065 92.908416748 0.4742999971 366.48931885 366.66867065 5891.0000000 5891.0000000 5891.0000000 5891.0000000 5891.0000000  -999.250000 0.0449399985 0.0449399985 0.0405699983 0.0405699983 1.2626099586 1.1992100477
 1219.0964400 2.1085000038 140.18319702 357.23840332 95.821563721 0.4503000081 359.06646729 357.23840332 5891.0000000 5891.0000000 5891.0000000 5891.0000000 5891.0000000  -999.250000 0.0307400003 0.0307400003 0.0250300001 0.0250300001 1.2795000076 1.2154999971
 1219.2487800 2.1170001030 137.60139465 350.97003174 99.221496582 0.4415000081 355.94815063 350.97003174 5891.0000000 5891.0000000 5891.0000000 5891.0000000 5891.0000000  -999.250000 0.0433299989 0.0433299989 0.0086500002  -999.250000 1.2995100021 1.2346099615
