# LAS format log file from PETREL
# Project units are specified as depth units
#==================================================================
~Version information
VERS.   2.0:
WRAP.   NO:
#==================================================================
~Well
STRT .m      160.22121000 :
STOP .m      2263.6457500 :
STEP .m     0.00000000 :
NULL .        -999.250000 :
COMP.           : COMPANY
WELL.  16/7-10   : WELL
FLD.            : FIELD
LOC.            : LOCATION
SRVC.           : SERVICE COMPANY
DATE.  2018-06-09 11:12:05   : Log Export Date {yyyy-MM-dd HH:mm:ss}
PROV.           : PROVINCE
UWI.   6607   : UNIQUE WELL ID
API.            : API NUMBER
#==================================================================
~Curve
DEPT .m                   : DEPTH
DEN .g/cm3                : DEN
DT .us/ft                 : DT
DTS .us/ft                : DTS
GR .gAPI                  : GR
NPHI .m3/m3               : NPHI
DTS_i7 ._                 : DTS_i7
DTS_mlFilled ._           : DTS_mlFilled
LITHesa10 ._              : LITHesa10
LITHesa9_filtr ._         : LITHesa9_filtr
LITHesa9_i4 ._            : LITHesa9_i4
LITHesa9_i8 ._            : LITHesa9_i8
LITHesa9_i8i4 ._          : LITHesa9_i8i4
PHIE_i7 ._                : PHIE_i7
PHIE_i8 ._                : PHIE_i8
PHIE_i8i7 ._              : PHIE_i8i7
PHIE_mlfilled ._          : PHIE_mlfilled
PHIEed ._                 : PHIEed
RDEP ._                   : RDEP
RMED ._                   : RMED
~Parameter
#==================================================================
~Ascii
# ...
 727.14911000 2.1019999981 147.45828247 400.90209961 156.96890259 0.5479900241 394.47702026 400.90209961 5891.0000000 5891.0000000 5891.0000000 5891.0000000 5891.0000000  -999.250000  -999.250000  -999.250000  -999.250000  -999.250000 1.6337000132 1.4817999601
 727.30151000 2.1145000458 147.00567627 392.34906006 157.83099365 0.5557000041 392.51025391 392.34906006 5891.0000000 5891.0000000 5891.0000000 5891.0000000 5891.0000000  -999.250000  -999.250000  -999.250000  -999.250000  -999.250000 1.6269999743 1.4760999680
 727.45392000 2.1201000214 146.70132446 382.95669556 149.09609985 0.5648999810 385.10202026 382.95666504 5891.0000000 5891.0000000 5891.0000000 5891.0000000 5891.0000000  -999.250000  -999.250000  -999.250000  -999.250000  -999.250000 1.6311000586 1.4716999531
 727.60632000 2.1068999767 146.69580078 381.38183594 153.11439514 0.5803899765 383.66339111 381.38183594 5891.0000000 5891.0000000 5891.0000000 5891.0000000 5891.0000000  -999.250000  -999.250000  -999.250000  -999.250000  -999.250000 1.6499999762 1.4902000427
 727.75873000 2.0975000858 146.82025146 386.79772949 150.81599426 0.5942900181 386.88992310 386.79772949 5891.0000000 5891.0000000 5891.0000000 5891.0000000 5891.0000000  -999.250000  -999.250000  -999.250000  -999.250000  -999.250000 1.6755000353 1.5159000158
 727.91113000 2.0943000317 147.10209656 390.91134644 155.94630432 0.5659099817 389.32678223 390.91134644 5891.0000000 5891.0000000 5891.0000000 5891.0000000 5891.0000000  -999.250000  -999.250000  -999.250000  -999.250000  -999.250000 1.6232999563 1.4792000055
 728.06354000 2.0954999924 147.50802612 389.80950928 153.38470459 0.5579000115 389.61895752 389.80953979 5891.0000000 5891.0000000 5891.0000000 5891.0000000 5891.0000000  -999.250000  -999.250000  -999.250000  -999.250000  -999.250000 1.5535999537 1.4132000208
 728.21588000 2.0922000408 147.61262512 385.09948730 148.43429565 0.5529000163 383.33197021 385.09948730 5891.0000000 5891.0000000 5891.0000000 5891.0000000 5891.0000000  -999.250000  -999.250000  -999.250000  -999.250000  -999.250000 1.4960000515 1.3618999720
 728.36829000 2.0843999386 147.40316772 376.57162476 148.70570374 0.5436000228 382.31765747 376.57162476 5891.0000000 5891.0000000 5891.0000000 5891.0000000 5891.0000000  -999.250000  -999.250000  -999.250000  -999.250000  -999.250000 1.5052000284 1.3657000065
 728.52069000 2.0898001194 147.31407166 371.13095093 155.87190247 0.5069000125 376.60250854 371.13095093 5891.0000000 5891.0000000 5891.0000000 5891.0000000 5891.0000000  -999.250000  -999.250000  -999.250000  -999.250000  -999.250000 1.5076999664 1.3719999790
 728.67310000 2.1068999767 147.45544434 366.45910645 162.78559875 0.4961999953 372.27679443 366.45910645 5891.0000000 5891.0000000 5891.0000000 5891.0000000 5891.0000000  -999.250000  -999.250000  -999.250000  -999.250000  -999.250000 1.4833999872 1.3528000116
 728.82550000 2.1219999790 147.70779419 367.15136719 168.72599792 0.4923000038 370.14706421 367.15133667 5891.0000000 5891.0000000 5891.0000000 5891.0000000 5891.0000000  -999.250000  -999.250000  -999.250000  -999.250000  -999.250000 1.4795999527 1.3251999617
 728.97791000 2.1231000423 148.22618103 366.67196655 164.44960022 0.4920000136 368.74755859 366.67196655 5891.0000000 5891.0000000 5891.0000000 5891.0000000 5891.0000000  -999.250000  -999.250000  -999.250000  -999.250000  -999.250000 1.4716000557 1.3281999826
 729.13031000 2.1129000187 148.66871643 372.68087769 167.93879700 0.4806999862 371.62783813 372.68087769 5891.0000000 5891.0000000 5891.0000000 5891.0000000 5891.0000000  -999.250000  -999.250000  -999.250000  -999.250000  -999.250000 1.4740999937 1.3248000145
 729.28271000 2.1066000462 148.60823059 376.77261353 164.30780029 0.5027999878 377.09979248 376.77261353 5891.0000000 5891.0000000 5891.0000000 5891.0000000 5891.0000000  -999.250000  -999.250000  -999.250000  -999.250000  -999.250000 1.4427000284 1.3142999411
 729.43512000 2.1033000946 148.20657349 382.08374023 167.15260315 0.5166000128 380.29873657 382.08374023 5891.0000000 5891.0000000 5891.0000000 5891.0000000 5891.0000000  -999.250000  -999.250000  -999.250000  -999.250000  -999.250000 1.4594999552 1.3242000341
 729.58752000 2.1068000793 147.74908447 381.22473145 164.58619690 0.5259000063 381.50500488 381.22473145 5891.0000000 5891.0000000 5891.0000000 5891.0000000 5891.0000000  -999.250000  -999.250000  -999.250000  -999.250000  -999.250000 1.4862999916 1.3289999962
 729.73993000 2.1031000614 147.50309753 376.22662354 163.58090210 0.4975999892 375.46499634 376.22662354 5891.0000000 5891.0000000 5891.0000000 5891.0000000 5891.0000000  -999.250000  -999.250000  -999.250000  -999.250000  -999.250000 1.4357999563 1.3113000393
 729.89233000 2.1071999073 147.24830627 377.79437256 162.91929626 0.4954999983 377.65707397 377.79437256 5891.0000000 5891.0000000 5891.0000000 5891.0000000 5891.0000000  -999.250000  -999.250000  -999.250000  -999.250000  -999.250000 1.4313000441 1.2769000530
 730.04474000 2.1126000881 146.86415100 382.13186646 160.36599731 0.5108000040 377.02984619 382.13186646 5891.0000000 5891.0000000 5891.0000000 5891.0000000 5891.0000000  -999.250000  -999.250000  -999.250000  -999.250000  -999.250000 1.4072999954 1.2698999643
 730.19714000 2.1164999008 146.49595642 381.27490234 164.77850342 0.5343999863 375.67303467 381.27493286 5891.0000000 5891.0000000 5891.0000000 5891.0000000 5891.0000000  -999.250000  -999.250000  -999.250000  -999.250000  -999.250000 1.3047000170 1.2151000500
 730.34949000 2.1153998375 146.33522034 374.42849731 162.78750610 0.5354999900 374.14550781 374.42849731 5891.0000000 5891.0000000 5891.0000000 5891.0000000 5891.0000000  -999.250000  -999.250000  -999.250000  -999.250000  -999.250000 1.2754000425 1.1787999868
 730.50189000 2.1171998978 146.59208679 371.56719971 160.24310303 0.5351999998 372.17404175 371.56719971 5891.0000000 5891.0000000 5891.0000000 5891.0000000 5891.0000000  -999.250000  -999.250000  -999.250000  -999.250000  -999.250000 1.4076000452 1.2697000504
 730.65430000 2.1217999458 147.02325439 369.25796509 160.52879333 0.5268999934 375.55297852 369.25796509 5891.0000000 5891.0000000 5891.0000000 5891.0000000 5891.0000000  -999.250000  -999.250000  -999.250000  -999.250000  -999.250000 1.5147999525 1.3237999678
 730.80670000 2.1193001270 147.35235596 374.47061157 164.20449829 0.4954000115 373.59039307 374.47061157 5891.0000000 5891.0000000 5891.0000000 5891.0000000 5891.0000000  -999.250000  -999.250000  -999.250000  -999.250000  -999.250000 1.5370999575 1.3653999567
 730.95911000 2.1092000008 147.49064636 386.82012939 166.99929810 0.4977000058 379.18457031 386.82012939 5891.0000000 5891.0000000 5891.0000000 5891.0000000 5891.0000000  -999.250000  -999.250000  -999.250000  -999.250000  -999.250000 1.4385000467 1.2998000383
 731.11151000 2.0971000195 147.37214661 385.71936035 163.63029480 0.5159000158 380.97503662 385.71936035 5891.0000000 5891.0000000 5891.0000000 5891.0000000 5891.0000000  -999.250000  -999.250000  -999.250000  -999.250000  -999.250000 1.1655999422 1.1037000418
 731.26392000 2.0956001282 147.06922913 384.82476807 161.87409973 0.5616999865 385.18487549 384.82476807 5891.0000000 5891.0000000 5891.0000000 5891.0000000 5891.0000000  -999.250000  -999.250000  -999.250000  -999.250000  -999.250000 1.0643999577 1.0075999498
 731.41632000 2.0953998566 146.75701904 385.88027954 160.06959534 0.5608000159 384.04348755 385.88027954 5891.0000000 5891.0000000 5891.0000000 5891.0000000 5891.0000000  -999.250000  -999.250000  -999.250000  -999.250000  -999.250000 1.2922999859 1.1880999804
 731.56873000 2.1019999981 146.56527710 387.45925903 159.57350159 0.5327000022 383.14154053 387.45922852 5891.0000000 5891.0000000 5891.0000000 5891.0000000 5891.0000000  -999.250000  -999.250000  -999.250000  -999.250000  -999.250000 1.5578000546 1.3896000385
 731.72113000 2.1046001911 146.18194580 392.56292725 158.56210327 0.4903999865 390.03829956 392.56292725 5891.0000000 5891.0000000 5891.0000000 5891.0000000 5891.0000000  -999.250000  -999.250000  -999.250000  -999.250000  -999.250000 1.6069999933 1.4141999483
