# LAS format log file from PETREL
# Project units are specified as depth units
#==================================================================
~Version information
VERS.   2.0:
WRAP.   NO:
#==================================================================
~Well
STRT .m      160.22121000 :
STOP .m      2263.6457500 :
STEP .m     0.00000000 :
NULL .        -999.250000 :
COMP.           : COMPANY
WELL.  16/7-10   : WELL
FLD.            : FIELD
LOC.            : LOCATION
SRVC.           : SERVICE COMPANY
DATE.  2018-06-09 11:12:05   : Log Export Date {yyyy-MM-dd HH:mm:ss}
PROV.           : PROVINCE
UWI.   6607   : UNIQUE WELL ID
API.            : API NUMBER
#==================================================================
~Curve
DEPT .m                   : DEPTH
DEN .g/cm3                : DEN
DT .us/ft                 : DT
DTS .us/ft                : DTS
GR .gAPI                  : GR
NPHI .m3/m3               : NPHI
DTS_i7 ._                 : DTS_i7
DTS_mlFilled ._           : DTS_mlFilled
LITHesa10 ._              : LITHesa10
LITHesa9_filtr ._         : LITHesa9_filtr
LITHesa9_i4 ._            : LITHesa9_i4
LITHesa9_i8 ._            : LITHesa9_i8
LITHesa9_i8i4 ._          : LITHesa9_i8i4
PHIE_i7 ._                : PHIE_i7
PHIE_i8 ._                : PHIE_i8
PHIE_i8i7 ._              : PHIE_i8i7
PHIE_mlfilled ._          : PHIE_mlfilled
PHIEed ._                 : PHIEed
RDEP ._                   : RDEP
RMED ._                   : RMED
~Parameter
#==================================================================
~Ascii
# ...
 2168.0908200 2.3331000805 130.80317688 334.41021729 116.20269775 0.4733999968 335.38455200 334.41021729 5891.0000000 5891.0000000 5891.0000000 5891.0000000 5891.0000000  -999.250000  -999.250000  -999.250000  -999.250000  -999.250000 0.5095000267 0.5038999915
 2168.2434100 2.3215000629 128.91960144 337.49069214 113.62449646 0.4546999931 335.17956543 337.49069214 5891.0000000 5891.0000000 5891.0000000 5891.0000000 5891.0000000  -999.250000  -999.250000  -999.250000  -999.250000  -999.250000 0.4984000027 0.4911000133
 2168.3957500 2.2901000977 128.34982300 333.60256958 106.60700226 0.4126999974 334.19393921 333.60253906 5891.0000000 5891.0000000 5891.0000000 5891.0000000 5891.0000000  -999.250000  -999.250000  -999.250000  -999.250000  -999.250000 0.4788999856 0.4747000039
 2168.5481000 2.1949999332 128.38195801 323.66323853 95.159301758 0.4357999861 335.93423462 323.66323853 5891.0000000 5891.0000000 5891.0000000 5891.0000000 5891.0000000  -999.250000  -999.250000  -999.250000  -999.250000  -999.250000 0.4754000008 0.4709999859
 2168.7004400 2.1335000992 128.00959778 323.64730835 82.806503296 0.4620000124 331.01849365 323.64730835  -999.250000  -999.250000 5891.0000000 5891.0000000 5891.0000000  -999.250000  -999.250000  -999.250000  -999.250000  -999.250000 0.4821999967 0.4790999889
 2168.8530300 2.2021999359 126.28398895 316.62951660 74.075202942 0.4796000123 316.97317505 316.62951660  -999.250000  -999.250000 5891.0000000 5891.0000000 5891.0000000  -999.250000  -999.250000  -999.250000  -999.250000  -999.250000 0.5160999894 0.5109000206
 2169.0053700 2.3413999081 122.19570160 305.92468262 65.957901001 0.4286000133 300.93951416 305.92468262  -999.250000  -999.250000 5891.0000000 5891.0000000 5891.0000000  -999.250000  -999.250000  -999.250000  -999.250000  -999.250000 0.6719999909 0.6549999714
 2169.1577100 2.4119999409 117.92094421 303.13693237 66.671203613 0.3950000107 293.84649658 303.13696289 5877.0000000  -999.250000 5891.0000000 5891.0000000 5891.0000000  -999.250000  -999.250000  -999.250000  -999.250000  -999.250000 0.6478000283 0.6485000253
 2169.3100600 2.3181998730 120.10348511 292.45684814 61.938999176 0.4402999878 288.69442749 292.45684814 5877.0000000  -999.250000 5891.0000000 5891.0000000 5891.0000000  -999.250000  -999.250000  -999.250000  -999.250000  -999.250000 0.4596000016 0.4620000124
 2169.4626500 2.2143998146 123.64109802 292.28890991 67.085800171 0.4912000000 309.50271606 292.28890991 5877.0000000  -999.250000 5891.0000000 5891.0000000 5891.0000000  -999.250000  -999.250000  -999.250000  -999.250000  -999.250000 0.4381000102 0.4352999926
 2169.6149900 2.1949999332 126.28170013 294.91030884 69.800697327 0.5278000236 307.13909912 294.91030884  -999.250000  -999.250000 5891.0000000 5891.0000000 5891.0000000  -999.250000  -999.250000  -999.250000  -999.250000  -999.250000 0.4492000043 0.4490999877
 2169.7673300 2.2455999851 130.86126709 309.81683350 69.145103455 0.5066999793 315.62780762 309.81683350  -999.250000  -999.250000 5891.0000000 5891.0000000 5891.0000000  -999.250000  -999.250000  -999.250000  -999.250000  -999.250000 0.4503999949 0.4521000087
 2169.9196800 2.2948999405 131.46105957 332.15988159 67.194900513 0.4930999875 340.01733398 332.15988159  -999.250000  -999.250000 5891.0000000 5891.0000000 5891.0000000  -999.250000  -999.250000  -999.250000  -999.250000  -999.250000 0.4356000125 0.4259000123
 2170.0720200 2.3039000034 129.58959961 337.15292358 65.591796875 0.4627000093 336.25805664 337.15292358  -999.250000  -999.250000 5891.0000000 5891.0000000 5891.0000000  -999.250000  -999.250000  -999.250000  -999.250000  -999.250000 0.4740999937 0.4575000107
 2170.2246100 2.2936999798 129.30097961 332.26309204 75.916099548 0.4453999996 313.82708740 332.26309204  -999.250000  -999.250000 5891.0000000 5891.0000000 5891.0000000  -999.250000  -999.250000  -999.250000  -999.250000  -999.250000 0.6305000186 0.6187999845
 2170.3769500 2.2785000801 129.18258667 326.00143433 75.656898499 0.4435999990 317.09539795 326.00143433  -999.250000  -999.250000 5891.0000000 5891.0000000 5891.0000000  -999.250000  -999.250000  -999.250000  -999.250000  -999.250000 0.5414999723 0.5543000102
 2170.5293000 2.2690000534 128.97972107 325.03912354 76.411697388 0.4433999956 327.31427002 325.03912354  -999.250000  -999.250000 5891.0000000 5891.0000000 5891.0000000  -999.250000  -999.250000  -999.250000  -999.250000  -999.250000 0.4314999878 0.4386999905
 2170.6816400 2.2626001835 132.53509521 334.70941162 71.216499329 0.4575999975 338.95135498 334.70941162  -999.250000  -999.250000 5868.0000000 5891.0000000 5891.0000000  -999.250000  -999.250000  -999.250000  -999.250000  -999.250000 0.3966000080 0.4029999971
 2170.8342300 2.2511000633 136.80589294 349.13061523 71.148597717 0.4833000004 351.66381836 349.13061523  -999.250000  -999.250000 5868.0000000 5891.0000000 5891.0000000  -999.250000  -999.250000  -999.250000  -999.250000  -999.250000 0.4023999870 0.4045000076
 2170.9865700 2.2316000462 137.32479858 358.97579956 66.465400696 0.4993000031 360.48916626 358.97579956  -999.250000  -999.250000 5891.0000000 5891.0000000 5891.0000000  -999.250000  -999.250000  -999.250000  -999.250000  -999.250000 0.4262999892 0.4242999852
 2171.1389200 2.2358999252 136.37791443 362.62820435 60.663398743 0.4686000049 358.52923584 362.62823486  -999.250000  -999.250000 5891.0000000 5891.0000000 5891.0000000  -999.250000  -999.250000  -999.250000  -999.250000  -999.250000 0.4381999969 0.4271000028
 2171.2912600 2.2433998585 136.24301147 357.30535889 52.798400879 0.4377000034 360.68887329 357.30535889  -999.250000  -999.250000 5891.0000000 5891.0000000 5891.0000000  -999.250000  -999.250000  -999.250000  -999.250000  -999.250000 0.4417999983 0.4318999946
 2171.4438500 2.2346000671 136.34089661 343.09478760 53.011501312 0.4260999858 330.98056030 343.09478760 5860.0000000  -999.250000 5860.0000000 5891.0000000 5891.0000000 0.0579000004  -999.250000 0.0579000004 0.0579000004  -999.250000 0.4406999946 0.4332999885
 2171.5961900 2.2286999226 136.03990173 349.12957764 53.380798340 0.4744000137 342.96612549 349.12957764 5860.0000000  -999.250000 5860.0000000 5891.0000000 5891.0000000 0.0772799999  -999.250000 0.0772799999 0.0772799999  -999.250000 0.4075999856 0.4072000086
 2171.7485400 2.2423999310 135.69345093 363.84671021 54.340400696 0.4808000028 362.20568848 363.84671021 5860.0000000  -999.250000 5860.0000000 5891.0000000 5891.0000000 0.0878899992  -999.250000 0.0878899992 0.0878899992  -999.250000 0.4140000045 0.4090000093
 2171.9008800 2.2481000423 135.73652649 370.51354980 55.574100494 0.4848999977 368.25827026 370.51354980 5860.0000000  -999.250000 5860.0000000 5891.0000000 5891.0000000 0.0843100026  -999.250000 0.0843100026 0.0843100026  -999.250000 0.4199999869 0.4154999852
 2172.0534700 2.2696001530 135.20179749 362.82379150 53.677398682 0.4819999933 357.94644165 362.82379150 5860.0000000  -999.250000 5891.0000000 5891.0000000 5891.0000000 0.0830700025  -999.250000 0.0830700025 0.0830700025  -999.250000 0.4311999977 0.4232999980
 2172.2058100 2.3096001148 134.00289917 345.64041138 56.126998901 0.5040000081 345.42398071 345.64041138 5860.0000000  -999.250000 5891.0000000 5891.0000000 5891.0000000 0.0554100014  -999.250000 0.0554100014 0.0554100014  -999.250000 0.4605000019 0.4523999989
 2172.3581500 2.3401999474 132.27326965 327.20443726 60.351001740 0.4950000048 331.12701416 327.20443726  -999.250000  -999.250000 5891.0000000 5891.0000000 5891.0000000 0.0403000005  -999.250000 0.0403000005 0.0403000005  -999.250000 0.4762000144 0.4620999992
 2172.5105000 2.3310000896 130.38742065 319.17294312 64.193000793 0.4835000038 326.94924927 319.17294312  -999.250000  -999.250000 5891.0000000 5891.0000000 5891.0000000 0.0405399986  -999.250000 0.0405399986 0.0405399986  -999.250000 0.4645000100 0.4580999911
 2172.6628400 2.2721998692 129.46028137 322.92379761 67.715896606 0.4796000123 318.84951782 322.92379761  -999.250000  -999.250000 5891.0000000 5891.0000000 5891.0000000 0.0710199997  -999.250000 0.0710199997 0.0710199997  -999.250000 0.4350000024 0.4334000051
