# LAS format log file from PETREL
# Project units are specified as depth units
#==================================================================
~Version information
VERS.   2.0:
WRAP.   NO:
#==================================================================
~Well
STRT .m      1110.7399900 :
STOP .m      2724.9606900 :
STEP .m     0.00000000 :
NULL .        -999.250000 :
COMP.           : COMPANY
WELL.  16/7-6   : WELL
FLD.            : FIELD
LOC.            : LOCATION
SRVC.           : SERVICE COMPANY
DATE.  2018-06-09 11:12:04   : Log Export Date {yyyy-MM-dd HH:mm:ss}
PROV.           : PROVINCE
UWI.   3067   : UNIQUE WELL ID
API.            : API NUMBER
#==================================================================
~Curve
DEPT .m                   : DEPTH
DEN .g/cm3                : DEN
DT .us/ft                 : DT
DTS .us/ft                : DTS
GR .gAPI                  : GR
NPHI .m3/m3               : NPHI
DTS_i7 ._                 : DTS_i7
DTS_mlFilled ._           : DTS_mlFilled
LITHesa10 ._              : LITHesa10
LITHesa9_filtr ._         : LITHesa9_filtr
LITHesa9_i4 ._            : LITHesa9_i4
LITHesa9_i8 ._            : LITHesa9_i8
LITHesa9_i8i4 ._          : LITHesa9_i8i4
PHIE_i7 ._                : PHIE_i7
PHIE_i8 ._                : PHIE_i8
PHIE_i8i7 ._              : PHIE_i8i7
PHIE_mlfilled ._          : PHIE_mlfilled
PHIEed ._                 : PHIEed
RDEP ._                   : RDEP
RMED ._                   : RMED
~Parameter
#==================================================================
~Ascii
# ...
 1639.8728000 2.2095000744 143.15609741 410.85751343 95.980720520 0.4445999861 409.81838989 410.85751343 5891.0000000 5891.0000000 5891.0000000 5891.0000000 5891.0000000 0.0400899984 0.0286800005 0.0286800005 0.0000000000  -999.250000 0.6571000218 0.6459000111
 1640.0251500 2.2133998871 142.46310425 410.98318481 96.118156433 0.4688000083 410.19848633 410.98318481 5891.0000000 5891.0000000 5891.0000000 5891.0000000 5891.0000000 0.0387200005 0.0290099997 0.0290099997 0.0000000000  -999.250000 0.6523000002 0.6409999728
 1640.1776100 2.2013001442 143.82789612 411.66943359 96.158309937 0.4776999950 412.38687134 411.66943359 5891.0000000 5891.0000000 5891.0000000 5891.0000000 5891.0000000 0.0311200004 0.0304799993 0.0304799993 0.0000000000  -999.250000 0.6478999853 0.6363999844
 1640.3299600 2.1971001625 143.90780640 413.48489380 95.274291992 0.4884999990 412.77017212 413.48489380 5891.0000000 5891.0000000 5891.0000000 5891.0000000 5891.0000000 0.0304000005 0.0305000003 0.0305000003 0.0000000000  -999.250000 0.6434999704 0.6320999861
 1640.4824200 2.1919999123 144.45939636 412.60610962 92.777473450 0.4869000018 412.43652344 412.60610962 5891.0000000 5891.0000000 5891.0000000 5891.0000000 5891.0000000 0.0390900001 0.0266900007 0.0266900007 0.0000000000  -999.250000 0.6395000219 0.6283000112
 1640.6347700 2.1941001415 144.33599854 413.68209839 89.590141296 0.4679999948 410.92309570 413.68209839 5891.0000000 5891.0000000 5891.0000000 5891.0000000 5891.0000000 0.0208100006 0.0258499999 0.0258499999 0.0055800001  -999.250000 0.6360999942 0.6251999736
 1640.7872300 2.1971001625 144.63009644 412.64471436 87.895240784 0.4413999915 404.66418457 412.64471436 5891.0000000 5891.0000000 5891.0000000 5891.0000000 5891.0000000 0.0227400009 0.0288600009 0.0288600009 0.0094299996  -999.250000 0.6338000298 0.6226999760
 1640.9395800 2.1919999123 145.03120422 411.75158691 88.760780334 0.3664999902 405.72525024 411.75158691 5891.0000000 5891.0000000 5891.0000000 5891.0000000 5891.0000000 0.0243400000 0.0313999988 0.0313999988 0.0094999997  -999.250000 0.6323000193 0.6212000251
 1641.0920400 2.1858000755 144.26330566 409.93759155 90.999107361 0.3738000095 410.35577393 409.93759155 5891.0000000 5891.0000000 5891.0000000 5891.0000000 5891.0000000 0.0333800018 0.0380799994 0.0380799994 0.0056900000  -999.250000 0.6317999959 0.6205000281
 1641.2443800 2.1808998585 144.78860474 409.97311401 92.409599304 0.3847999871 409.85467529 409.97311401 5891.0000000 5891.0000000 5891.0000000 5891.0000000 5891.0000000 0.0324399993 0.0406000018 0.0406000018 0.0052000000  -999.250000 0.6326000094 0.6211000085
 1641.3968500 2.1818001270 144.58850098 409.88677979 92.763748169 0.4296000004 408.79971313 409.88677979 5891.0000000 5891.0000000 5891.0000000 5891.0000000 5891.0000000 0.0397100002 0.0251700003 0.0251700003 0.0046899999  -999.250000 0.6345999837 0.6226000190
 1641.5491900 2.1921999454 144.59460449 407.78662109 93.019378662 0.4205000103 408.04244995 407.78662109 5891.0000000 5891.0000000 5891.0000000 5891.0000000 5891.0000000 0.0350200012 0.0310800001 0.0310800001 0.0000000000  -999.250000 0.6363999844 0.6244999766
 1641.7016600 2.1933000088 144.51449585 406.79470825 93.825828552 0.3772999942 407.16946411 406.79470825 5891.0000000 5891.0000000 5891.0000000 5891.0000000 5891.0000000 0.0346399993 0.0442800000 0.0442800000 0.0000000000  -999.250000 0.6377999783 0.6262999773
 1641.8540000 2.1960000992 143.44720459 411.34390259 95.619216919 0.3395000100 411.40182495 411.34390259 5891.0000000 5891.0000000 5891.0000000 5891.0000000 5891.0000000 0.0294799991 0.0424900018 0.0424900018 0.0000000000  -999.250000 0.6388000250 0.6273999810
 1642.0063500 2.1884999275 143.63099670 411.54000854 97.024620056 0.3488999903 414.20266724 411.54000854 5891.0000000 5891.0000000 5891.0000000 5891.0000000 5891.0000000 0.0331199989 0.0374099985 0.0374099985 0.0008600000  -999.250000 0.6388999820 0.6277999878
 1642.1588100 2.1842999458 143.87469482 412.34146118 96.574012756 0.3790000081 411.61624146 412.34146118 5891.0000000 5891.0000000 5891.0000000 5891.0000000 5891.0000000 0.0277999993 0.0421399996 0.0421399996 0.0032599999  -999.250000 0.6384999752 0.6279000044
 1642.3111600 2.1858999729 144.43539429 409.35198975 94.522789001 0.4074999988 407.66244507 409.35198975 5891.0000000 5891.0000000 5891.0000000 5891.0000000 5891.0000000 0.0281099994 0.0419499986 0.0419499986 0.0023399999  -999.250000 0.6388999820 0.6287999749
 1642.4636200 2.1846001148 145.39289856 399.57888794 92.267753601 0.3955999911 403.28308105 399.57888794 5891.0000000 5891.0000000 5891.0000000 5891.0000000 5891.0000000 0.0331999995 0.0370399989 0.0370399989 0.0030900000  -999.250000 0.6417000294 0.6319000125
 1642.6159700 2.1928999424 145.74580383 398.88360596 90.739608765 0.3856000006 397.70220947 398.88360596 5891.0000000 5891.0000000 5891.0000000 5891.0000000 5891.0000000 0.0298500005 0.0327900015 0.0327900015 0.0024900001  -999.250000 0.6478000283 0.6378999949
 1642.7684300 2.2143001556 145.80780029 393.01593018 90.128112793 0.3465999961 395.21078491 393.01593018 5891.0000000 5891.0000000 5891.0000000 5891.0000000 5891.0000000 0.0337099992 0.0252800006 0.0252800006 0.0000000000  -999.250000 0.6571999788 0.6467000246
 1642.9207800 2.2330000401 145.58819580 391.79110718 90.536911011 0.3752000034 395.07205200 391.79110718 5891.0000000 5891.0000000 5891.0000000 5891.0000000 5891.0000000 0.0353000015 0.0332099982 0.0332099982 0.0000000000  -999.250000 0.6679900289 0.6565999985
 1643.0732400 2.2309999466 144.48069763 392.25756836 91.029251099 0.4314999878 390.93740845 392.25756836 5891.0000000 5891.0000000 5891.0000000 5891.0000000 5891.0000000 0.0422799997 0.0283400007 0.0283400007 0.0000000000  -999.250000 0.6772000194 0.6651999950
 1643.2255900 2.2086000443 141.36689758 391.16647339 90.744132996 0.4771000147 394.58569336 391.16647339 5891.0000000 5891.0000000 5891.0000000 5891.0000000 5891.0000000 0.0344499983 0.0234699994 0.0234699994 0.0000000000  -999.250000 0.6826999784 0.6708999872
 1643.3780500 2.2016000748 141.84950256 392.74386597 90.475639343 0.5034999847 394.78323364 392.74386597 5891.0000000 5891.0000000 5891.0000000 5891.0000000 5891.0000000 0.0298699997 0.0253999997 0.0253999997 0.0000000000  -999.250000 0.6845999956 0.6733000278
 1643.5304000 2.2041001320 142.71870422 393.73239136 91.452529907 0.4963999987 394.24603271 393.73239136 5891.0000000 5891.0000000 5891.0000000 5891.0000000 5891.0000000 0.0452900007 0.0245699994 0.0245699994 0.0000000000  -999.250000 0.6845999956 0.6740000248
 1643.6827400 2.2101998329 139.64700317 388.78710938 93.433662415 0.4925999939 391.58224487 388.78710938 5891.0000000 5891.0000000 5891.0000000 5891.0000000 5891.0000000 0.0485799983 0.0242299996 0.0242299996 0.0000000000  -999.250000 0.6850000024 0.6747999787
 1643.8352100 2.2125999928 138.82829285 389.03988647 94.682487488 0.5008999705 385.20147705 389.03988647 5891.0000000 5891.0000000 5891.0000000 5891.0000000 5891.0000000 0.0459100008 0.0245600007 0.0245600007 0.0000000000  -999.250000 0.6865000129 0.6764000058
 1643.9875500 2.2096998692 137.81799316 388.71072388 93.903816223 0.4413000047 381.87573242 388.71072388 5891.0000000 5891.0000000 5891.0000000 5891.0000000 5891.0000000 0.0440299995 0.0284100007 0.0284100007 0.0000000000  -999.250000 0.6884999871 0.6786000133
 1644.1400100 2.2121999264 139.20880127 389.48901367 93.147491455 0.3977999985 390.68646240 389.48901367 5891.0000000 5891.0000000 5891.0000000 5891.0000000 5891.0000000 0.0345700011 0.0292499997 0.0292499997 0.0000000000  -999.250000 0.6906999946 0.6808000207
 1644.2923600 2.2088000774 139.27360535 391.19421387 94.140060425 0.3594000041 388.64166260 391.19421387 5891.0000000 5891.0000000 5891.0000000 5891.0000000 5891.0000000 0.0402100012 0.0306499992 0.0306499992 0.0000000000  -999.250000 0.6923000216 0.6825000048
 1644.4448200 2.2167999744 138.00720215 392.70800781 95.565696716 0.3970000148 391.04708862 392.70800781 5891.0000000 5891.0000000 5891.0000000 5891.0000000 5891.0000000 0.0427200012 0.0337699987 0.0337699987 0.0000000000  -999.250000 0.6927999854 0.6832000017
