# LAS format log file from PETREL
# Project units are specified as depth units
#==================================================================
~Version information
VERS.   2.0:
WRAP.   NO:
#==================================================================
~Well
STRT .m      160.22121000 :
STOP .m      2263.6457500 :
STEP .m     0.00000000 :
NULL .        -999.250000 :
COMP.           : COMPANY
WELL.  16/7-10   : WELL
FLD.            : FIELD
LOC.            : LOCATION
SRVC.           : SERVICE COMPANY
DATE.  2018-06-09 11:12:05   : Log Export Date {yyyy-MM-dd HH:mm:ss}
PROV.           : PROVINCE
UWI.   6607   : UNIQUE WELL ID
API.            : API NUMBER
#==================================================================
~Curve
DEPT .m                   : DEPTH
DEN .g/cm3                : DEN
DT .us/ft                 : DT
DTS .us/ft                : DTS
GR .gAPI                  : GR
NPHI .m3/m3               : NPHI
DTS_i7 ._                 : DTS_i7
DTS_mlFilled ._           : DTS_mlFilled
LITHesa10 ._              : LITHesa10
LITHesa9_filtr ._         : LITHesa9_filtr
LITHesa9_i4 ._            : LITHesa9_i4
LITHesa9_i8 ._            : LITHesa9_i8
LITHesa9_i8i4 ._          : LITHesa9_i8i4
PHIE_i7 ._                : PHIE_i7
PHIE_i8 ._                : PHIE_i8
PHIE_i8i7 ._              : PHIE_i8i7
PHIE_mlfilled ._          : PHIE_mlfilled
PHIEed ._                 : PHIEed
RDEP ._                   : RDEP
RMED ._                   : RMED
~Parameter
#==================================================================
~Ascii
# ...
 949.19592000 2.0690000057 145.46046448 419.72158813 103.54139709 0.4891000092 419.36062622 419.72158813 5868.0000000  -999.250000 5868.0000000 5891.0000000 5891.0000000  -999.250000  -999.250000  -999.250000  -999.250000  -999.250000 0.8585000038 0.7757999897
 949.34833000 2.0678999424 145.68031311 415.70501709 103.63659668 0.4920000136 419.91949463 415.70501709 5868.0000000  -999.250000 5868.0000000 5891.0000000 5891.0000000  -999.250000  -999.250000  -999.250000  -999.250000  -999.250000 0.8718000054 0.7822999954
 949.50073000 2.0626001358 146.00317383 412.61004639 102.56150055 0.4975999892 413.65899658 412.61004639 5868.0000000  -999.250000 5868.0000000 5891.0000000 5891.0000000  -999.250000  -999.250000  -999.250000  -999.250000  -999.250000 0.8616999984 0.7786999941
 949.65308000 2.0562000275 146.25329590 410.35336304 101.25520325 0.4797999859 411.57656860 410.35339355 5868.0000000  -999.250000 5868.0000000 5891.0000000 5891.0000000  -999.250000  -999.250000  -999.250000  -999.250000  -999.250000 0.8526999950 0.7714999914
 949.80548000 2.0525000095 146.32733154 410.08010864 101.47940063 0.5169000030 411.65679932 410.08010864 5868.0000000  -999.250000 5868.0000000 5891.0000000 5891.0000000  -999.250000  -999.250000  -999.250000  -999.250000  -999.250000 0.8428999782 0.7609999776
 949.95789000 2.0556001663 146.22138977 409.06661987 101.25509644 0.5091000199 411.69763184 409.06661987 5868.0000000  -999.250000 5868.0000000 5891.0000000 5891.0000000  -999.250000  -999.250000  -999.250000  -999.250000  -999.250000 0.8349000216 0.7599999905
 950.11029000 2.0603001118 145.86404419 410.25180054 102.12989807 0.4964999855 412.59552002 410.25180054 5868.0000000  -999.250000 5868.0000000 5891.0000000 5891.0000000  -999.250000  -999.250000  -999.250000  -999.250000  -999.250000 0.8447999954 0.7677999735
 950.26270000 2.0651001930 145.36030579 413.08148193 102.33260345 0.4636999965 415.03613281 413.08148193 5868.0000000  -999.250000 5868.0000000 5891.0000000 5891.0000000  -999.250000  -999.250000  -999.250000  -999.250000  -999.250000 0.8568999767 0.7713999748
 950.41510000 2.0653998852 145.01603699 415.25912476 99.275299072 0.4503000081 416.13143921 415.25912476 5868.0000000  -999.250000 5868.0000000 5891.0000000 5891.0000000  -999.250000  -999.250000  -999.250000  -999.250000  -999.250000 0.8449000120 0.7761999965
 950.56750000 2.0616002083 145.04278564 418.79742432 99.148399353 0.4828000069 411.70852661 418.79742432 5868.0000000  -999.250000 5868.0000000 5891.0000000 5891.0000000  -999.250000  -999.250000  -999.250000  -999.250000  -999.250000 0.8456000090 0.7720999718
 950.71991000 2.0556001663 145.36357117 422.77059937 100.32430267 0.4600999951 417.45074463 422.77059937 5868.0000000  -999.250000 5868.0000000 5891.0000000 5891.0000000  -999.250000  -999.250000  -999.250000  -999.250000  -999.250000 0.8625000119 0.7742000222
 950.87231000 2.0478999615 145.88868713 424.18225098 102.60919952 0.4645000100 419.46896362 424.18225098 5868.0000000  -999.250000 5868.0000000 5891.0000000 5891.0000000  -999.250000  -999.250000  -999.250000  -999.250000  -999.250000 0.8461999893 0.7691000104
 951.02472000 2.0422999859 146.57781982 423.04064941 102.52330017 0.4415000081 422.38302612 423.04064941 5868.0000000  -999.250000 5868.0000000 5891.0000000 5891.0000000  -999.250000  -999.250000  -999.250000  -999.250000  -999.250000 0.8299999833 0.7599999905
 951.17712000 2.0376000404 147.29119873 420.86782837 100.39929962 0.4826999903 419.93249512 420.86782837 5868.0000000  -999.250000 5868.0000000 5891.0000000 5891.0000000  -999.250000  -999.250000  -999.250000  -999.250000  -999.250000 0.8252999783 0.7506999969
 951.32953000 2.0368001461 147.97892761 417.38391113 101.41899872 0.4783999920 421.29809570 417.38391113 5868.0000000  -999.250000 5868.0000000 5891.0000000 5891.0000000  -999.250000  -999.250000  -999.250000  -999.250000  -999.250000 0.8292999864 0.7495999932
 951.48193000 2.0381999016 148.53297424 418.28054810 100.23310089 0.4916000068 426.17864990 418.28054810 5868.0000000  -999.250000 5868.0000000 5891.0000000 5891.0000000  -999.250000  -999.250000  -999.250000  -999.250000  -999.250000 0.8253999949 0.7465000153
 951.63434000 2.0411000252 148.83618164 424.18414307 97.179100037 0.4684000015 426.96325684 424.18414307 5868.0000000  -999.250000 5868.0000000 5891.0000000 5891.0000000  -999.250000  -999.250000  -999.250000  -999.250000  -999.250000 0.8277999759 0.7469000220
 951.78668000 2.0413999557 148.83850098 428.27792358 96.789596558 0.5026000142 427.94256592 428.27792358 5868.0000000  -999.250000 5868.0000000 5891.0000000 5891.0000000  -999.250000  -999.250000  -999.250000  -999.250000  -999.250000 0.8183000088 0.7427999973
 951.93909000 2.0403001308 148.47439575 428.23391724 97.890403748 0.4878999889 427.18322754 428.23391724 5868.0000000  -999.250000 5868.0000000 5891.0000000 5891.0000000  -999.250000  -999.250000  -999.250000  -999.250000  -999.250000 0.8185999990 0.7441999912
 952.09149000 2.0394999981 147.97949219 426.12927246 98.713699341 0.4753000140 424.86434937 426.12927246 5868.0000000  -999.250000 5868.0000000 5891.0000000 5891.0000000  -999.250000  -999.250000  -999.250000  -999.250000  -999.250000 0.8184999824 0.7452999949
 952.24390000 2.0408000946 147.55447388 422.86245728 95.327003479 0.4602999985 420.58386230 422.86245728 5868.0000000  -999.250000 5868.0000000 5891.0000000 5891.0000000  -999.250000  -999.250000  -999.250000  -999.250000  -999.250000 0.8295000196 0.7505999804
 952.39630000 2.0439999104 147.13476563 418.51412964 97.589897156 0.4686000049 418.55899048 418.51412964 5868.0000000  -999.250000 5868.0000000 5891.0000000 5891.0000000  -999.250000  -999.250000  -999.250000  -999.250000  -999.250000 0.8332999945 0.7483999729
 952.54871000 2.0492000580 146.88630676 416.45202637 96.630500793 0.4792000055 418.43795776 416.45202637 5868.0000000  -999.250000 5868.0000000 5891.0000000 5891.0000000  -999.250000  -999.250000  -999.250000  -999.250000  -999.250000 0.8266000152 0.7487000227
 952.70111000 2.0571000576 146.82893372 417.98147583 98.493202209 0.4878999889 420.73468018 417.98147583 5868.0000000  -999.250000 5868.0000000 5891.0000000 5891.0000000  -999.250000  -999.250000  -999.250000  -999.250000  -999.250000 0.8263000250 0.7506999969
 952.85352000 2.0596001148 146.79762268 420.62963867 96.421096802 0.5026999712 420.15112305 420.62963867 5868.0000000  -999.250000 5868.0000000 5891.0000000 5891.0000000  -999.250000  -999.250000  -999.250000  -999.250000  -999.250000 0.8391000032 0.7578999996
 953.00592000 2.0563998222 146.98242188 420.77014160 100.40640259 0.5080000162 419.34573364 420.77014160 5868.0000000  -999.250000 5868.0000000 5891.0000000 5891.0000000  -999.250000  -999.250000  -999.250000  -999.250000  -999.250000 0.8381000161 0.7635999918
 953.15833000 2.0497000217 147.26129150 423.17431641 100.25289917 0.4862999916 424.29113770 423.17431641 5868.0000000  -999.250000 5868.0000000 5891.0000000 5891.0000000  -999.250000  -999.250000  -999.250000  -999.250000  -999.250000 0.8349000216 0.7578999996
 953.31073000 2.0453000069 147.37194824 424.10034180 99.431396484 0.4864999950 425.61868286 424.10034180 5868.0000000  -999.250000 5868.0000000 5891.0000000 5891.0000000  -999.250000  -999.250000  -999.250000  -999.250000  -999.250000 0.8363999724 0.7554000020
 953.46313000 2.0434999466 147.32531738 423.40960693 99.556900024 0.4828999937 422.59356689 423.40957642 5868.0000000  -999.250000 5868.0000000 5891.0000000 5891.0000000  -999.250000  -999.250000  -999.250000  -999.250000  -999.250000 0.8237000108 0.7512999773
 953.61554000 2.0416998863 147.07060242 422.97970581 98.949203491 0.4950999916 423.10861206 422.97970581 5868.0000000  -999.250000 5868.0000000 5891.0000000 5891.0000000  -999.250000  -999.250000  -999.250000  -999.250000  -999.250000 0.8282999992 0.7549999952
 953.76794000 2.0389001369 146.73423767 424.10070801 97.880996704 0.4850000143 423.40283203 424.10070801 5868.0000000  -999.250000 5868.0000000 5891.0000000 5891.0000000  -999.250000  -999.250000  -999.250000  -999.250000  -999.250000 0.8327999711 0.7587000132
