# LAS format log file from PETREL
# Project units are specified as depth units
#==================================================================
~Version information
VERS.   2.0:
WRAP.   NO:
#==================================================================
~Well
STRT .m      1110.7399900 :
STOP .m      2724.9606900 :
STEP .m     0.00000000 :
NULL .        -999.250000 :
COMP.           : COMPANY
WELL.  16/7-6   : WELL
FLD.            : FIELD
LOC.            : LOCATION
SRVC.           : SERVICE COMPANY
DATE.  2018-06-09 11:12:04   : Log Export Date {yyyy-MM-dd HH:mm:ss}
PROV.           : PROVINCE
UWI.   3067   : UNIQUE WELL ID
API.            : API NUMBER
#==================================================================
~Curve
DEPT .m                   : DEPTH
DEN .g/cm3                : DEN
DT .us/ft                 : DT
DTS .us/ft                : DTS
GR .gAPI                  : GR
NPHI .m3/m3               : NPHI
DTS_i7 ._                 : DTS_i7
DTS_mlFilled ._           : DTS_mlFilled
LITHesa10 ._              : LITHesa10
LITHesa9_filtr ._         : LITHesa9_filtr
LITHesa9_i4 ._            : LITHesa9_i4
LITHesa9_i8 ._            : LITHesa9_i8
LITHesa9_i8i4 ._          : LITHesa9_i8i4
PHIE_i7 ._                : PHIE_i7
PHIE_i8 ._                : PHIE_i8
PHIE_i8i7 ._              : PHIE_i8i7
PHIE_mlfilled ._          : PHIE_mlfilled
PHIEed ._                 : PHIEed
RDEP ._                   : RDEP
RMED ._                   : RMED
~Parameter
#==================================================================
~Ascii
 1110.7399900  -999.250000 132.77459717  -999.250000 101.97969818  -999.250000  -999.250000  -999.250000  -999.250000  -999.250000 5891.0000000  -999.250000 5891.0000000  -999.250000  -999.250000  -999.250000  -999.250000  -999.250000 1.3661099672 1.3082100153
 1110.8924600 1.6138000488 127.93080139  -999.250000 106.58190155 0.6180999875 332.79858398 332.79858398  -999.250000  -999.250000 5891.0000000 5891.0000000 5891.0000000  -999.250000 0.1425700039 0.1425700039 0.1425700039  -999.250000 1.3907899857 1.3300000429
 1111.0448000 1.6138000488 133.31359863  -999.250000 104.59490204 0.6180999875 339.49212646 339.49212646  -999.250000  -999.250000 5891.0000000 5891.0000000 5891.0000000  -999.250000 0.1403300017 0.1403300017 0.1403300017  -999.250000 1.3974000216 1.3406000137
 1111.1971400 1.6138000488 138.48039246  -999.250000 101.46630096 0.6180999875 339.33813477 339.33813477  -999.250000  -999.250000 5891.0000000 5891.0000000 5891.0000000  -999.250000 0.1761499941 0.1761499941 0.1761499941  -999.250000 1.3767999411 1.3241000175
 1111.3496100 1.6138000488 136.16909790  -999.250000 104.22699738 0.6180999875 345.75781250 345.75781250  -999.250000  -999.250000 5891.0000000 5891.0000000 5891.0000000  -999.250000 0.1426499933 0.1426499933 0.1426499933  -999.250000 1.3500000238 1.2987999916
 1111.5019500 1.6138000488 135.14219666  -999.250000 108.69619751 0.6180999875 339.54458618 339.54458618  -999.250000  -999.250000 5891.0000000 5891.0000000 5891.0000000  -999.250000 0.1518500000 0.1518500000 0.1518500000  -999.250000 1.3355000019 1.2851999998
 1111.6544200 1.6138000488 133.48519897  -999.250000 109.52960205 0.6180999875 338.92208862 338.92208862  -999.250000  -999.250000 5891.0000000 5891.0000000 5891.0000000  -999.250000 0.1499599963 0.1499599963 0.1499599963  -999.250000 1.3092999458 1.2594000101
 1111.8067600 1.6138000488 130.97959900  -999.250000 109.02809906 0.6180999875 343.47348022 343.47348022  -999.250000  -999.250000 5891.0000000 5891.0000000 5891.0000000  -999.250000 0.1358100027 0.1358100027 0.1358100027  -999.250000 1.2804000378 1.2237999439
 1111.9592300 1.6138000488 131.30850220  -999.250000 105.65209961 0.6180999875 346.22424316 346.22424316  -999.250000  -999.250000 5891.0000000 5891.0000000 5891.0000000  -999.250000 0.1229299977 0.1229299977 0.1229299977  -999.250000 1.2786999941 1.2134000063
 1112.1115700 1.6138000488 128.65609741  -999.250000 98.484092712 0.6180999875 340.50888062 340.50888062  -999.250000  -999.250000 5891.0000000 5891.0000000 5891.0000000  -999.250000 0.1524199992 0.1524199992 0.1524199992  -999.250000 1.3006099463 1.2333099842
 1112.2640400 1.6138000488 131.22090149  -999.250000 91.624649048 0.6180999875 345.65151978 345.65151978  -999.250000  -999.250000 5891.0000000 5891.0000000 5891.0000000  -999.250000 0.1910199970 0.1910199970 0.1910199970  -999.250000 1.3303999901 1.2670999765
 1112.4163800 1.6140999794 130.63969421  -999.250000 87.171562195 0.6180999875 345.71908569 345.71908569  -999.250000  -999.250000 5891.0000000 5891.0000000 5891.0000000  -999.250000 0.2013099939 0.2013099939 0.2013099939  -999.250000 1.3490999937 1.2950999737
 1112.5688500 1.6440000534 133.59719849  -999.250000 90.340896606 0.6180999875 335.74325562 335.74325562  -999.250000  -999.250000 5891.0000000 5891.0000000 5891.0000000  -999.250000 0.2121499926 0.2121499926 0.2121499926  -999.250000 1.3500000238 1.3020999432
 1112.7211900 1.6641999483 134.89790344  -999.250000 99.276199341 0.6180999875 339.12356567 339.12356567  -999.250000  -999.250000 5891.0000000 5891.0000000 5891.0000000  -999.250000 0.1772799939 0.1772799939 0.1772799939  -999.250000 1.3479000330 1.3015999794
 1112.8736600 1.6714000702 134.90910339  -999.250000 100.50340271 0.6180999875 339.27490234 339.27490234  -999.250000  -999.250000 5891.0000000 5891.0000000 5891.0000000  -999.250000 0.1633899957 0.1633899957 0.1633899957  -999.250000 1.3564000130 1.3080999851
 1113.0260000 1.6796000004 132.73710632  -999.250000 91.552650452 0.6180999875 348.60699463 348.60699463  -999.250000  -999.250000 5891.0000000 5891.0000000 5891.0000000  -999.250000 0.2034599930 0.2034599930 0.2034599930  -999.250000 1.3842099905 1.3281099796
 1113.1783400 1.6764000654 134.17070007  -999.250000 90.150360107 0.6180999875 338.97052002 338.97052002  -999.250000  -999.250000 5891.0000000 5891.0000000 5891.0000000  -999.250000 0.1874299943 0.1874299943 0.1874299943  -999.250000 1.4223899841 1.3623900414
 1113.3308100 1.6941000223 132.34060669  -999.250000 102.23159790 0.6226999760 347.93960571 347.93960571  -999.250000  -999.250000 5891.0000000 5891.0000000 5891.0000000  -999.250000 0.1576800048 0.1576800048 0.1576800048  -999.250000 1.4409999847 1.3827999830
 1113.4831500 1.6808999777 134.04870605  -999.250000 113.55449677 0.6446999907 335.29702759 335.29702759  -999.250000  -999.250000 5891.0000000 5891.0000000 5891.0000000  -999.250000 0.1575900018 0.1575900018 0.1575900018  -999.250000 1.4440000057 1.3845000267
 1113.6356200 1.5823000669 134.16949463  -999.250000 110.71800232 0.7167000175 333.79452515 333.79452515  -999.250000  -999.250000 5891.0000000 5891.0000000 5891.0000000  -999.250000 0.1631799936 0.1631799936 0.1631799936  -999.250000 1.4742000103 1.4155999422
 1113.7879600 1.5090999603 132.33200073  -999.250000 106.48570251 0.7894999981 344.84140015 344.84140015  -999.250000  -999.250000 5891.0000000 5891.0000000 5891.0000000  -999.250000 0.1516200006 0.1516200006 0.1516200006  -999.250000 1.5249099731 1.4718099833
 1113.9404300 1.5160999298 127.29460144  -999.250000 109.46379852 0.7797999978 349.85437012 349.85437012 5891.0000000  -999.250000 5891.0000000 5891.0000000 5891.0000000  -999.250000 0.2170300037 0.2170300037 0.2170300037  -999.250000 1.5521999598 1.4960000515
 1114.0927700 1.6233999729 125.51690674  -999.250000 112.10199738 0.7459999919 350.23052979 350.23052979 5891.0000000  -999.250000 5891.0000000 5891.0000000 5891.0000000  -999.250000 0.1602800041 0.1602800041 0.1602800041  -999.250000 1.5616999865 1.5031100512
 1114.2452400 1.7118999958 126.14810181  -999.250000 113.63169861 0.7455000281 350.19433594 350.19433594 5891.0000000  -999.250000 5891.0000000 5891.0000000 5891.0000000  -999.250000 0.2662299871 0.2662299871 0.2662299871  -999.250000 1.5715999603 1.5167000294
 1114.3975800 1.7303000689 125.94350433  -999.250000 111.87439728 0.7060999870 350.19433594 350.19433594 5891.0000000  -999.250000 5891.0000000 5891.0000000 5891.0000000  -999.250000 0.2662299871 0.2662299871 0.2662299871  -999.250000 1.5879000425 1.5382000208
 1114.5500500 1.7071000338 119.79029846  -999.250000 108.25740051 0.6963999867 334.48602295 334.48602295 5891.0000000 5891.0000000 5891.0000000 5891.0000000 5891.0000000  -999.250000 0.2837600112 0.2837600112 0.2837600112  -999.250000 1.5930000544 1.5484000444
 1114.7023900 1.6965999603 124.42930603  -999.250000 107.88480377 0.6930000186 347.40884399 347.40884399 5891.0000000 5891.0000000 5891.0000000 5891.0000000 5891.0000000  -999.250000 0.1852599978 0.1852599978 0.1852599978  -999.250000 1.5629899502 1.5146900415
 1114.8548600 1.6749999523 129.88679504  -999.250000 104.73979950 0.6729000211 351.26144409 351.26144409 5891.0000000 5891.0000000 5891.0000000 5891.0000000 5891.0000000  -999.250000 0.1320299953 0.1320299953 0.1320299953  -999.250000 1.5355999470 1.4755100012
 1115.0072000 1.6523000002 140.05551147  -999.250000 102.48149872 0.6820999980 352.98599243 352.98599243 5891.0000000 5891.0000000 5891.0000000 5891.0000000 5891.0000000  -999.250000 0.1830199957 0.1830199957 0.1830199957  -999.250000 1.5500999689 1.4816000462
 1115.1595500 1.6590000391 137.12579346  -999.250000 104.60710144 0.6807000041 353.83358765 353.83358765 5891.0000000  -999.250000 5891.0000000 5891.0000000 5891.0000000  -999.250000 0.1489399970 0.1489399970 0.1489399970  -999.250000 1.5809899569 1.5055899620
 1115.3120100 1.6696000099 133.60470581  -999.250000 106.51450348 0.6794999838 341.98437500 341.98437500 5891.0000000  -999.250000 5891.0000000 5891.0000000 5891.0000000  -999.250000 0.1523399949 0.1523399949 0.1523399949  -999.250000 1.5965000391 1.5108000040
