# LAS format log file from PETREL
# Project units are specified as depth units
#==================================================================
~Version information
VERS.   2.0:
WRAP.   NO:
#==================================================================
~Well
STRT .m      1110.7399900 :
STOP .m      2724.9606900 :
STEP .m     0.00000000 :
NULL .        -999.250000 :
COMP.           : COMPANY
WELL.  16/7-6   : WELL
FLD.            : FIELD
LOC.            : LOCATION
SRVC.           : SERVICE COMPANY
DATE.  2018-06-09 11:12:04   : Log Export Date {yyyy-MM-dd HH:mm:ss}
PROV.           : PROVINCE
UWI.   3067   : UNIQUE WELL ID
API.            : API NUMBER
#==================================================================
~Curve
DEPT .m                   : DEPTH
DEN .g/cm3                : DEN
DT .us/ft                 : DT
DTS .us/ft                : DTS
GR .gAPI                  : GR
NPHI .m3/m3               : NPHI
DTS_i7 ._                 : DTS_i7
DTS_mlFilled ._           : DTS_mlFilled
LITHesa10 ._              : LITHesa10
LITHesa9_filtr ._         : LITHesa9_filtr
LITHesa9_i4 ._            : LITHesa9_i4
LITHesa9_i8 ._            : LITHesa9_i8
LITHesa9_i8i4 ._          : LITHesa9_i8i4
PHIE_i7 ._                : PHIE_i7
PHIE_i8 ._                : PHIE_i8
PHIE_i8i7 ._              : PHIE_i8i7
PHIE_mlfilled ._          : PHIE_mlfilled
PHIEed ._                 : PHIEed
RDEP ._                   : RDEP
RMED ._                   : RMED
~Parameter
#==================================================================
~Ascii
# ...
 2376.8791500 2.5969998837 64.880104065 129.21820068 11.210780144 0.0813999996 129.38430786 129.21820068 5877.0000000 5877.0000000 5877.0000000 5877.0000000 5877.0000000 0.0508800000 0.0489600003 0.0489600003 0.0490900017 0.0490900017 3.8284599781 3.8940699100
 2377.0314900 2.6001000404 62.148899078 126.27010345 12.495309830 0.0890000015 124.96208191 126.27010345 5877.0000000 5877.0000000 5877.0000000 5877.0000000 5877.0000000 0.0474999994 0.0451500006 0.0451500006 0.0433100015 0.0433100015 4.0686998367 4.1522898674
 2377.1840800 2.6117000580 61.763000488 123.15090179 12.514369965 0.0891000032 123.66314697 123.15090179 5877.0000000 5877.0000000 5877.0000000 5877.0000000 5877.0000000 0.0432999991 0.0394899994 0.0394899994 0.0368399993 0.0368399993 4.3214101791 4.4067201614
 2377.3364300 2.6258001328 60.375598907 120.47200775 10.714719772 0.0802000016 119.31620789 120.47200775 5877.0000000 5877.0000000 5877.0000000 5877.0000000 5877.0000000 0.0380599983 0.0351100005 0.0351100005 0.0347700007 0.0347700007 4.5878200531 4.6759400368
 2377.4887700 2.6433999538 60.627101898 120.26660156 8.4980602264 0.0654999986 121.04496765 120.26660156 5877.0000000 5877.0000000 5877.0000000 5877.0000000 5877.0000000 0.0327900015 0.0323799998 0.0323799998 0.0320600010 0.0320600010 4.8807101250 4.9821100235
 2377.6411100 2.6524000168 60.254802704 119.02349854 7.6066699028 0.0631000027 120.14203644 119.02349854 5877.0000000 5877.0000000 5877.0000000 5877.0000000 5877.0000000 0.0322999991 0.0305799991 0.0305799991 0.0299100000 0.0299100000 5.1887798309 5.2966098785
 2377.7937000 2.6677000523 59.496402740 117.61989594 7.9713602066 0.0674000010 118.21968842 117.61990356 5877.0000000 5877.0000000 5877.0000000 5877.0000000 5877.0000000 0.0247300006 0.0237000007 0.0237000007 0.0203000009 0.0203000009 5.3727297783 5.4960699081
 2377.9460400 2.6586999893 59.221401215 119.29209900 8.4490900040 0.0772000030 117.83138275 119.29209900 5877.0000000 5877.0000000 5877.0000000 5877.0000000 5877.0000000 0.0247799996 0.0237499997 0.0237499997 0.0237399992 0.0237399992 5.4364700317 5.5808601379
 2378.0983900 2.6476998329 60.552097321 119.43288422 8.1970500946 0.0760999992 118.69303894 119.43289185 5877.0000000 5877.0000000 5877.0000000 5877.0000000 5877.0000000 0.0311900005 0.0314599983 0.0314599983 0.0306199994 0.0306199994 5.4770097733 5.6342401505
 2378.2507300 2.6364998817 60.520797729 120.45050049 7.4362897873 0.0736000016 118.80484772 120.45050049 5877.0000000 5877.0000000 5877.0000000 5877.0000000 5877.0000000 0.0388499983 0.0427699983 0.0427699983 0.0392200015 0.0392200015 5.5122499466 5.6944699287
 2378.4033200 2.6433999538 59.615303040 124.21879578 6.7454600334 0.0644999966 122.92540741 124.21880341 5877.0000000 5877.0000000 5877.0000000 5877.0000000 5877.0000000 0.0368900001 0.0426799990 0.0426799990 0.0368000008 0.0368000008 5.5047998428 5.7094697952
 2378.5556600 2.6461999416 60.627799988 127.97171021 6.6138200760 0.0653000027 125.05555725 127.97171021 5877.0000000 5877.0000000 5877.0000000 5877.0000000 5877.0000000 0.0349400006 0.0425699987 0.0425699987 0.0352500007 0.0352500007 5.3017601967 5.5484800339
 2378.7080100 2.6401998997 62.505897522 127.43830872 7.5803098679 0.0693000033 126.14293671 127.43830872 5877.0000000 5877.0000000 5877.0000000 5877.0000000 5877.0000000 0.0364000015 0.0398200005 0.0398200005 0.0367200002 0.0367200002 4.9604201317 5.2224397659
 2378.8603500 2.6291999817 62.354499817 129.80039978 9.4378795624 0.0785999969 127.29280853 129.80039978 5877.0000000 5877.0000000 5877.0000000 5877.0000000 5877.0000000 0.0365899988 0.0368699990 0.0368699990 0.0369100012 0.0369100012 4.6793198586 4.8633899689
 2379.0127000 2.6222000122 62.604499817 131.26939392 10.883729935 0.0847999975 128.02508545 131.26939392 5877.0000000 5877.0000000 5877.0000000 5877.0000000 5877.0000000 0.0368199982 0.0366800018 0.0366800018 0.0362000018 0.0362000018 4.4863400459 4.5710601807
 2379.1652800 2.6164000034 63.169700623 131.57879639 10.822199821 0.0851000026 130.28578186 131.57879639 5877.0000000 5877.0000000 5877.0000000 5877.0000000 5877.0000000 0.0400700010 0.0395100005 0.0395100005 0.0395999998 0.0395999998 4.2877001762 4.3471498489
 2379.3176300 2.6128001213 63.329601288 133.26699829 9.7877197266 0.0864999965 130.89860535 133.26699829 5877.0000000 5877.0000000 5877.0000000 5877.0000000 5877.0000000 0.0450199991 0.0447099991 0.0447099991 0.0448700003 0.0448700003 4.1028800011 4.1811399460
 2379.4699700 2.6106998920 65.041603088 134.50129700 9.3135404587 0.0877000019 130.68151855 134.50129700 5877.0000000 5877.0000000 5877.0000000 5877.0000000 5877.0000000 0.0484599993 0.0479599983 0.0479599983 0.0475299992 0.0475299992 3.8979101181 3.9712300301
 2379.6223100 2.6089999676 65.825202942 139.15780640 10.370690346 0.0988000035 133.25529480 139.15780640 5877.0000000 5877.0000000 5877.0000000 5877.0000000 5877.0000000 0.0476699993 0.0456600003 0.0456600003 0.0451200008 0.0451200008 3.5872199535 3.6659801006
 2379.7749000 2.5913000107 66.309303284 139.44259644 12.210590363 0.1168000028 135.02514648 139.44259644 5877.0000000 5877.0000000 5877.0000000 5877.0000000 5877.0000000 0.0473899990 0.0494799986 0.0494799986 0.0490700006 0.0490700006 3.2750101089 3.3376998901
 2379.9272500 2.5736000538 67.738700867 138.91020203 13.583049774 0.1326999962 139.04919434 138.91020203 5877.0000000 5877.0000000 5877.0000000 5877.0000000 5877.0000000 0.0576599985 0.0553999990 0.0553999990 0.0544900000 0.0544900000 3.0132200718 3.0654299259
 2380.0795900 2.5622999668 69.705497742 138.08090210 13.332659721 0.1307000071 137.54522705 138.08090210 5877.0000000 5877.0000000 5877.0000000 5877.0000000 5877.0000000 0.0689300001 0.0664300025 0.0664300025 0.0615300015 0.0615300015 2.8574199677 2.9059801102
 2380.2319300 2.5675001144 70.538696289 133.97380066 11.704930305 0.1207000017 136.02250671 133.97380066 5877.0000000 5877.0000000 5877.0000000 5877.0000000 5877.0000000 0.0669400021 0.0667200014 0.0667200014 0.0638300031 0.0638300031 2.8628399372 2.8914198875
 2380.3845200 2.5729999542 67.741699219 130.25750732 10.083020210 0.1048000008 129.29200745 130.25750732 5877.0000000 5877.0000000 5877.0000000 5877.0000000 5877.0000000 0.0684600025 0.0659200028 0.0659200028 0.0659300014 0.0659300014 2.9921600819 2.9975099564
 2380.5368700 2.5778999329 68.018104553 126.91310120 9.4303302765 0.0948999971 128.20544434 126.91310120 5877.0000000 5877.0000000 5877.0000000 5877.0000000 5877.0000000 0.0644899979 0.0654499978 0.0654499978 0.0652899966 0.0652899966 3.2237501144 3.1994500160
 2380.6892100 2.6001000404 64.366798401 127.62239838 9.3138799667 0.0944000036 125.76347351 127.62239838 5877.0000000 5877.0000000 5877.0000000 5877.0000000 5877.0000000 0.0542800017 0.0535999984 0.0535999984 0.0534100011 0.0534100011 3.4926300049 3.4682300091
 2380.8415500 2.6087999344 62.327503204 127.77488708 9.2159500122 0.0935000032 125.42989349 127.77488708 5877.0000000 5877.0000000 5877.0000000 5877.0000000 5877.0000000 0.0502099991 0.0486100018 0.0486100018 0.0489000008 0.0489000008 3.7843899727 3.7571899891
 2380.9939000 2.6146998405 62.132598877 127.83650970 9.0819597244 0.0930000022 125.56839752 127.83650970 5877.0000000 5877.0000000 5877.0000000 5877.0000000 5877.0000000 0.0459199995 0.0470400006 0.0470400006 0.0460599996 0.0460599996 4.0077300072 3.9790699482
 2381.1464800 2.6136000156 62.033599854 127.77719879 8.9090299606 0.0896999985 127.55774689 127.77719879 5877.0000000 5877.0000000 5877.0000000 5877.0000000 5877.0000000 0.0474300012 0.0470600016 0.0470600016 0.0472100005 0.0472100005 4.0605998039 4.0503501892
 2381.2988300 2.6115000248 63.932701111 126.55868530 8.9442396164 0.0904999971 125.99839020 126.55869293 5877.0000000 5877.0000000 5877.0000000 5877.0000000 5877.0000000 0.0486100018 0.0481700003 0.0481700003 0.0482599996 0.0482599996 3.9208400249 3.9356400967
 2381.4511700 2.6026999950 65.248199463 126.04980469 9.1993398666 0.0974000022 125.82617950 126.04979706 5877.0000000 5877.0000000 5877.0000000 5877.0000000 5877.0000000 0.0531600006 0.0522500016 0.0522500016 0.0523100011 0.0523100011 3.6345999241 3.6696999073
