# LAS format log file from PETREL
# Project units are specified as depth units
#==================================================================
~Version information
VERS.   2.0:
WRAP.   NO:
#==================================================================
~Well
STRT .m      1110.7399900 :
STOP .m      2724.9606900 :
STEP .m     0.00000000 :
NULL .        -999.250000 :
COMP.           : COMPANY
WELL.  16/7-6   : WELL
FLD.            : FIELD
LOC.            : LOCATION
SRVC.           : SERVICE COMPANY
DATE.  2018-06-09 11:12:04   : Log Export Date {yyyy-MM-dd HH:mm:ss}
PROV.           : PROVINCE
UWI.   3067   : UNIQUE WELL ID
API.            : API NUMBER
#==================================================================
~Curve
DEPT .m                   : DEPTH
DEN .g/cm3                : DEN
DT .us/ft                 : DT
DTS .us/ft                : DTS
GR .gAPI                  : GR
NPHI .m3/m3               : NPHI
DTS_i7 ._                 : DTS_i7
DTS_mlFilled ._           : DTS_mlFilled
LITHesa10 ._              : LITHesa10
LITHesa9_filtr ._         : LITHesa9_filtr
LITHesa9_i4 ._            : LITHesa9_i4
LITHesa9_i8 ._            : LITHesa9_i8
LITHesa9_i8i4 ._          : LITHesa9_i8i4
PHIE_i7 ._                : PHIE_i7
PHIE_i8 ._                : PHIE_i8
PHIE_i8i7 ._              : PHIE_i8i7
PHIE_mlfilled ._          : PHIE_mlfilled
PHIEed ._                 : PHIEed
RDEP ._                   : RDEP
RMED ._                   : RMED
~Parameter
#==================================================================
~Ascii
# ...
 1531.2115500 2.1400001049 148.93098450 442.73446655 94.870910645 0.4578000009 434.94799805 442.73443604 5891.0000000 5891.0000000 5891.0000000 5891.0000000 5891.0000000 0.0290200002 0.0288900007 0.0288900007 0.0285700001 0.0285700001 0.6679000258 0.6492000222
 1531.3640100 2.1323001385 149.02740479 450.13436890 94.925430298 0.5030999780 446.87521362 450.13436890 5891.0000000 5891.0000000 5891.0000000 5891.0000000 5891.0000000 0.0335999988 0.0320900008 0.0320900008 0.0329600014 0.0329600014 0.6622999907 0.6439999938
 1531.5163600 2.1306998730 148.81680298 449.82452393 95.296920776 0.4972999990 447.88372803 449.82455444 5891.0000000 5891.0000000 5891.0000000 5891.0000000 5891.0000000 0.0330700018 0.0330800004 0.0330800004 0.0338799991 0.0338799991 0.6571000218 0.6391000152
 1531.6688200 2.1451001167 149.36120605 442.21569824 95.854522705 0.5041000247 436.36260986 442.21569824 5891.0000000 5891.0000000 5891.0000000 5891.0000000 5891.0000000 0.0264400002 0.0306800008 0.0306800008 0.0256699994 0.0256699994 0.6528000236 0.6349999905
 1531.8211700 2.1598000526 149.55992126 442.83480835 96.517807007 0.5196999907 439.60379028 442.83480835 5891.0000000 5891.0000000 5891.0000000 5891.0000000 5891.0000000 0.0245600007 0.0409100018 0.0409100018 0.0172700007  -999.250000 0.6499000192 0.6320000291
 1531.9736300 2.1613998413 149.99249268 443.65417480 96.294067383 0.4885999858 433.34317017 443.65417480 5891.0000000 5891.0000000 5891.0000000 5891.0000000 5891.0000000 0.0244999994 0.0409200005 0.0409200005 0.0163499992  -999.250000 0.6482999921 0.6302999854
 1532.1259800 2.1591999531 150.92349243 441.85202026 94.947151184 0.4548999965 442.17440796 441.85202026 5891.0000000 5891.0000000 5891.0000000 5891.0000000 5891.0000000 0.0241899993 0.0391599983 0.0391599983 0.0175999999  -999.250000 0.6475999951 0.6294999719
 1532.2784400 2.1566998959 149.60101318 440.74685669 93.843139648 0.4555000067 444.38562012 440.74685669 5891.0000000 5891.0000000 5891.0000000 5891.0000000 5891.0000000 0.0212600008 0.0378400013 0.0378400013 0.0190299992  -999.250000 0.6474000216 0.6290000081
 1532.4307900 2.1593999863 149.63710022 442.33041382 93.487571716 0.4605999887 442.41244507 442.33041382 5891.0000000 5891.0000000 5891.0000000 5891.0000000 5891.0000000 0.0215399992 0.0383899994 0.0383899994 0.0174899995  -999.250000 0.6463999748 0.6279000044
 1532.5832500 2.1591999531 150.31660461 442.54052734 93.269233704 0.4535999894 442.68725586 442.54052734 5891.0000000 5891.0000000 5891.0000000 5891.0000000 5891.0000000 0.0242500007 0.0380199999 0.0380199999 0.0175999999  -999.250000 0.6438999772 0.6254000068
 1532.7356000 2.1570000648 150.74940491 442.66592407 91.959587097 0.4512999952 442.15197754 442.66592407 5891.0000000 5891.0000000 5891.0000000 5891.0000000 5891.0000000 0.0241400003 0.0408199988 0.0408199988 0.0189900007  -999.250000 0.6399000287 0.6215999722
 1532.8879400 2.1556999683 151.40310669 442.57397461 90.652671814 0.4700999856 444.54147339 442.57397461 5891.0000000 5891.0000000 5891.0000000 5891.0000000 5891.0000000 0.0254299995 0.0240100008 0.0240100008 0.0240199994 0.0240199994 0.6355000138 0.6172999740
 1533.0404100 2.1477999687 151.84710693 443.64425659 91.144042969 0.5072000027 434.45077515 443.64425659 5891.0000000 5891.0000000 5891.0000000 5891.0000000 5891.0000000 0.0269900002 0.0276699997 0.0276699997 0.0269200001 0.0269200001 0.6319000125 0.6136999726
 1533.1927500 2.1421000957 152.06440735 444.61904907 92.838706970 0.5037000179 431.85293579 444.61904907 5891.0000000 5891.0000000 5891.0000000 5891.0000000 5891.0000000 0.0283799991 0.0296700001 0.0296700001 0.0273700003 0.0273700003 0.6305000186 0.6116999984
 1533.3452100 2.1329998970 151.75149536 449.52160645 93.842430115 0.4298000038 448.97192383 449.52160645 5891.0000000 5891.0000000 5891.0000000 5891.0000000 5891.0000000 0.0322800018 0.0335800014 0.0335800014 0.0325599983 0.0325599983 0.6308000088 0.6114000082
 1533.4975600 2.1284999847 152.04557800 453.56445313 92.762077332 0.4426999986 441.61904907 453.56445313 5891.0000000 5891.0000000 5891.0000000 5891.0000000 5891.0000000 0.0360600017 0.0354299992 0.0354299992 0.0351400003 0.0351400003 0.6320000291 0.6119999886
 1533.6500200 2.1213998795 151.91540527 454.12854004 90.820930481 0.4602000117 447.47286987 454.12854004 5891.0000000 5891.0000000 5891.0000000 5891.0000000 5891.0000000 0.0431100018 0.0444400012 0.0444400012 0.0430600010 0.0430600010 0.6330000162 0.6126999855
 1533.8023700 2.1223001480 151.91569519 452.02301025 90.531951904 0.5271999836 453.25912476 452.02301025 5891.0000000 5891.0000000 5891.0000000 5891.0000000 5891.0000000 0.0424700007 0.0441000015 0.0441000015 0.0435100012 0.0435100012 0.6333000064 0.6129000187
 1533.9548300 2.1284999847 151.63151550 453.22927856 91.798927307 0.5317000151 450.89050293 453.22927856 5891.0000000 5891.0000000 5891.0000000 5891.0000000 5891.0000000 0.0373700000 0.0361599997 0.0361599997 0.0358199999 0.0358199999 0.6334000230 0.6129000187
 1534.1071800 2.1323997974 151.65890503 443.12310791 92.503097534 0.5389999747 441.87869263 443.12310791 5891.0000000 5891.0000000 5891.0000000 5891.0000000 5891.0000000 0.0335300006 0.0343200006 0.0343200006 0.0329199992 0.0329199992 0.6335999966 0.6129999757
 1534.2596400 2.1261000633 150.63029480 433.72476196 92.015602112 0.5303999782 441.67828369 433.72476196 5891.0000000 5891.0000000 5891.0000000 5891.0000000 5891.0000000 0.0469500013 0.0365200005 0.0365200005 0.0365099981 0.0365099981 0.6341999769 0.6134999990
 1534.4119900 2.1175000668 150.35090637 438.65957642 91.057060242 0.5092999935 444.33087158 438.65957642 5891.0000000 5891.0000000 5891.0000000 5891.0000000 5891.0000000 0.0457199998 0.0439600013 0.0439600013 0.0445200019 0.0445200019 0.6349999905 0.6141999960
 1534.5644500 2.1140000820 149.87622070 455.77465820 90.081382751 0.4891999960 450.41378784 455.77465820 5891.0000000 5891.0000000 5891.0000000 5891.0000000 5891.0000000 0.0499499999 0.0480699986 0.0480699986 0.0497200005 0.0497200005 0.6363000274 0.6154000163
 1534.7168000 2.1150000095 149.82240295 468.79135132 88.892311096 0.4501000047 444.10314941 468.79138184 5891.0000000 5891.0000000 5891.0000000 5891.0000000 5891.0000000 0.0551499985 0.0541500002 0.0541500002 0.0530700013 0.0530700013 0.6384000182 0.6175000072
 1534.8691400 2.1129000187 150.09049988 477.01074219 88.693199158 0.4717999995 468.36132813 477.01074219 5891.0000000 5891.0000000 5891.0000000 5891.0000000 5891.0000000 0.0563400015 0.0577699989 0.0577699989 0.0549199991 0.0549199991 0.6414999962 0.6209999919
 1535.0216100 2.1033999920 151.76390076 476.80377197 89.976257324 0.4717999995 471.98498535 476.80377197 5891.0000000 5891.0000000 5891.0000000 5891.0000000 5891.0000000 0.0576899983 0.0558400005 0.0558400005 0.0561299995 0.0561299995 0.6456000209 0.6256999969
 1535.1739500 2.0857999325 151.90051270 476.76461792 90.802627563 0.4842000008 470.83154297 476.76461792 5891.0000000 5891.0000000 5891.0000000 5891.0000000 5891.0000000 0.0635799989 0.0642499998 0.0642499998 0.0634699985 0.0634699985 0.6500999928 0.6309999824
 1535.3264200 2.0831999779 152.33747864 472.73950195 90.462806702 0.4774999917 470.50064087 472.73950195 5891.0000000 5891.0000000 5891.0000000 5891.0000000 5891.0000000 0.0648799986 0.0612500012 0.0612500012 0.0660799965 0.0660799965 0.6535999775 0.6352000237
 1535.4787600 2.0966000557 152.89689636 465.54138184 90.221672058 0.4867999852 466.07293701 465.54138184 5891.0000000 5891.0000000 5891.0000000 5891.0000000 5891.0000000 0.0583299994 0.0599300005 0.0599300005 0.0592200011 0.0592200011 0.6553000212 0.6373999715
 1535.6312300 2.1083998680 153.31559753 453.53610229 90.928108215 0.4548000097 457.27511597 453.53610229 5891.0000000 5891.0000000 5891.0000000 5891.0000000 5891.0000000 0.0504599996 0.0451399982 0.0451399982 0.0501599982 0.0501599982 0.6563000083 0.6381000280
 1535.7835700 2.1182000637 153.36579895 447.78848267 91.709877014 0.4609999955 455.28253174 447.78851318 5891.0000000 5891.0000000 5891.0000000 5891.0000000 5891.0000000 0.0426600017 0.0397799984 0.0397799984 0.0419900008 0.0419900008 0.6571000218 0.6385999918
