# LAS format log file from PETREL
# Project units are specified as depth units
#==================================================================
~Version information
VERS.   2.0:
WRAP.   NO:
#==================================================================
~Well
STRT .m      160.22121000 :
STOP .m      2263.6457500 :
STEP .m     0.00000000 :
NULL .        -999.250000 :
COMP.           : COMPANY
WELL.  16/7-10   : WELL
FLD.            : FIELD
LOC.            : LOCATION
SRVC.           : SERVICE COMPANY
DATE.  2018-06-09 11:12:05   : Log Export Date {yyyy-MM-dd HH:mm:ss}
PROV.           : PROVINCE
UWI.   6607   : UNIQUE WELL ID
API.            : API NUMBER
#==================================================================
~Curve
DEPT .m                   : DEPTH
DEN .g/cm3                : DEN
DT .us/ft                 : DT
DTS .us/ft                : DTS
GR .gAPI                  : GR
NPHI .m3/m3               : NPHI
DTS_i7 ._                 : DTS_i7
DTS_mlFilled ._           : DTS_mlFilled
LITHesa10 ._              : LITHesa10
LITHesa9_filtr ._         : LITHesa9_filtr
LITHesa9_i4 ._            : LITHesa9_i4
LITHesa9_i8 ._            : LITHesa9_i8
LITHesa9_i8i4 ._          : LITHesa9_i8i4
PHIE_i7 ._                : PHIE_i7
PHIE_i8 ._                : PHIE_i8
PHIE_i8i7 ._              : PHIE_i8i7
PHIE_mlfilled ._          : PHIE_mlfilled
PHIEed ._                 : PHIEed
RDEP ._                   : RDEP
RMED ._                   : RMED
~Parameter
#==================================================================
~Ascii
# ...
 1501.9506800 2.1413998604 134.69110107 319.85879517 85.096397400 0.4609000087 319.64404297 319.85879517  -999.250000  -999.250000 5891.0000000 5891.0000000 5891.0000000  -999.250000  -999.250000  -999.250000  -999.250000  -999.250000 1.0226999521 1.0275000334
 1502.1031500 2.1482999325 134.40969849 319.48928833 87.160797119 0.4474999905 320.39718628 319.48928833  -999.250000  -999.250000 5891.0000000 5891.0000000 5891.0000000  -999.250000  -999.250000  -999.250000  -999.250000  -999.250000 1.0300999880 1.0368000269
 1502.2554900 2.1533000469 134.17210388 318.63229370 83.115303040 0.4675000012 319.19873047 318.63229370  -999.250000  -999.250000 5891.0000000 5891.0000000 5891.0000000  -999.250000  -999.250000  -999.250000  -999.250000  -999.250000 1.0492999554 1.0484999418
 1502.4078400 2.1576001644 133.88619995 316.84576416 81.686096191 0.4566999972 317.90472412 316.84579468  -999.250000  -999.250000 5891.0000000 5891.0000000 5891.0000000  -999.250000  -999.250000  -999.250000  -999.250000  -999.250000 1.0571000576 1.0604000092
 1502.5603000 2.1598999500 133.52650452 315.63540649 79.508598328 0.4348999858 315.39312744 315.63540649  -999.250000  -999.250000 5891.0000000 5891.0000000 5891.0000000  -999.250000  -999.250000  -999.250000  -999.250000  -999.250000 1.0765000582 1.0794999599
 1502.7126500 2.1616001129 133.05250549 313.86331177 78.132102966 0.4034000039 313.81484985 313.86331177  -999.250000  -999.250000 5891.0000000 5891.0000000 5891.0000000  -999.250000  -999.250000  -999.250000  -999.250000  -999.250000 1.0815999508 1.0903999805
 1502.8651100 2.1607999802 132.61399841 314.62100220 78.676902771 0.3720999956 324.04055786 314.62100220  -999.250000  -999.250000 5891.0000000 5891.0000000 5891.0000000  -999.250000  -999.250000  -999.250000  -999.250000  -999.250000 1.0894000530 1.0932999849
 1503.0174600 2.1617000103 132.56739807 315.78640747 76.230796814 0.4083999991 314.35040283 315.78640747  -999.250000  -999.250000 5891.0000000 5891.0000000 5891.0000000  -999.250000  -999.250000  -999.250000  -999.250000  -999.250000 1.0872999430 1.0928000212
 1503.1699200 2.1671001911 132.73159790 314.85778809 74.334396362 0.4580000043 314.13650513 314.85778809  -999.250000  -999.250000 5891.0000000 5891.0000000 5891.0000000  -999.250000  -999.250000  -999.250000  -999.250000  -999.250000 1.0863000154 1.0920000076
 1503.3222700 2.1747000217 132.90570068 311.78228760 74.236503601 0.4652000070 312.13159180 311.78228760  -999.250000  -999.250000 5891.0000000 5891.0000000 5891.0000000  -999.250000  -999.250000  -999.250000  -999.250000  -999.250000 1.0728000402 1.0779999495
 1503.4747300 2.1761000156 132.97470093 309.52288818 75.504898071 0.4842999876 311.50823975 309.52288818  -999.250000  -999.250000 5891.0000000 5891.0000000 5891.0000000  -999.250000  -999.250000  -999.250000  -999.250000  -999.250000 1.0712000132 1.0744999647
 1503.6270800 2.1717000008 132.95620728 309.89270020 78.796401978 0.4814999998 310.89395142 309.89270020  -999.250000  -999.250000 5891.0000000 5891.0000000 5891.0000000  -999.250000  -999.250000  -999.250000  -999.250000  -999.250000 1.0822000504 1.0827000141
 1503.7795400 2.1654999256 133.25810242 311.31677246 79.522102356 0.5002999902 314.42990112 311.31677246  -999.250000  -999.250000 5891.0000000 5891.0000000 5891.0000000  -999.250000  -999.250000  -999.250000  -999.250000  -999.250000 1.0528999567 1.0557999611
 1503.9318800 2.1640000343 133.71359253 314.31109619 79.543701172 0.4932000041 316.88610840 314.31109619  -999.250000  -999.250000 5891.0000000 5891.0000000 5891.0000000  -999.250000  -999.250000  -999.250000  -999.250000  -999.250000 1.0189000368 1.0226000547
 1504.0843500 2.1683001518 134.16360474 316.49108887 75.447799683 0.4638999999 318.44888306 316.49108887  -999.250000  -999.250000 5891.0000000 5891.0000000 5891.0000000  -999.250000  -999.250000  -999.250000  -999.250000  -999.250000 1.0187000036 1.0199999809
 1504.2366900 2.1701002121 134.60200500 319.92651367 78.208503723 0.4600000083 318.76760864 319.92651367  -999.250000  -999.250000 5891.0000000 5891.0000000 5891.0000000  -999.250000  -999.250000  -999.250000  -999.250000  -999.250000 1.0250999928 1.0223000050
 1504.3890400 2.1672999859 135.03080750 322.32290649 86.122596741 0.4702000022 322.12301636 322.32290649  -999.250000  -999.250000 5891.0000000 5891.0000000 5891.0000000  -999.250000  -999.250000  -999.250000  -999.250000  -999.250000 1.0147000551 1.0125999451
 1504.5415000 2.1600000858 135.70249939 325.75949097 92.933097839 0.5008999705 334.32769775 325.75949097  -999.250000  -999.250000 5891.0000000 5891.0000000 5891.0000000  -999.250000  -999.250000  -999.250000  -999.250000  -999.250000 0.9945999980 0.9945999980
 1504.6938500 2.1548998356 136.45629883 329.57901001 96.219001770 0.5113999844 340.25595093 329.57901001  -999.250000  -999.250000 5891.0000000 5891.0000000 5891.0000000  -999.250000  -999.250000  -999.250000  -999.250000  -999.250000 0.9541000128 0.9592000246
 1504.8463100 2.1528000832 137.13600159 332.85198975 91.564697266 0.4884000123 333.73974609 332.85198975  -999.250000  -999.250000 5891.0000000 5891.0000000 5891.0000000  -999.250000  -999.250000  -999.250000  -999.250000  -999.250000 0.9509000182 0.9592000246
 1504.9986600 2.1517000198 138.41380310 335.84429932 93.451599121 0.4835000038 339.51348877 335.84429932  -999.250000  -999.250000 5891.0000000 5891.0000000 5891.0000000  -999.250000  -999.250000  -999.250000  -999.250000  -999.250000 0.9605000019 0.9636999965
 1505.1511200 2.1459999084 139.80679321 336.68670654 83.756301880 0.4726999998 337.99832153 336.68670654  -999.250000  -999.250000 5891.0000000 5891.0000000 5891.0000000  -999.250000  -999.250000  -999.250000  -999.250000  -999.250000 0.9599000216 0.9657999873
 1505.3034700 2.1323001385 140.08050537 336.14529419 83.556396484 0.4632999897 338.34527588 336.14529419  -999.250000  -999.250000 5891.0000000 5891.0000000 5891.0000000  -999.250000  -999.250000  -999.250000  -999.250000  -999.250000 0.9761999846 0.9800999761
 1505.4559300 2.1191000938 138.74760437 332.29888916 76.848297119 0.4438999891 328.23577881 332.29888916  -999.250000  -999.250000 5891.0000000 5891.0000000 5891.0000000  -999.250000  -999.250000  -999.250000  -999.250000  -999.250000 1.0166000128 1.0189000368
 1505.6082800 2.1119999886 136.17410278 323.86309814 77.815299988 0.4591999948 322.89727783 323.86309814  -999.250000  -999.250000 5891.0000000 5891.0000000 5891.0000000  -999.250000  -999.250000  -999.250000  -999.250000  -999.250000 1.0269000530 1.0326000452
 1505.7607400 2.1258001328 134.08329773 319.11169434 75.367897034 0.4591000080 318.47290039 319.11169434  -999.250000  -999.250000 5891.0000000 5891.0000000 5891.0000000  -999.250000  -999.250000  -999.250000  -999.250000  -999.250000 1.0552999973 1.0592000484
 1505.9130900 2.1453998089 133.93080139 315.44830322 79.910697937 0.4659999907 318.13806152 315.44830322  -999.250000  -999.250000 5891.0000000 5891.0000000 5891.0000000  -999.250000  -999.250000  -999.250000  -999.250000  -999.250000 1.0628999472 1.0706000328
 1506.0655500 2.1665999889 134.74240112 315.22714233 78.771301270 0.4429000020 317.83712769 315.22714233  -999.250000  -999.250000 5891.0000000 5891.0000000 5891.0000000  -999.250000  -999.250000  -999.250000  -999.250000  -999.250000 1.0513999462 1.0608999729
 1506.2179000 2.1733000278 135.33830261 318.85739136 80.227500916 0.4510000050 321.32803345 318.85739136  -999.250000  -999.250000 5891.0000000 5891.0000000 5891.0000000  -999.250000  -999.250000  -999.250000  -999.250000  -999.250000 1.0391000509 1.0509999990
 1506.3703600 2.1691999435 136.01739502 322.64089966 81.799301147 0.4691999853 321.36410522 322.64089966  -999.250000  -999.250000 5891.0000000 5891.0000000 5891.0000000  -999.250000  -999.250000  -999.250000  -999.250000  -999.250000 1.0138000250 1.0269000530
 1506.5227100 2.1618001461 136.99389648 329.29116821 85.649200439 0.4885999858 329.75473022 329.29116821  -999.250000  -999.250000 5891.0000000 5891.0000000 5891.0000000  -999.250000  -999.250000  -999.250000  -999.250000  -999.250000 0.9815000296 0.9933000207
