# LAS format log file from PETREL
# Project units are specified as depth units
#==================================================================
~Version information
VERS.   2.0:
WRAP.   NO:
#==================================================================
~Well
STRT .m      160.22121000 :
STOP .m      2263.6457500 :
STEP .m     0.00000000 :
NULL .        -999.250000 :
COMP.           : COMPANY
WELL.  16/7-10   : WELL
FLD.            : FIELD
LOC.            : LOCATION
SRVC.           : SERVICE COMPANY
DATE.  2018-06-09 11:12:05   : Log Export Date {yyyy-MM-dd HH:mm:ss}
PROV.           : PROVINCE
UWI.   6607   : UNIQUE WELL ID
API.            : API NUMBER
#==================================================================
~Curve
DEPT .m                   : DEPTH
DEN .g/cm3                : DEN
DT .us/ft                 : DT
DTS .us/ft                : DTS
GR .gAPI                  : GR
NPHI .m3/m3               : NPHI
DTS_i7 ._                 : DTS_i7
DTS_mlFilled ._           : DTS_mlFilled
LITHesa10 ._              : LITHesa10
LITHesa9_filtr ._         : LITHesa9_filtr
LITHesa9_i4 ._            : LITHesa9_i4
LITHesa9_i8 ._            : LITHesa9_i8
LITHesa9_i8i4 ._          : LITHesa9_i8i4
PHIE_i7 ._                : PHIE_i7
PHIE_i8 ._                : PHIE_i8
PHIE_i8i7 ._              : PHIE_i8i7
PHIE_mlfilled ._          : PHIE_mlfilled
PHIEed ._                 : PHIEed
RDEP ._                   : RDEP
RMED ._                   : RMED
~Parameter
#==================================================================
~Ascii
# ...
 505.10236000  -999.250000 165.97619629  -999.250000 156.83470154 0.5828899741  -999.250000  -999.250000 5891.0000000  -999.250000 5891.0000000  -999.250000 5891.0000000  -999.250000  -999.250000  -999.250000  -999.250000  -999.250000 1.3006000519 1.1166000366
 505.25476000  -999.250000 165.78959656 481.08334351 150.91960144 0.5809000134  -999.250000 481.08334351 5891.0000000  -999.250000 5891.0000000  -999.250000 5891.0000000  -999.250000  -999.250000  -999.250000  -999.250000  -999.250000 1.6713000536 1.4995000362
 505.40714000 2.0013999939 164.72239685 513.61065674 147.69979858 0.5537099838 519.05706787 513.61065674 5891.0000000 5891.0000000 5891.0000000 5891.0000000 5891.0000000  -999.250000  -999.250000  -999.250000  -999.250000  -999.250000 1.7778999805 1.6087000370
 505.55954000 2.0220000744 163.73908997 543.97790527 147.62789917 0.5432000160 536.03436279 543.97790527 5891.0000000 5891.0000000 5891.0000000 5891.0000000 5891.0000000  -999.250000  -999.250000  -999.250000  -999.250000  -999.250000 1.7037999630 1.5001000166
 505.71194000 2.0367000103 163.34750366 563.10168457 151.78720093 0.5378000140 530.42425537 563.10168457 5891.0000000 5891.0000000 5891.0000000 5891.0000000 5891.0000000  -999.250000  -999.250000  -999.250000  -999.250000  -999.250000 1.6440999508 1.4327000380
 505.86435000 2.0373001099 162.17210388 534.56231689 151.57829285 0.5616000295 529.15478516 534.56231689 5891.0000000 5891.0000000 5891.0000000 5891.0000000 5891.0000000  -999.250000  -999.250000  -999.250000  -999.250000  -999.250000 1.8319000006 1.6337000132
 506.01675000 2.0371999741 161.07539368 519.54296875 152.84970093 0.5468999743 517.80725098 519.54296875 5891.0000000 5891.0000000 5891.0000000 5891.0000000 5891.0000000  -999.250000  -999.250000  -999.250000  -999.250000  -999.250000 1.9062000513 1.6858999729
 506.16916000 2.0373001099 160.34719849 501.47604370 149.33149719 0.5307000279 500.03390503 501.47604370 5891.0000000 5891.0000000 5891.0000000 5891.0000000 5891.0000000  -999.250000  -999.250000  -999.250000  -999.250000  -999.250000 1.6660000086 1.5008000135
 506.32156000 2.0406999588 159.52290344 487.03179932 149.83140564 0.5207999945 483.14767456 487.03179932 5891.0000000 5891.0000000 5891.0000000 5891.0000000 5891.0000000  -999.250000  -999.250000  -999.250000  -999.250000  -999.250000 1.5177999735 1.3681999445
 506.47394000 2.0422999859 159.12739563 483.37179565 149.77180481 0.5317999721 481.81616211 483.37179565 5891.0000000 5891.0000000 5891.0000000 5891.0000000 5891.0000000  -999.250000  -999.250000  -999.250000  -999.250000  -999.250000 1.4701000452 1.2898000479
 506.62634000 2.0434999466 158.43269348 480.58914185 149.28750610 0.5485000014 481.00274658 480.58914185 5891.0000000 5891.0000000 5891.0000000 5891.0000000 5891.0000000  -999.250000  -999.250000  -999.250000  -999.250000  -999.250000 1.5039999485 1.2876000404
 506.77875000 2.0327000618 158.16688538 479.69909668 146.01820374 0.5426999927 480.57513428 479.69909668 5891.0000000 5891.0000000 5891.0000000 5891.0000000 5891.0000000  -999.250000  -999.250000  -999.250000  -999.250000  -999.250000 1.6354000568 1.4879000187
 506.93115000 2.0160000324 158.77789307 470.49444580 142.89509583 0.5497000217 472.78833008 470.49444580 5891.0000000 5891.0000000 5891.0000000 5891.0000000 5891.0000000  -999.250000  -999.250000  -999.250000  -999.250000  -999.250000 1.8724999428 1.6526000500
 507.08356000 2.0125999451 158.94000244 467.51800537 143.53210449 0.5795900226 466.87185669 467.51800537 5891.0000000 5891.0000000 5891.0000000 5891.0000000 5891.0000000  -999.250000  -999.250000  -999.250000  -999.250000  -999.250000 2.5009999275 2.3966999054
 507.23596000 2.0200998783 159.09190369 466.22006226 144.21539307 0.5602999926 474.38952637 466.22006226 5891.0000000 5891.0000000 5891.0000000 5891.0000000 5891.0000000  -999.250000  -999.250000  -999.250000  -999.250000  -999.250000 1.6437000036 1.5200999975
 507.38834000 2.0316998959 159.56629944 462.67819214 147.26559448 0.5803899765 471.57479858 462.67819214 5891.0000000 5891.0000000 5891.0000000 5891.0000000 5891.0000000  -999.250000  -999.250000  -999.250000  -999.250000  -999.250000 1.5088000298 1.3062000275
 507.54074000 2.0299999714 160.10360718 466.67285156 145.33340454 0.5837000012 469.40371704 466.67285156 5891.0000000 5891.0000000 5891.0000000 5891.0000000 5891.0000000  -999.250000  -999.250000  -999.250000  -999.250000  -999.250000 1.5867999792 1.4263000488
 507.69315000 2.0106999874 160.82778931 474.94354248 146.91130066 0.6018000245 477.13775635 474.94354248 5891.0000000 5891.0000000 5891.0000000 5891.0000000 5891.0000000  -999.250000  -999.250000  -999.250000  -999.250000  -999.250000 1.6047999859 1.4718999863
 507.84555000 1.9950000048 161.68370056 476.61462402 144.59609985 0.5683100224 478.57781982 476.61465454 5891.0000000 5891.0000000 5891.0000000 5891.0000000 5891.0000000  -999.250000  -999.250000  -999.250000  -999.250000  -999.250000 1.6272000074 1.5221999884
 507.99796000 1.9831999540 162.39561462 490.53659058 144.47639465 0.5364099741 485.83499146 490.53659058 5891.0000000 5891.0000000 5891.0000000 5891.0000000 5891.0000000  -999.250000  -999.250000  -999.250000  -999.250000  -999.250000 1.6238000393 1.5032999516
 508.15036000 1.9974999428 162.68629456 487.59716797 144.82929993 0.5378000140 487.15869141 487.59716797 5891.0000000 5891.0000000 5891.0000000 5891.0000000 5891.0000000  -999.250000  -999.250000  -999.250000  -999.250000  -999.250000 1.6689000130 1.4948999882
 508.30276000 2.0074000359 162.71890259 492.05020142 146.12959290 0.5278000236 488.65603638 492.05020142 5891.0000000 5891.0000000 5891.0000000 5891.0000000 5891.0000000  -999.250000  -999.250000  -999.250000  -999.250000  -999.250000 1.6518000364 1.4936000109
 508.45514000 2.0181000233 162.51910400 490.71664429 146.81959534 0.5426899791 487.14663696 490.71664429 5891.0000000 5891.0000000 5891.0000000 5891.0000000 5891.0000000  -999.250000  -999.250000  -999.250000  -999.250000  -999.250000 1.6316000223 1.4706000090
 508.60754000 2.0209000111 162.09700012 487.23501587 146.09289551 0.5358999968 488.79315186 487.23501587 5891.0000000 5891.0000000 5891.0000000 5891.0000000 5891.0000000  -999.250000  -999.250000  -999.250000  -999.250000  -999.250000 1.6543999910 1.4702999592
 508.75995000 2.0204999447 161.78669739 480.51135254 146.72970581 0.5379999876 484.14645386 480.51135254 5891.0000000 5891.0000000 5891.0000000 5891.0000000 5891.0000000  -999.250000  -999.250000  -999.250000  -999.250000  -999.250000 1.6693999767 1.4904999733
 508.91235000 2.0079998970 161.60978699 483.99508667 149.10929871 0.5424000025 483.47219849 483.99508667 5891.0000000 5891.0000000 5891.0000000 5891.0000000 5891.0000000  -999.250000  -999.250000  -999.250000  -999.250000  -999.250000 1.6459000111 1.5005999804
 509.06476000 1.9868999720 161.74940491 484.90423584 150.14239502 0.5375999808 483.31256104 484.90423584 5891.0000000 5891.0000000 5891.0000000 5891.0000000 5891.0000000  -999.250000  -999.250000  -999.250000  -999.250000  -999.250000 1.6619000435 1.4816000462
 509.21716000 1.9890999794 162.17260742 480.47409058 151.96679688 0.5720000267 488.59854126 480.47409058 5891.0000000 5891.0000000 5891.0000000 5891.0000000 5891.0000000  -999.250000  -999.250000  -999.250000  -999.250000  -999.250000 1.6560000181 1.4651000500
 509.36957000 2.0125999451 162.46119690 472.13177490 151.28320313 0.5317000151 479.17300415 472.13177490 5891.0000000 5891.0000000 5891.0000000 5891.0000000 5891.0000000  -999.250000  -999.250000  -999.250000  -999.250000  -999.250000 1.6615999937 1.5039999485
 509.52194000 2.0374000072 162.47579956 503.96865845 153.66650391 0.5562000275 502.70635986 503.96865845 5891.0000000 5891.0000000 5891.0000000 5891.0000000 5891.0000000  -999.250000  -999.250000  -999.250000  -999.250000  -999.250000 1.6644999981 1.5405999422
 509.67435000 2.0422999859 162.25500488 505.15148926 152.26510620 0.5400999784 501.59750366 505.15145874 5891.0000000 5891.0000000 5891.0000000 5891.0000000 5891.0000000  -999.250000  -999.250000  -999.250000  -999.250000  -999.250000 1.6911000013 1.5232000351
