# LAS format log file from PETREL
# Project units are specified as depth units
#==================================================================
~Version information
VERS.   2.0:
WRAP.   NO:
#==================================================================
~Well
STRT .m      1110.7399900 :
STOP .m      2724.9606900 :
STEP .m     0.00000000 :
NULL .        -999.250000 :
COMP.           : COMPANY
WELL.  16/7-6   : WELL
FLD.            : FIELD
LOC.            : LOCATION
SRVC.           : SERVICE COMPANY
DATE.  2018-06-09 11:12:04   : Log Export Date {yyyy-MM-dd HH:mm:ss}
PROV.           : PROVINCE
UWI.   3067   : UNIQUE WELL ID
API.            : API NUMBER
#==================================================================
~Curve
DEPT .m                   : DEPTH
DEN .g/cm3                : DEN
DT .us/ft                 : DT
DTS .us/ft                : DTS
GR .gAPI                  : GR
NPHI .m3/m3               : NPHI
DTS_i7 ._                 : DTS_i7
DTS_mlFilled ._           : DTS_mlFilled
LITHesa10 ._              : LITHesa10
LITHesa9_filtr ._         : LITHesa9_filtr
LITHesa9_i4 ._            : LITHesa9_i4
LITHesa9_i8 ._            : LITHesa9_i8
LITHesa9_i8i4 ._          : LITHesa9_i8i4
PHIE_i7 ._                : PHIE_i7
PHIE_i8 ._                : PHIE_i8
PHIE_i8i7 ._              : PHIE_i8i7
PHIE_mlfilled ._          : PHIE_mlfilled
PHIEed ._                 : PHIEed
RDEP ._                   : RDEP
RMED ._                   : RMED
~Parameter
#==================================================================
~Ascii
# ...
 2060.3444800 2.2569999695 111.18180084 224.77120972 41.687198639 0.3248000145 224.37660217 224.77120972 5891.0000000  -999.250000 5891.0000000 6792.0000000 6792.0000000 0.0656299964 0.0846299976 0.0846299976 0.0000000000  -999.250000 0.7432900071 0.7522900105
 2060.4968300 2.2393999100 113.37079620 241.57040405 44.226089478 0.3253999949 236.94723511 241.57040405 5891.0000000 5891.0000000 5891.0000000 5891.0000000 5891.0000000 0.1034799963 0.0685900003 0.0685900003 0.0003400000  -999.250000 0.7312999964 0.7398999929
 2060.6491700 2.2438998222 114.06299591 245.15528870 46.133171082 0.3763000071 248.06466675 245.15530396 5891.0000000  -999.250000 5891.0000000 5891.0000000 5891.0000000 0.0639799982 0.0824100003 0.0824100003 0.0000000000  -999.250000 0.7299100161 0.7398099899
 2060.8015100 2.2495000362 116.58010101 235.44540405 45.107391357 0.4063999951 236.15606689 235.44540405 5891.0000000 5891.0000000 5891.0000000 5891.0000000 5891.0000000 0.0592500009 0.0632399991 0.0632399991 0.0000000000  -999.250000 0.7366999984 0.7497000098
 2060.9541000 2.2411000729 119.33229828 228.07929993 41.335079193 0.4095000029 235.00238037 228.07929993 5891.0000000  -999.250000 5891.0000000 5891.0000000 5891.0000000 0.0807700008 0.0575800017 0.0575800017 0.0038200000  -999.250000 0.7461000085 0.7630000114
 2061.1064500 2.2441000938 120.35649872 223.37071228 37.715839386 0.3693000078 233.43153381 223.37069702 5891.0000000  -999.250000 5891.0000000 6792.0000000 6792.0000000 0.0344699994 0.0346399993 0.0346399993 0.0263299998 0.0263299998 0.7516000271 0.7724000216
 2061.2587900 2.2548999786 115.39649963 216.70939636 36.522830963 0.3533000052 219.93954468 216.70939636 5891.0000000  -999.250000 5891.0000000 6792.0000000 6792.0000000 0.0417100005 0.0320000015 0.0320000015 0.0281600002 0.0281600002 0.7493000031 0.7732899785
 2061.4111300 2.2585000992 111.25920105 210.61952209 37.575210571 0.3470000029 218.17652893 210.61952209 5891.0000000  -999.250000 5891.0000000 6792.0000000 6792.0000000 0.0657600015 0.0489900000 0.0489900000 0.0190500002  -999.250000 0.7433999777 0.7659000158
 2061.5637200 2.2423999310 108.15180206 209.78797913 39.259231567 0.3542000055 217.13314819 209.78797913 5891.0000000  -999.250000 5891.0000000 6792.0000000 6792.0000000 0.1193099990 0.1079699993 0.1079699993 0.0169699993  -999.250000 0.7343000174 0.7541000247
 2061.7160600 2.2426002026 109.73989868 227.19709778 39.412899017 0.3562000096 224.86056519 227.19709778 5891.0000000  -999.250000 5891.0000000 6792.0000000 6792.0000000 0.0891499966 0.0840099975 0.0840099975 0.0158300009  -999.250000 0.7274100184 0.7459999919
 2061.8684100 2.2576000690 111.52269745 226.49659729 38.218650818 0.3892000020 227.83509827 226.49659729 5891.0000000 5891.0000000 5891.0000000 5891.0000000 5891.0000000 0.0628599972 0.0677499995 0.0677499995 0.0152700003  -999.250000 0.7327100039 0.7489100099
 2062.0207500 2.2603998184 111.74369812 217.73069763 37.903308868 0.3905000091 219.19078064 217.73069763 5891.0000000 5891.0000000 5891.0000000 5891.0000000 5891.0000000 0.0558199994 0.0522600003 0.0522600003 0.0157699995  -999.250000 0.7511000037 0.7630000114
 2062.1731000 2.2699999809 112.82910156 216.70889282 39.397899628 0.3795000017 220.75634766 216.70889282 5891.0000000  -999.250000 5891.0000000 6792.0000000 6792.0000000 0.0622900017 0.0725400001 0.0725400001 0.0002800000  -999.250000 0.7761999965 0.7836999893
 2062.3256800 2.2727999687 110.36499786 215.60961914 41.345119476 0.3711999953 216.75944519 215.60961914 5891.0000000  -999.250000 6792.0000000 6792.0000000 6792.0000000 0.0679399967 0.0902400017 0.0902400017 0.0000000000  -999.250000 0.7983000278 0.8021000028
 2062.4780300 2.2738001347 107.84829712 213.47821045 41.370899200 0.3524999917 215.35185242 213.47819519 5891.0000000  -999.250000 6792.0000000 6792.0000000 6792.0000000 0.0806799978 0.0938600004 0.0938600004 0.0000000000  -999.250000 0.8087999821 0.8111000061
 2062.6303700 2.2523999214 108.08819580 212.74081421 40.048870087 0.3634000123 214.93702698 212.74081421 5891.0000000  -999.250000 6792.0000000 6792.0000000 6792.0000000 0.0720800012 0.0955199972 0.0955199972 0.0059600002  -999.250000 0.8105000257 0.8105999827
 2062.7827100 2.2088000774 112.85699463 216.43559265 39.688400269 0.3675999939 219.43122864 216.43559265 5891.0000000  -999.250000 6792.0000000 6792.0000000 6792.0000000 0.0797699988 0.0592899993 0.0592899993 0.0332800001 0.0332800001 0.8127999902 0.8091999888
 2062.9353000 2.1921000481 118.91730499 225.58937073 41.830249786 0.3607999980 232.59695435 225.58937073 5891.0000000  -999.250000 6792.0000000 6792.0000000 6792.0000000 0.0733700022 0.0590899996 0.0590899996 0.0285000000 0.0285000000 0.8180099726 0.8110100031
 2063.0876500 2.1966001987 120.53980255 232.85949707 45.623401642 0.3343000114 243.19487000 232.85949707 5891.0000000  -999.250000 5891.0000000 5891.0000000 5891.0000000 0.0611400008 0.0403500013 0.0403500013 0.0248000007 0.0248000007 0.8306199908 0.8185099959
 2063.2399900 2.2439999580 120.90260315 235.15440369 48.948841095 0.3666000068 241.63687134 235.15440369 5891.0000000 5891.0000000 5891.0000000 5891.0000000 5891.0000000 0.0591499992 0.0673500001 0.0673500001 0.0000000000  -999.250000 0.8521900177 0.8345999718
 2063.3923300 2.2601001263 119.85189819 234.12438965 51.660568237 0.3899999857 246.67010498 234.12440491 5891.0000000 5891.0000000 5891.0000000 5891.0000000 5891.0000000 0.0812399983 0.0568599999 0.0568599999 0.0000000000  -999.250000 0.8719000220 0.8561999798
 2063.5449200 2.2691001892 119.68829346 236.16859436 54.159851074 0.3831999898 243.31632996 236.16859436 5891.0000000 5891.0000000 5891.0000000 5891.0000000 5891.0000000 0.0661600009 0.0526800007 0.0526800007 0.0000000000  -999.250000 0.8899099827 0.8785099983
 2063.6972700 2.2638998032 118.45810699 224.83998108 57.629070282 0.3641000092 239.68644714 224.83998108 5891.0000000 5891.0000000 5891.0000000 5891.0000000 5891.0000000 0.0763000026 0.0696500018 0.0696500018 0.0000000000  -999.250000 0.9138200283 0.9049199820
 2063.8496100 2.2536001205 117.77760315 221.50628662 62.257450104 0.3644999862 223.98542786 221.50628662 5891.0000000 5891.0000000 5891.0000000 5891.0000000 5891.0000000 0.0933799967 0.0636200011 0.0636200011 0.0000000000  -999.250000 0.9367700219 0.9301699996
 2064.0019500 2.2520000935 114.21189880 225.66859436 66.353950500 0.3567000031 233.90388489 225.66859436 5891.0000000 5891.0000000 5891.0000000 5891.0000000 5891.0000000 0.0623599999 0.0888999999 0.0888999999 0.0000000000  -999.250000 0.9406700134 0.9422799945
 2064.1543000 2.2541999817 116.30150604 234.11599731 68.502777100 0.3477999866 236.70773315 234.11599731 5891.0000000 5891.0000000 5891.0000000 5891.0000000 5891.0000000 0.0704900026 0.0534700006 0.0534700006 0.0000000000  -999.250000 0.9191799760 0.9337800145
 2064.3068800 2.2581999302 116.00659943 250.34629822 67.761253357 0.3472999930 244.78907776 250.34629822 5891.0000000 5891.0000000 5891.0000000 5891.0000000 5891.0000000 0.0839700028 0.0405599996 0.0405599996 0.0000000000  -999.250000 0.8877900243 0.9084799886
 2064.4592300 2.2562999725 120.98959351 246.81210327 65.893173218 0.3093999922 250.06317139 246.81210327 5891.0000000 5891.0000000 5891.0000000 5891.0000000 5891.0000000 0.1192699969 0.0517899990 0.0517899990 0.0000000000  -999.250000 0.8617900014 0.8824899793
 2064.6115700 2.2588999271 123.57500458 214.58129883 64.115852356 0.3021999896 227.39152527 214.58129883 5891.0000000 5891.0000000 5891.0000000 5891.0000000 5891.0000000 0.0842000023 0.0573100001 0.0573100001 0.0000000000  -999.250000 0.8513399959 0.8762400150
 2064.7639200 2.2671000957 125.53300476 203.19493103 62.940910339 0.3567000031 233.09458923 203.19493103  -999.250000  -999.250000 5891.0000000 5891.0000000 5891.0000000 0.1238899976 0.0583099984 0.0583099984 0.0000000000  -999.250000 0.8779699802 0.9113600254
 2064.9165000 2.2883000374 120.16539764 194.96540833 61.795951843 0.3088999987 222.72894287 194.96540833 5877.0000000  -999.250000 5891.0000000 5891.0000000 5891.0000000 0.1133700013 0.0529100001 0.0529100001 0.0000000000  -999.250000 0.9750800133 1.0084099770
