# LAS format log file from PETREL
# Project units are specified as depth units
#==================================================================
~Version information
VERS.   2.0:
WRAP.   NO:
#==================================================================
~Well
STRT .m      1110.7399900 :
STOP .m      2724.9606900 :
STEP .m     0.00000000 :
NULL .        -999.250000 :
COMP.           : COMPANY
WELL.  16/7-6   : WELL
FLD.            : FIELD
LOC.            : LOCATION
SRVC.           : SERVICE COMPANY
DATE.  2018-06-09 11:12:04   : Log Export Date {yyyy-MM-dd HH:mm:ss}
PROV.           : PROVINCE
UWI.   3067   : UNIQUE WELL ID
API.            : API NUMBER
#==================================================================
~Curve
DEPT .m                   : DEPTH
DEN .g/cm3                : DEN
DT .us/ft                 : DT
DTS .us/ft                : DTS
GR .gAPI                  : GR
NPHI .m3/m3               : NPHI
DTS_i7 ._                 : DTS_i7
DTS_mlFilled ._           : DTS_mlFilled
LITHesa10 ._              : LITHesa10
LITHesa9_filtr ._         : LITHesa9_filtr
LITHesa9_i4 ._            : LITHesa9_i4
LITHesa9_i8 ._            : LITHesa9_i8
LITHesa9_i8i4 ._          : LITHesa9_i8i4
PHIE_i7 ._                : PHIE_i7
PHIE_i8 ._                : PHIE_i8
PHIE_i8i7 ._              : PHIE_i8i7
PHIE_mlfilled ._          : PHIE_mlfilled
PHIEed ._                 : PHIEed
RDEP ._                   : RDEP
RMED ._                   : RMED
~Parameter
#==================================================================
~Ascii
# ...
 2693.4140600 2.2337000370 89.460693359 173.42030334 49.399879456 0.2554999888 171.59684753 173.42030334 5868.0000000 5868.0000000 5868.0000000 5868.0000000 5868.0000000 0.2325700074 0.2326499969 0.2326499969 0.2312700003 0.2312700003 0.3269000053 0.3260999918
 2693.5664100 2.2376999855 89.763107300 173.35839844 50.917289734 0.2664000094 174.16450500 173.35839844 5868.0000000 5868.0000000 5868.0000000 5868.0000000 5868.0000000 0.2306700051 0.2427500039 0.2427500039 0.2277200073 0.2277200073 0.3264000118 0.3267999887
 2693.7187500 2.2516000271 89.679702759 169.88967896 53.649219513 0.2590000033 170.79510498 169.88967896  -999.250000  -999.250000 5868.0000000 5868.0000000 5868.0000000 0.2213200033 0.2222799957 0.2222799957 0.2180200070 0.2180200070 0.3311100006 0.3326100111
 2693.8710900 2.2730000019 89.309104919 168.30943298 57.002990723 0.2488999963 166.06016541 168.30941772 5868.0000000 5868.0000000 5868.0000000 5868.0000000 5868.0000000 0.2078700066 0.2086900026 0.2086900026 0.2035599947 0.2035599947 0.3412899971 0.3443900049
 2694.0236800 2.2881000042 88.260795593 166.60987854 59.929069519 0.2470999956 166.62977600 166.60987854 5868.0000000 5868.0000000 5868.0000000 5868.0000000 5868.0000000 0.1929399967 0.1907899976 0.1907899976 0.1922499985 0.1922499985 0.3599900007 0.3634899855
 2694.1760300 2.2932000160 88.060501099 164.99400330 62.259651184 0.2552999854 167.03182983 164.99400330 5868.0000000 5868.0000000 5868.0000000 5868.0000000 5868.0000000 0.1862899959 0.1911399961 0.1911399961 0.1863700002 0.1863700002 0.3849000037 0.3887999952
 2694.3283700 2.2973999977 88.084800720 163.64237976 65.010932922 0.2615000010 165.62406921 163.64237976 5868.0000000 5868.0000000 5868.0000000 5868.0000000 5868.0000000 0.1765899956 0.1885699928 0.1885699928 0.1809100062 0.1809100062 0.4133099914 0.4182099998
 2694.4807100 2.3051998615 88.267402649 162.85324097 68.710670471 0.2657999992 162.84521484 162.85322571  -999.250000  -999.250000 5868.0000000 5868.0000000 5868.0000000 0.1647399962 0.1833900064 0.1833900064 0.1736200005 0.1736200005 0.4444699883 0.4518699944
 2694.6333000 2.3355000019 87.767501831 161.18998718 71.954948425 0.2588999867 163.06790161 161.18998718 5868.0000000 5868.0000000 5868.0000000 5868.0000000 5868.0000000 0.1502099931 0.1534399986 0.1534399986 0.1540099978 0.1540099978 0.4794799984 0.4897800088
 2694.7856400 2.3771998882 87.476799011 159.91831970 73.239166260 0.2615999877 161.53839111 159.91831970 5868.0000000  -999.250000 5868.0000000 5868.0000000 5868.0000000 0.1316400021 0.1320099980 0.1320099980 0.1287200004 0.1287200004 0.5185999870 0.5299000144
 2694.9379900 2.3965001106 87.136993408 158.78846741 72.925987244 0.2632000148 160.65246582 158.78848267 5868.0000000  -999.250000 5868.0000000 5868.0000000 5868.0000000 0.1224199980 0.1281500012 0.1281500012 0.1172899976 0.1172899976 0.5564100146 0.5674099922
 2695.0903300 2.3703000546 86.741195679 158.77961731 72.117393494 0.2655000091 161.30371094 158.77961731 5868.0000000  -999.250000 5868.0000000 5868.0000000 5868.0000000 0.1246400028 0.1412799954 0.1412799954 0.1328999996 0.1328999996 0.5906699896 0.6019700170
 2695.2429200 2.3401000500 85.986198425 158.11470032 71.953102112 0.2572999895 160.90174866 158.11470032 5868.0000000 5868.0000000 5868.0000000 5868.0000000 5868.0000000 0.1520400047 0.1521400064 0.1521400064 0.1516900063 0.1516900063 0.6209800243 0.6326799989
 2695.3952600 2.3259999752 85.739295959 157.69679260 72.733520508 0.2400999963 159.27842712 157.69679260 5868.0000000 5868.0000000 5868.0000000 5868.0000000 5868.0000000 0.1635300070 0.1708499938 0.1708499938 0.1617899984 0.1617899984 0.6447899938 0.6565899849
 2695.5476100 2.3298997879 85.823799133 158.25289917 73.560668945 0.2345000058 159.79479980 158.25291443 5868.0000000 5868.0000000 5868.0000000 5868.0000000 5868.0000000 0.1620299965 0.1659400016 0.1659400016 0.1616899967 0.1616899967 0.6582999825 0.6680999994
 2695.6999500 2.3361999989 85.956001282 161.50920105 73.329940796 0.2213999927 161.41033936 161.50918579 5868.0000000 5868.0000000 5868.0000000 5868.0000000 5868.0000000 0.1607100070 0.1550399959 0.1550399959 0.1599200070 0.1599200070 0.6544899940 0.6629899740
 2695.8522900 2.3541998863 86.654197693 164.61610413 72.419662476 0.2105000019 162.92298889 164.61610413 5868.0000000  -999.250000 5868.0000000 5868.0000000 5868.0000000 0.1511500031 0.1521700025 0.1521700025 0.1509200037 0.1509200037 0.6349099874 0.6436100006
 2696.0048800 2.3619999886 87.923698425 167.03280640 72.137603760 0.2107000053 165.77952576 167.03280640 5868.0000000  -999.250000 5868.0000000 5868.0000000 5868.0000000 0.1466100067 0.1475799978 0.1475799978 0.1470600069 0.1470600069 0.6083099842 0.6153100133
 2696.1572300 2.3589999676 88.793899536 168.60459900 73.071517944 0.2192000002 167.42356873 168.60459900 5868.0000000  -999.250000 5868.0000000 5868.0000000 5868.0000000 0.1428699940 0.1490900069 0.1490900069 0.1487700045 0.1487700045 0.5816000104 0.5860000253
 2696.3095700 2.3190000057 90.036506653 170.53417969 74.738533020 0.2404000014 170.85226440 170.53417969 5868.0000000 5868.0000000 5868.0000000 5868.0000000 5868.0000000 0.1708800048 0.1728899926 0.1728899926 0.1712300032 0.1712300032 0.5579900146 0.5615900159
 2696.4619100 2.2853000164 90.409202576 171.07658386 74.822128296 0.2570999861 170.03155518 171.07658386 5868.0000000 5868.0000000 5868.0000000 5868.0000000 5868.0000000 0.1808400005 0.1871300042 0.1871300042 0.1899400055 0.1899400055 0.5371199846 0.5417199731
 2696.6145000 2.2904999256 90.603805542 171.54620361 73.269851685 0.2711000144 171.66622925 171.54620361 5868.0000000 5868.0000000 5868.0000000 5868.0000000 5868.0000000 0.1774699986 0.1888699979 0.1888699979 0.1866800040 0.1866800040 0.5187100172 0.5242099762
 2696.7668500 2.3236999512 89.720703125 172.87319946 71.391723633 0.2718999982 172.67282104 172.87319946 5868.0000000 5868.0000000 5868.0000000 5868.0000000 5868.0000000 0.1507699937 0.1672099978 0.1672099978 0.1678400040 0.1678400040 0.4991999865 0.5065000057
 2696.9191900 2.3201999664 89.922393799 175.16587830 70.718261719 0.2732000053 173.66415405 175.16587830 5868.0000000 5868.0000000 5868.0000000 5868.0000000 5868.0000000 0.1641000062 0.1708800048 0.1708800048 0.1705099940 0.1705099940 0.4797999859 0.4880000055
 2697.0715300 2.2843999863 90.212196350 175.97821045 70.956573486 0.2822999954 174.81564331 175.97819519 5868.0000000 5868.0000000 5868.0000000 5868.0000000 5868.0000000 0.1894100010 0.1925099939 0.1925099939 0.1920299977 0.1920299977 0.4625200033 0.4709199965
 2697.2241200 2.2544000149 90.805404663 175.78460693 71.408622742 0.2712999880 175.86738586 175.78460693 5868.0000000 5868.0000000 5868.0000000 5868.0000000 5868.0000000 0.2040300071 0.2146899998 0.2146899998 0.2104099989 0.2104099989 0.4523099959 0.4622099996
 2697.3764600 2.2591001987 90.026100159 170.42300415 72.815162659 0.2363000065 168.69560242 170.42300415 5868.0000000 5868.0000000 5868.0000000 5868.0000000 5868.0000000 0.2070599943 0.2207899988 0.2207899988 0.2087399960 0.2087399960 0.4575999975 0.4681000113
 2697.5288100 2.2781000137 89.307495117 167.59260559 74.225578308 0.1944999993 164.64318848 167.59260559 5868.0000000 5868.0000000 5868.0000000 5868.0000000 5868.0000000 0.2009799927 0.1847800016 0.1847800016 0.1983699948 0.1983699948 0.4810000062 0.4929000139
 2697.6811500 2.3196001053 88.029296875 164.73109436 74.066688538 0.1849000007 161.69041443 164.73109436 5868.0000000 5868.0000000 5868.0000000 5868.0000000 5868.0000000 0.1766200066 0.1734399945 0.1734399945 0.1744499952 0.1744499952 0.5152199864 0.5281199813
 2697.8335000 2.3801999092 86.515998840 160.88290405 72.240646362 0.2011999935 159.97843933 160.88290405 5868.0000000 5868.0000000 5868.0000000 5868.0000000 5868.0000000 0.1382299960 0.1409599930 0.1409599930 0.1391000003 0.1391000003 0.5539699793 0.5694699883
 2697.9860800 2.3988997936 84.843597412 155.88450623 70.194847107 0.2258999944 155.61567688 155.88450623 5868.0000000  -999.250000 5868.0000000 5868.0000000 5868.0000000 0.1324100047 0.1339599937 0.1339599937 0.1273300052 0.1273300052 0.5897899866 0.6083899736
