# LAS format log file from PETREL
# Project units are specified as depth units
#==================================================================
~Version information
VERS.   2.0:
WRAP.   NO:
#==================================================================
~Well
STRT .m      160.22121000 :
STOP .m      2263.6457500 :
STEP .m     0.00000000 :
NULL .        -999.250000 :
COMP.           : COMPANY
WELL.  16/7-10   : WELL
FLD.            : FIELD
LOC.            : LOCATION
SRVC.           : SERVICE COMPANY
DATE.  2018-06-09 11:12:05   : Log Export Date {yyyy-MM-dd HH:mm:ss}
PROV.           : PROVINCE
UWI.   6607   : UNIQUE WELL ID
API.            : API NUMBER
#==================================================================
~Curve
DEPT .m                   : DEPTH
DEN .g/cm3                : DEN
DT .us/ft                 : DT
DTS .us/ft                : DTS
GR .gAPI                  : GR
NPHI .m3/m3               : NPHI
DTS_i7 ._                 : DTS_i7
DTS_mlFilled ._           : DTS_mlFilled
LITHesa10 ._              : LITHesa10
LITHesa9_filtr ._         : LITHesa9_filtr
LITHesa9_i4 ._            : LITHesa9_i4
LITHesa9_i8 ._            : LITHesa9_i8
LITHesa9_i8i4 ._          : LITHesa9_i8i4
PHIE_i7 ._                : PHIE_i7
PHIE_i8 ._                : PHIE_i8
PHIE_i8i7 ._              : PHIE_i8i7
PHIE_mlfilled ._          : PHIE_mlfilled
PHIEed ._                 : PHIEed
RDEP ._                   : RDEP
RMED ._                   : RMED
~Parameter
#==================================================================
~Ascii
# ...
 1171.2426800 2.0546000004 143.55351257 358.01998901 109.78810120 0.5350000262 353.24594116 358.01998901 5891.0000000 5891.0000000 5891.0000000 5891.0000000 5891.0000000  -999.250000  -999.250000  -999.250000  -999.250000  -999.250000 1.2788000107 1.2877999544
 1171.3951400 2.0591001511 143.94740295 359.12594604 107.79969788 0.5317000151 356.98550415 359.12591553 5891.0000000 5891.0000000 5891.0000000 5891.0000000 5891.0000000  -999.250000  -999.250000  -999.250000  -999.250000  -999.250000 1.2996000051 1.3027000427
 1171.5474900 2.0648000240 143.95649719 359.68389893 104.83360291 0.5256000161 357.90420532 359.68389893 5891.0000000 5891.0000000 5891.0000000 5891.0000000 5891.0000000  -999.250000  -999.250000  -999.250000  -999.250000  -999.250000 1.3114000559 1.3122999668
 1171.6999500 2.0576000214 143.42269897 356.89419556 100.99490356 0.5084999800 355.57897949 356.89419556 5891.0000000 5891.0000000 5891.0000000 5891.0000000 5891.0000000  -999.250000  -999.250000  -999.250000  -999.250000  -999.250000 1.3147000074 1.3173999786
 1171.8522900 2.0498001575 142.42568970 352.14401245 101.30410004 0.5187000036 351.17834473 352.14401245 5891.0000000 5891.0000000 5891.0000000 5891.0000000 5891.0000000  -999.250000  -999.250000  -999.250000  -999.250000  -999.250000 1.3444000483 1.3496999741
 1172.0047600 2.0515999794 141.15989685 346.19659424 100.10880280 0.4690000117 345.48364258 346.19659424 5891.0000000 5891.0000000 5891.0000000 5891.0000000 5891.0000000  -999.250000  -999.250000  -999.250000  -999.250000  -999.250000 1.3838000298 1.3896000385
 1172.1571000 2.0636000633 140.48703003 342.25439453 101.77770233 0.4715000093 342.44775391 342.25439453 5891.0000000 5891.0000000 5891.0000000 5891.0000000 5891.0000000  -999.250000  -999.250000  -999.250000  -999.250000  -999.250000 1.3904000521 1.3980000019
 1172.3094500 2.0727000237 139.86790466 341.35839844 101.77330017 0.4524999857 339.86761475 341.35839844 5891.0000000 5891.0000000 5891.0000000 5891.0000000 5891.0000000  -999.250000  -999.250000  -999.250000  -999.250000  -999.250000 1.4029999971 1.4096000195
 1172.4619100 2.0680000782 138.89707947 338.81069946 102.48850250 0.4781000018 331.97006226 338.81069946 5891.0000000 5891.0000000 5891.0000000 5891.0000000 5891.0000000  -999.250000  -999.250000  -999.250000  -999.250000  -999.250000 1.4327000380 1.4405000210
 1172.6142600 2.0593998432 138.18505859 332.78930664 98.613197327 0.5008999705 331.15817261 332.78930664 5891.0000000 5891.0000000 5891.0000000 5891.0000000 5891.0000000  -999.250000  -999.250000  -999.250000  -999.250000  -999.250000 1.5044000149 1.5166000128
 1172.7667200 2.0492000580 137.45050049 331.09188843 96.010200500 0.5070000291 333.04510498 331.09188843 5891.0000000 5891.0000000 5891.0000000 5891.0000000 5891.0000000  -999.250000  -999.250000  -999.250000  -999.250000  -999.250000 1.4947999716 1.5010999441
 1172.9190700 2.0436000824 136.69538879 326.12753296 93.102897644 0.5059000254 325.41156006 326.12753296 5891.0000000 5891.0000000 5891.0000000 5891.0000000 5891.0000000  -999.250000  -999.250000  -999.250000  -999.250000  -999.250000 1.4917000532 1.5096000433
 1173.0715300 2.0350999832 135.76119995 325.66647339 89.501602173 0.4778000116 323.12951660 325.66650391 5891.0000000 5891.0000000 5891.0000000 5891.0000000 5891.0000000  -999.250000  -999.250000  -999.250000  -999.250000  -999.250000 1.5270999670 1.5361000299
 1173.2238800 2.0294001102 134.69235229 319.78039551 87.543899536 0.4754000008 322.29107666 319.78039551 5891.0000000 5891.0000000 5891.0000000 5891.0000000 5891.0000000  -999.250000  -999.250000  -999.250000  -999.250000  -999.250000 1.4912999868 1.4874000549
 1173.3763400 2.0256998539 133.89421082 317.30490112 86.360000610 0.4745999873 317.50231934 317.30490112 5891.0000000 5891.0000000 5891.0000000 5891.0000000 5891.0000000  -999.250000  -999.250000  -999.250000  -999.250000  -999.250000 1.5535000563 1.5642999411
 1173.5286900 2.0267000198 133.99520874 318.66778564 81.760398865 0.4873999953 320.81521606 318.66778564  -999.250000  -999.250000 5891.0000000 5891.0000000 5891.0000000  -999.250000  -999.250000  -999.250000  -999.250000  -999.250000 1.5528000593 1.5579999685
 1173.6811500 2.0200998783 134.37919617 318.56381226 80.544197083 0.5350000262 317.57150269 318.56381226  -999.250000  -999.250000 5891.0000000 5891.0000000 5891.0000000  -999.250000  -999.250000  -999.250000  -999.250000  -999.250000 1.5611000061 1.5577000380
 1173.8335000 2.0125999451 135.00939941 321.27780151 81.441398621 0.5738999844 323.66839600 321.27780151  -999.250000  -999.250000 5891.0000000 5891.0000000 5891.0000000  -999.250000  -999.250000  -999.250000  -999.250000  -999.250000 1.4989999533 1.5092999935
 1173.9859600 2.0062999725 136.52200317 320.17199707 88.510299683 0.5771999955 322.37265015 320.17199707 5891.0000000 5891.0000000 5891.0000000 5891.0000000 5891.0000000  -999.250000  -999.250000  -999.250000  -999.250000  -999.250000 1.5061999559 1.5133999586
 1174.1383100 2.0125999451 138.39720154 318.38336182 90.196701050 0.4997000098 326.03381348 318.38336182 5891.0000000 5891.0000000 5891.0000000 5891.0000000 5891.0000000  -999.250000  -999.250000  -999.250000  -999.250000  -999.250000 1.5506999493 1.5658999681
 1174.2906500 2.0226998329 139.36460876 319.96038818 93.971397400 0.4713999927 325.41424561 319.96038818 5891.0000000 5891.0000000 5891.0000000 5891.0000000 5891.0000000  -999.250000  -999.250000  -999.250000  -999.250000  -999.250000 1.5348999500 1.5413999557
 1174.4431200 2.0262000561 138.27816772 320.73141479 94.682403564 0.4630999863 325.71023560 320.73141479 5891.0000000 5891.0000000 5891.0000000 5891.0000000 5891.0000000  -999.250000  -999.250000  -999.250000  -999.250000  -999.250000 1.4981000423 1.5000000000
 1174.5954600 2.0274999142 136.30268860 320.94268799 96.566497803 0.4842999876 321.43276978 320.94268799 5891.0000000 5891.0000000 5891.0000000 5891.0000000 5891.0000000  -999.250000  -999.250000  -999.250000  -999.250000  -999.250000 1.4945000410 1.4991999865
 1174.7479200 2.0285999775 134.89179993 322.43908691 99.443000793 0.4835999906 323.10900879 322.43908691 5891.0000000 5891.0000000 5891.0000000 5891.0000000 5891.0000000  -999.250000  -999.250000  -999.250000  -999.250000  -999.250000 1.5183000565 1.5197999477
 1174.9002700 2.0371000767 134.84384155 322.46771240 102.36669922 0.4898999929 321.16375732 322.46771240 5891.0000000 5891.0000000 5891.0000000 5891.0000000 5891.0000000  -999.250000  -999.250000  -999.250000  -999.250000  -999.250000 1.5475000143 1.5512000322
 1175.0527300 2.0450999737 135.90422058 323.53530884 100.77770233 0.5151000023 323.83200073 323.53530884 5891.0000000 5891.0000000 5891.0000000 5891.0000000 5891.0000000  -999.250000  -999.250000  -999.250000  -999.250000  -999.250000 1.5384000540 1.5461000204
 1175.2050800 2.0496001244 136.83235168 324.32559204 101.62770081 0.5210000277 323.54977417 324.32559204 5891.0000000 5891.0000000 5891.0000000 5891.0000000 5891.0000000  -999.250000  -999.250000  -999.250000  -999.250000  -999.250000 1.5433000326 1.5420999527
 1175.3575400 2.0459001064 136.89709473 323.53741455 103.22750092 0.4963000119 323.55126953 323.53741455 5891.0000000 5891.0000000 5891.0000000 5891.0000000 5891.0000000  -999.250000  -999.250000  -999.250000  -999.250000  -999.250000 1.5453000069 1.5439000130
 1175.5098900 2.0415999889 136.41407776 321.98568726 106.04299927 0.5163999796 323.44329834 321.98568726 5891.0000000 5891.0000000 5891.0000000 5891.0000000 5891.0000000  -999.250000  -999.250000  -999.250000  -999.250000  -999.250000 1.5386999846 1.5378999710
 1175.6623500 2.0408000946 136.08149719 322.30203247 106.31199646 0.5113999844 323.46408081 322.30203247 5891.0000000 5891.0000000 5891.0000000 5891.0000000 5891.0000000  -999.250000  -999.250000  -999.250000  -999.250000  -999.250000 1.5321999788 1.5318000317
 1175.8147000 2.0436000824 136.35099792 325.44100952 103.02320099 0.5339000225 323.76782227 325.44100952 5891.0000000 5891.0000000 5891.0000000 5891.0000000 5891.0000000  -999.250000  -999.250000  -999.250000  -999.250000  -999.250000 1.5328999758 1.5357999802
