# LAS format log file from PETREL
# Project units are specified as depth units
#==================================================================
~Version information
VERS.   2.0:
WRAP.   NO:
#==================================================================
~Well
STRT .m      160.22121000 :
STOP .m      2263.6457500 :
STEP .m     0.00000000 :
NULL .        -999.250000 :
COMP.           : COMPANY
WELL.  16/7-10   : WELL
FLD.            : FIELD
LOC.            : LOCATION
SRVC.           : SERVICE COMPANY
DATE.  2018-06-09 11:12:05   : Log Export Date {yyyy-MM-dd HH:mm:ss}
PROV.           : PROVINCE
UWI.   6607   : UNIQUE WELL ID
API.            : API NUMBER
#==================================================================
~Curve
DEPT .m                   : DEPTH
DEN .g/cm3                : DEN
DT .us/ft                 : DT
DTS .us/ft                : DTS
GR .gAPI                  : GR
NPHI .m3/m3               : NPHI
DTS_i7 ._                 : DTS_i7
DTS_mlFilled ._           : DTS_mlFilled
LITHesa10 ._              : LITHesa10
LITHesa9_filtr ._         : LITHesa9_filtr
LITHesa9_i4 ._            : LITHesa9_i4
LITHesa9_i8 ._            : LITHesa9_i8
LITHesa9_i8i4 ._          : LITHesa9_i8i4
PHIE_i7 ._                : PHIE_i7
PHIE_i8 ._                : PHIE_i8
PHIE_i8i7 ._              : PHIE_i8i7
PHIE_mlfilled ._          : PHIE_mlfilled
PHIEed ._                 : PHIEed
RDEP ._                   : RDEP
RMED ._                   : RMED
~Parameter
#==================================================================
~Ascii
# ...
 1946.0441900 2.1858000755 137.55279541 392.08053589 63.744400024 0.4810000062 392.41555786 392.08053589  -999.250000  -999.250000 5891.0000000 5891.0000000 5891.0000000  -999.250000  -999.250000  -999.250000  -999.250000  -999.250000 0.4618000090 0.4550999999
 1946.1965300 2.2084999084 137.54660034 400.22387695 60.530998230 0.4982999861 398.03488159 400.22384644  -999.250000  -999.250000 5891.0000000 5891.0000000 5891.0000000  -999.250000  -999.250000  -999.250000  -999.250000  -999.250000 0.4546000063 0.4458999932
 1946.3490000 2.1843998432 137.00492859 416.47219849 61.596599579 0.4598999918 404.34365845 416.47219849  -999.250000  -999.250000 5891.0000000 5891.0000000 5891.0000000  -999.250000  -999.250000  -999.250000  -999.250000  -999.250000 0.4580000043 0.4476000071
 1946.5013400 2.1521000862 136.60331726 421.47113037 57.556301117 0.4472000003 415.03372192 421.47113037  -999.250000  -999.250000 5891.0000000 5891.0000000 5891.0000000  -999.250000  -999.250000  -999.250000  -999.250000  -999.250000 0.4607999921 0.4442000091
 1946.6536900 2.1376001835 136.44964600 420.83462524 56.683200836 0.4648999870 418.00100708 420.83462524 5860.0000000  -999.250000 5891.0000000 5891.0000000 5891.0000000  -999.250000  -999.250000  -999.250000  -999.250000  -999.250000 0.4492000043 0.4395999908
 1946.8061500 2.1376001835 136.37345886 410.95639038 60.939701080 0.5062000155 409.10418701 410.95639038  -999.250000  -999.250000 5891.0000000 5891.0000000 5891.0000000  -999.250000  -999.250000  -999.250000  -999.250000  -999.250000 0.4381000102 0.4393000007
 1946.9585000 2.1370000839 137.36181641 398.03042603 59.248100281 0.4948000014 402.71459961 398.03042603 5860.0000000  -999.250000 5891.0000000 5891.0000000 5891.0000000  -999.250000  -999.250000  -999.250000  -999.250000  -999.250000 0.4291000068 0.4325000048
 1947.1109600 2.0946002007 141.76467896 364.03485107 61.238700867 0.5108000040 386.24926758 364.03485107  -999.250000  -999.250000 5891.0000000 5891.0000000 5891.0000000  -999.250000  -999.250000  -999.250000  -999.250000  -999.250000 0.4573999941 0.4589000046
 1947.2633100 2.1336998940 146.04154968 339.80722046 56.806900024 0.5124999881 360.52957153 339.80722046  -999.250000  -999.250000 5891.0000000 5891.0000000 5891.0000000  -999.250000  -999.250000  -999.250000  -999.250000  -999.250000 0.6424999833 0.5952000022
 1947.4157700 2.2886998653 148.63192749 333.48492432 52.612998962 0.4799999893 336.51052856 333.48492432 5860.0000000  -999.250000 5891.0000000 5891.0000000 5891.0000000  -999.250000  -999.250000  -999.250000  -999.250000  -999.250000 0.6424999833 0.5952000022
 1947.5681200 2.2448999882 152.33082581 325.35113525 45.407100677 0.4097999930 329.18661499 325.35113525 5860.0000000  -999.250000 5891.0000000 5891.0000000 5891.0000000  -999.250000  -999.250000  -999.250000  -999.250000  -999.250000 1.1597000360 1.1433999538
 1947.7205800 2.0506000519 151.48548889 337.57550049 38.487400055 0.4241999984 330.88473511 337.57550049 5860.0000000  -999.250000 5891.0000000 5891.0000000 5891.0000000  -999.250000  -999.250000  -999.250000  -999.250000  -999.250000 0.5253000259 0.5490000248
 1947.8729200 1.7813999653 141.54656982 391.15814209 40.717498779 0.5263000131 396.07559204 391.15814209 5860.0000000  -999.250000 5891.0000000 5891.0000000 5891.0000000  -999.250000  -999.250000  -999.250000  -999.250000  -999.250000 0.4047999978 0.4203999937
 1948.0253900 1.8131999969 141.17138672 400.14984131 50.395198822 0.5654000044 403.80819702 400.14984131 5860.0000000  -999.250000 5891.0000000 5891.0000000 5891.0000000  -999.250000  -999.250000  -999.250000  -999.250000  -999.250000 0.4239000082 0.4390000105
 1948.1777300 1.9821999073 144.68698120 405.39608765 55.736598969 0.5713000298 400.92828369 405.39608765 5860.0000000  -999.250000 5891.0000000 5891.0000000 5891.0000000  -999.250000  -999.250000  -999.250000  -999.250000  -999.250000 0.5159999728 0.5054000020
 1948.3302000 2.0882999897 140.03053284 376.54833984 57.013500214 0.5133000016 371.27868652 376.54833984 5860.0000000  -999.250000 5891.0000000 5891.0000000 5891.0000000  -999.250000  -999.250000  -999.250000  -999.250000  -999.250000 0.7491000295 0.6434000134
 1948.4825400 2.1013998985 138.49992371 386.42623901 53.935699463 0.5019000173 380.57147217 386.42626953 5860.0000000  -999.250000 5891.0000000 5891.0000000 5891.0000000  -999.250000  -999.250000  -999.250000  -999.250000  -999.250000 0.9850999713 0.8360999823
 1948.6348900 2.0641000271 138.66354370 399.90567017 50.074298859 0.4763000011 387.63510132 399.90570068 5860.0000000  -999.250000 5891.0000000 5891.0000000 5891.0000000  -999.250000  -999.250000  -999.250000  -999.250000  -999.250000 0.9850999713 0.8360999823
 1948.7873500 2.0378000736 138.77731323 378.76541138 53.272399902 0.4629999995 383.71350098 378.76541138 5860.0000000  -999.250000 5891.0000000 5891.0000000 5891.0000000  -999.250000  -999.250000  -999.250000  -999.250000  -999.250000 0.7246000171 0.6700000167
 1948.9397000 1.9829000235 139.08601379 374.60656738 52.579498291 0.4862999916 386.22335815 374.60656738 5860.0000000  -999.250000 5891.0000000 5891.0000000 5891.0000000  -999.250000  -999.250000  -999.250000  -999.250000  -999.250000 0.4007000029 0.4025000036
 1949.0921600 1.8963000774 140.34199524 388.30081177 58.566699982 0.5228999853 397.84332275 388.30081177 5860.0000000  -999.250000 5891.0000000 5891.0000000 5891.0000000  -999.250000  -999.250000  -999.250000  -999.250000  -999.250000 0.4007000029 0.4025000036
 1949.2445100 1.8791999817 140.71130371 415.84066772 60.829399109 0.5611000061 406.77621460 415.84066772  -999.250000  -999.250000 5891.0000000 5891.0000000 5891.0000000  -999.250000  -999.250000  -999.250000  -999.250000  -999.250000 0.4332000017 0.4255999923
 1949.3969700 1.9611999989 140.01316833 438.84680176 63.208198547 0.5331000090 422.77267456 438.84680176  -999.250000  -999.250000 5891.0000000 5891.0000000 5891.0000000  -999.250000  -999.250000  -999.250000  -999.250000  -999.250000 0.4523000121 0.4467999935
 1949.5493200 2.0478000641 139.29608154 435.15905762 65.659500122 0.5058000088 424.34338379 435.15905762  -999.250000  -999.250000 5891.0000000 5891.0000000 5891.0000000  -999.250000  -999.250000  -999.250000  -999.250000  -999.250000 0.4093999863 0.4187000096
 1949.7017800 2.0627999306 138.31988525 424.24432373 64.286697388 0.4794000089 409.02081299 424.24432373  -999.250000  -999.250000 5891.0000000 5891.0000000 5891.0000000  -999.250000  -999.250000  -999.250000  -999.250000  -999.250000 0.4650000036 0.4205000103
 1949.8541300 2.0462999344 134.69990540 383.24160767 62.987400055 0.5575000048 380.05703735 383.24160767  -999.250000  -999.250000 5891.0000000 5891.0000000 5891.0000000  -999.250000  -999.250000  -999.250000  -999.250000  -999.250000 0.4981000125 0.4539999962
 1950.0065900 2.1243000031 126.27853394 315.46118164 61.694698334 0.5475999713 325.12326050 315.46118164  -999.250000  -999.250000 5891.0000000 5891.0000000 5891.0000000  -999.250000  -999.250000  -999.250000  -999.250000  -999.250000 0.4797999859 0.4580999911
 1950.1589400 2.1554999352 116.32487488 247.65922546 52.377899170 0.5049999952 294.85278320 247.65922546 5868.0000000  -999.250000 5891.0000000 5891.0000000 5891.0000000  -999.250000  -999.250000  -999.250000  -999.250000  -999.250000 0.4517999887 0.4435000122
 1950.3114000 2.1506001949 109.10777283 229.85052490 41.419200897 0.3754000068 228.70788574 229.85052490 5868.0000000 5868.0000000 5891.0000000 5868.0000000 5868.0000000  -999.250000  -999.250000  -999.250000  -999.250000  -999.250000 0.4471000135 0.4429000020
 1950.4637500 2.0669999123 105.12248993 222.06314087 31.394699097 0.3280000091 220.87576294 222.06314087 5868.0000000 5868.0000000 5868.0000000 5868.0000000 5868.0000000  -999.250000  -999.250000  -999.250000  -999.250000  -999.250000 0.4456000030 0.4386000037
 1950.6160900 2.0536000729 105.12168884 218.86801147 26.942899704 0.3425000012 219.63162231 218.86801147 5868.0000000 5868.0000000 5868.0000000 5868.0000000 5868.0000000  -999.250000  -999.250000  -999.250000  -999.250000  -999.250000 0.4474000037 0.4402000010
