# LAS format log file from PETREL
# Project units are specified as depth units
#==================================================================
~Version information
VERS.   2.0:
WRAP.   NO:
#==================================================================
~Well
STRT .m      160.22121000 :
STOP .m      2263.6457500 :
STEP .m     0.00000000 :
NULL .        -999.250000 :
COMP.           : COMPANY
WELL.  16/7-10   : WELL
FLD.            : FIELD
LOC.            : LOCATION
SRVC.           : SERVICE COMPANY
DATE.  2018-06-09 11:12:05   : Log Export Date {yyyy-MM-dd HH:mm:ss}
PROV.           : PROVINCE
UWI.   6607   : UNIQUE WELL ID
API.            : API NUMBER
#==================================================================
~Curve
DEPT .m                   : DEPTH
DEN .g/cm3                : DEN
DT .us/ft                 : DT
DTS .us/ft                : DTS
GR .gAPI                  : GR
NPHI .m3/m3               : NPHI
DTS_i7 ._                 : DTS_i7
DTS_mlFilled ._           : DTS_mlFilled
LITHesa10 ._              : LITHesa10
LITHesa9_filtr ._         : LITHesa9_filtr
LITHesa9_i4 ._            : LITHesa9_i4
LITHesa9_i8 ._            : LITHesa9_i8
LITHesa9_i8i4 ._          : LITHesa9_i8i4
PHIE_i7 ._                : PHIE_i7
PHIE_i8 ._                : PHIE_i8
PHIE_i8i7 ._              : PHIE_i8i7
PHIE_mlfilled ._          : PHIE_mlfilled
PHIEed ._                 : PHIEed
RDEP ._                   : RDEP
RMED ._                   : RMED
~Parameter
#==================================================================
~Ascii
# ...
 1615.3361800 2.0759999752 134.68780518 305.21411133 69.507896423 0.4356000125 309.10943604 305.21411133 5860.0000000  -999.250000 5891.0000000 5891.0000000 5891.0000000  -999.250000  -999.250000  -999.250000  -999.250000  -999.250000 0.9280999899 0.9287999868
 1615.4886500 2.0875000954 134.53112793 305.51742554 68.603401184 0.4463999867 311.49478149 305.51739502 5860.0000000  -999.250000 5891.0000000 5891.0000000 5891.0000000  -999.250000  -999.250000  -999.250000  -999.250000  -999.250000 0.8992000222 0.9067999721
 1615.6409900 2.1073000431 135.10504150 306.86801147 68.448898315 0.4338000119 309.05010986 306.86801147 5860.0000000  -999.250000 5891.0000000 5891.0000000 5891.0000000  -999.250000  -999.250000  -999.250000  -999.250000  -999.250000 0.8755000234 0.8805999756
 1615.7934600 2.1229999065 136.05603027 313.17279053 69.753997803 0.4397999942 316.28762817 313.17279053 5860.0000000  -999.250000 5891.0000000 5891.0000000 5891.0000000  -999.250000  -999.250000  -999.250000  -999.250000  -999.250000 0.8640999794 0.8705999851
 1615.9458000 2.1293001175 137.00314331 323.04031372 74.997200012 0.4365000129 325.67556763 323.04031372 5860.0000000  -999.250000 5891.0000000 5891.0000000 5891.0000000  -999.250000  -999.250000  -999.250000  -999.250000  -999.250000 0.8564000130 0.8668000102
 1616.0982700 2.1268999577 138.04235840 329.82962036 74.934700012 0.4282999933 329.20437622 329.82962036 5860.0000000  -999.250000 5891.0000000 5891.0000000 5891.0000000  -999.250000  -999.250000  -999.250000  -999.250000  -999.250000 0.8410999775 0.8449000120
 1616.2506100 2.1268000603 138.82687378 331.29522705 75.751602173 0.4250000119 328.64617920 331.29522705  -999.250000  -999.250000 5891.0000000 5891.0000000 5891.0000000  -999.250000  -999.250000  -999.250000  -999.250000  -999.250000 0.8496000171 0.8499000072
 1616.4030800 2.1364998817 139.15454102 326.28549194 73.889602661 0.4348999858 328.04022217 326.28549194  -999.250000  -999.250000 5891.0000000 5891.0000000 5891.0000000  -999.250000  -999.250000  -999.250000  -999.250000  -999.250000 0.8619999886 0.8604999781
 1616.5554200 2.1471002102 139.54597473 326.23489380 76.324996948 0.4578999877 331.04440308 326.23489380  -999.250000  -999.250000 5891.0000000 5891.0000000 5891.0000000  -999.250000  -999.250000  -999.250000  -999.250000  -999.250000 0.8452000022 0.8518000245
 1616.7078900 2.1503999233 139.45358276 333.72711182 77.615997314 0.4541999996 335.11843872 333.72711182  -999.250000  -999.250000 5891.0000000 5891.0000000 5891.0000000  -999.250000  -999.250000  -999.250000  -999.250000  -999.250000 0.8122000098 0.8222000003
 1616.8602300 2.1419999599 139.04353333 342.18411255 77.684196472 0.4320000112 339.88424683 342.18411255  -999.250000  -999.250000 5891.0000000 5891.0000000 5891.0000000  -999.250000  -999.250000  -999.250000  -999.250000  -999.250000 0.8713999987 0.8792999983
 1617.0125700 2.1326999664 138.18208313 339.45581055 76.226997375 0.4214000106 331.53106689 339.45581055  -999.250000  -999.250000 5891.0000000 5891.0000000 5891.0000000  -999.250000  -999.250000  -999.250000  -999.250000  -999.250000 0.9045000076 0.9197000265
 1617.1650400 2.1311998367 135.60435486 336.56311035 75.510803223 0.4144999981 332.85223389 336.56311035  -999.250000  -999.250000 5891.0000000 5891.0000000 5891.0000000  -999.250000  -999.250000  -999.250000  -999.250000  -999.250000 0.8342999816 0.8500999808
 1617.3173800 2.1315000057 135.49258423 334.21069336 78.626403809 0.4153000116 330.97921753 334.21069336  -999.250000  -999.250000 5891.0000000 5891.0000000 5891.0000000  -999.250000  -999.250000  -999.250000  -999.250000  -999.250000 0.8130000234 0.8256999850
 1617.4698500 2.1198999882 139.15386963 334.93218994 78.602897644 0.4239999950 336.83630371 334.93218994  -999.250000  -999.250000 5891.0000000 5891.0000000 5891.0000000  -999.250000  -999.250000  -999.250000  -999.250000  -999.250000 0.7972999811 0.8167999983
 1617.6221900 2.1022000313 140.77610779 336.93838501 78.560401917 0.4542999864 338.33489990 336.93838501  -999.250000  -999.250000 5891.0000000 5891.0000000 5891.0000000  -999.250000  -999.250000  -999.250000  -999.250000  -999.250000 0.8356999755 0.8522999883
 1617.7746600 2.0861999989 139.28330994 330.77389526 70.856002808 0.4568000138 329.76431274 330.77389526  -999.250000  -999.250000 5891.0000000 5891.0000000 5891.0000000  -999.250000  -999.250000  -999.250000  -999.250000  -999.250000 0.9143000245 0.9164000154
 1617.9270000 2.0793001652 137.22804260 314.12811279 70.960403442 0.4264000058 315.91952515 314.12811279 5860.0000000 5860.0000000 5891.0000000 5860.0000000 5860.0000000  -999.250000  -999.250000  -999.250000  -999.250000  -999.250000 0.9395999908 0.9352999926
 1618.0794700 2.0827000141 135.94902039 307.43630981 73.738899231 0.3975000083 311.19467163 307.43630981  -999.250000  -999.250000 5891.0000000 5891.0000000 5891.0000000  -999.250000  -999.250000  -999.250000  -999.250000  -999.250000 0.9412999749 0.9383999705
 1618.2318100 2.0982999802 135.71208191 307.44479370 75.040901184 0.4115999937 315.57424927 307.44479370  -999.250000  -999.250000 5891.0000000 5891.0000000 5891.0000000  -999.250000  -999.250000  -999.250000  -999.250000  -999.250000 0.9255999923 0.9265000224
 1618.3842800 2.1146998405 136.07231140 312.55288696 76.786003113 0.4269999862 314.70471191 312.55288696  -999.250000  -999.250000 5891.0000000 5891.0000000 5891.0000000  -999.250000  -999.250000  -999.250000  -999.250000  -999.250000 0.8804000020 0.8837000132
 1618.5366200 2.1201000214 136.51025391 318.05081177 77.010696411 0.4817000031 321.15707397 318.05081177  -999.250000  -999.250000 5891.0000000 5891.0000000 5891.0000000  -999.250000  -999.250000  -999.250000  -999.250000  -999.250000 0.8535000086 0.8610000014
 1618.6890900 2.1147999763 136.95594788 321.63531494 80.125503540 0.5002999902 325.55392456 321.63531494  -999.250000  -999.250000 5891.0000000 5891.0000000 5891.0000000  -999.250000  -999.250000  -999.250000  -999.250000  -999.250000 0.8449000120 0.8521000147
 1618.8414300 2.1058998108 137.16833496 322.45129395 79.990402222 0.5126000047 322.67355347 322.45129395  -999.250000  -999.250000 5891.0000000 5891.0000000 5891.0000000  -999.250000  -999.250000  -999.250000  -999.250000  -999.250000 0.8600999713 0.8629000187
 1618.9937700 2.0993001461 136.94146729 319.10879517 79.168502808 0.4648000002 318.37777710 319.10879517  -999.250000  -999.250000 5891.0000000 5891.0000000 5891.0000000  -999.250000  -999.250000  -999.250000  -999.250000  -999.250000 0.8896999955 0.8860999942
 1619.1462400 2.0966999531 136.68341064 314.83959961 76.504402161 0.4702999890 314.22238159 314.83959961  -999.250000  -999.250000 5891.0000000 5891.0000000 5891.0000000  -999.250000  -999.250000  -999.250000  -999.250000  -999.250000 0.8907999992 0.8921999931
 1619.2985800 2.1011002064 136.48352051 312.84790039 75.108001709 0.4828999937 316.21688843 312.84790039  -999.250000  -999.250000 5891.0000000 5891.0000000 5891.0000000  -999.250000  -999.250000  -999.250000  -999.250000  -999.250000 0.9028000236 0.9023000002
 1619.4510500 2.1073999405 136.45552063 312.32458496 74.888702393 0.4943000078 316.43740845 312.32458496  -999.250000  -999.250000 5891.0000000 5891.0000000 5891.0000000  -999.250000  -999.250000  -999.250000  -999.250000  -999.250000 0.8902000189 0.8963999748
 1619.6033900 2.1112999916 136.65917969 316.63400269 76.931098938 0.4817000031 322.08807373 316.63400269  -999.250000  -999.250000 5891.0000000 5891.0000000 5891.0000000  -999.250000  -999.250000  -999.250000  -999.250000  -999.250000 0.8661000133 0.8715999722
 1619.7558600 2.1108999252 136.95706177 321.81610107 77.853103638 0.4916999936 323.95199585 321.81610107  -999.250000  -999.250000 5891.0000000 5891.0000000 5891.0000000  -999.250000  -999.250000  -999.250000  -999.250000  -999.250000 0.8562999964 0.8604999781
 1619.9082000 2.1087000370 137.39645386 326.28439331 78.672401428 0.5145000219 325.70761108 326.28439331  -999.250000  -999.250000 5891.0000000 5891.0000000 5891.0000000  -999.250000  -999.250000  -999.250000  -999.250000  -999.250000 0.8632000089 0.8641999960
