# LAS format log file from PETREL
# Project units are specified as depth units
#==================================================================
~Version information
VERS.   2.0:
WRAP.   NO:
#==================================================================
~Well
STRT .m      1110.7399900 :
STOP .m      2724.9606900 :
STEP .m     0.00000000 :
NULL .        -999.250000 :
COMP.           : COMPANY
WELL.  16/7-6   : WELL
FLD.            : FIELD
LOC.            : LOCATION
SRVC.           : SERVICE COMPANY
DATE.  2018-06-09 11:12:04   : Log Export Date {yyyy-MM-dd HH:mm:ss}
PROV.           : PROVINCE
UWI.   3067   : UNIQUE WELL ID
API.            : API NUMBER
#==================================================================
~Curve
DEPT .m                   : DEPTH
DEN .g/cm3                : DEN
DT .us/ft                 : DT
DTS .us/ft                : DTS
GR .gAPI                  : GR
NPHI .m3/m3               : NPHI
DTS_i7 ._                 : DTS_i7
DTS_mlFilled ._           : DTS_mlFilled
LITHesa10 ._              : LITHesa10
LITHesa9_filtr ._         : LITHesa9_filtr
LITHesa9_i4 ._            : LITHesa9_i4
LITHesa9_i8 ._            : LITHesa9_i8
LITHesa9_i8i4 ._          : LITHesa9_i8i4
PHIE_i7 ._                : PHIE_i7
PHIE_i8 ._                : PHIE_i8
PHIE_i8i7 ._              : PHIE_i8i7
PHIE_mlfilled ._          : PHIE_mlfilled
PHIEed ._                 : PHIEed
RDEP ._                   : RDEP
RMED ._                   : RMED
~Parameter
#==================================================================
~Ascii
# ...
 1427.2747800 2.2598998547 138.91870117 394.51760864 104.63700104 0.4487999976 388.83993530 394.51760864 5891.0000000 5891.0000000 5891.0000000 5891.0000000 5891.0000000 0.0587899983 0.0639199987 0.0639199987 0.0000000000  -999.250000 0.9984999895 0.9696999788
 1427.4272500 2.2316999435 139.42359924 394.38220215 107.77929688 0.4900000095 394.74554443 394.38220215 5891.0000000 5891.0000000 5891.0000000 5891.0000000 5891.0000000 0.0678000003 0.0398500003 0.0398500003 0.0000000000  -999.250000 1.0052100420 0.9765099883
 1427.5795900 2.2076001167 139.37399292 394.70538330 110.70320129 0.4920000136 395.64685059 394.70538330 5891.0000000 5891.0000000 5891.0000000 5891.0000000 5891.0000000 0.0584799983 0.0309200007 0.0309200007 0.0000000000  -999.250000 1.0135999918 0.9848999977
 1427.7320600 2.1926999092 139.02549744 397.22460938 111.73529816 0.4839000106 397.44113159 397.22460938 5891.0000000 5891.0000000 5891.0000000 5891.0000000 5891.0000000 0.0580199994 0.0369100012 0.0369100012 0.0000000000  -999.250000 1.0224100351 0.9939100146
 1427.8844000 2.1903998852 139.62570190 400.03387451 112.13330078 0.4819000065 397.00454712 400.03387451 5891.0000000 5891.0000000 5891.0000000 5891.0000000 5891.0000000 0.0585800000 0.0368699990 0.0368699990 0.0000000000  -999.250000 1.0325100422 1.0027099848
 1428.0367400 2.1821000576 141.23120117 403.02639771 112.46620178 0.4772000015 400.91070557 403.02639771 5891.0000000 5891.0000000 5891.0000000 5891.0000000 5891.0000000 0.0644399971 0.0317800008 0.0317800008 0.0000000000  -999.250000 1.0379999876 1.0085999966
 1428.1892100 2.1823000908 140.14790344 402.79058838 113.19689941 0.4921000004 401.01736450 402.79058838 5891.0000000 5891.0000000 5891.0000000 5891.0000000 5891.0000000 0.0690900013 0.0351900011 0.0351900011 0.0000000000  -999.250000 1.0369999409 1.0109000206
 1428.3415500 2.1818997860 140.27569580 402.58285522 114.85820007 0.4758999944 401.86407471 402.58285522 5891.0000000 5891.0000000 5891.0000000 5891.0000000 5891.0000000 0.0601699986 0.0327799991 0.0327799991 0.0000000000  -999.250000 1.0357999802 1.0125999451
 1428.4940200 2.1881000996 140.18139648 404.78778076 116.54900360 0.4794999957 402.66870117 404.78778076 5891.0000000 5891.0000000 5891.0000000 5891.0000000 5891.0000000 0.0627499968 0.0306199994 0.0306199994 0.0000000000  -999.250000 1.0358999968 1.0139000416
 1428.6463600 2.1907999516 139.34201050 401.19061279 116.47350311 0.4230000079 396.23406982 401.19061279 5891.0000000 5891.0000000 5891.0000000 5891.0000000 5891.0000000 0.0509099998 0.0318100005 0.0318100005 0.0000000000  -999.250000 1.0327899456 1.0091899633
 1428.7988300 2.1976001263 140.10870361 396.24780273 114.53679657 0.3914000094 392.59039307 396.24780273 5891.0000000 5891.0000000 5891.0000000 5891.0000000 5891.0000000 0.0618799999 0.0357900001 0.0357900001 0.0000000000  -999.250000 1.0228899717 0.9970899820
 1428.9511700 2.1974999905 140.57859802 392.22451782 112.82540131 0.3961000144 390.93804932 392.22451782 5891.0000000 5891.0000000 5891.0000000 5891.0000000 5891.0000000 0.0723799989 0.0369100012 0.0369100012 0.0000000000  -999.250000 1.0096999407 0.9832000136
 1429.1036400 2.1896998882 139.63481140 388.22808838 112.44599915 0.4435000122 391.04559326 388.22808838 5891.0000000 5891.0000000 5891.0000000 5891.0000000 5891.0000000 0.0509699993 0.0350200012 0.0350200012 0.0000000000  -999.250000 0.9987000227 0.9726999998
 1429.2559800 2.1872999668 140.46290588 387.31890869 111.30789948 0.4889999926 391.07376099 387.31890869 5891.0000000 5891.0000000 5891.0000000 5891.0000000 5891.0000000 0.0678599998 0.0319200009 0.0319200009 0.0000000000  -999.250000 0.9940000176 0.9678999782
 1429.4084500 2.1977000237 140.51460266 387.49844360 107.47709656 0.4298000038 389.13674927 387.49844360 5891.0000000 5891.0000000 5891.0000000 5891.0000000 5891.0000000 0.0522300005 0.0343200006 0.0343200006 0.0000000000  -999.250000 0.9952999949 0.9672999978
 1429.5607900 2.2202999592 139.61599731 389.97979736 102.81839752 0.4350000024 389.34497070 389.97979736 5891.0000000 5891.0000000 5891.0000000 5891.0000000 5891.0000000 0.0463300012 0.0370600000 0.0370600000 0.0000000000  -999.250000 0.9969999790 0.9672999978
 1429.7132600 2.2418999672 138.95761108 390.23086548 100.77580261 0.3865000010 391.82003784 390.23086548 5891.0000000 5891.0000000 5891.0000000 5891.0000000 5891.0000000 0.0662999973 0.0350099988 0.0350099988 0.0000000000  -999.250000 0.9955899715 0.9641900063
 1429.8656000 2.2532000542 138.83039856 393.64190674 102.89610291 0.4435000122 392.21240234 393.64190674 5891.0000000 5891.0000000 5891.0000000 5891.0000000 5891.0000000 0.0589700006 0.0602700002 0.0602700002 0.0000000000  -999.250000 0.9897900224 0.9573900104
 1430.0179400 2.2393000126 138.32247925 400.99218750 106.82099915 0.4512000084 399.59710693 400.99218750 5891.0000000 5891.0000000 5891.0000000 5891.0000000 5891.0000000 0.0549799986 0.0368900001 0.0368900001 0.0000000000  -999.250000 0.9817900062 0.9486899972
 1430.1704100 2.2178001404 138.28570557 405.77938843 109.18379974 0.4420999885 401.44821167 405.77938843 5891.0000000 5891.0000000 5891.0000000 5891.0000000 5891.0000000 0.0442899987 0.0334299989 0.0334299989 0.0000000000  -999.250000 0.9740899801 0.9403899908
 1430.3227500 2.2188000679 138.85350037 408.41156006 108.88330078 0.4061999917 405.37118530 408.41156006 5891.0000000 5891.0000000 5891.0000000 5891.0000000 5891.0000000 0.0579200014 0.0418299995 0.0418299995 0.0000000000  -999.250000 0.9674999714 0.9338999987
 1430.4752200 2.2302999496 138.76539612 413.57348633 106.43009949 0.3910999894 407.00387573 413.57348633 5891.0000000 5891.0000000 5891.0000000 5891.0000000 5891.0000000 0.0558700003 0.0421099998 0.0421099998 0.0000000000  -999.250000 0.9615899920 0.9282900095
 1430.6275600 2.2351000309 138.16799927 416.65939331 105.32099915 0.3777999878 405.94003296 416.65939331 5891.0000000 5891.0000000 5891.0000000 5891.0000000 5891.0000000 0.0702700019 0.0457799993 0.0457799993 0.0000000000  -999.250000 0.9564999938 0.9232000113
 1430.7800300 2.2246000767 139.79229736 414.49902344 106.84380341 0.4113000035 406.70965576 414.49902344 5891.0000000 5891.0000000 5891.0000000 5891.0000000 5891.0000000 0.0636600032 0.0375799984 0.0375799984 0.0000000000  -999.250000 0.9513999820 0.9178900123
 1430.9323700 2.2202999592 140.15519714 406.11099243 110.01920319 0.4596000016 402.30969238 406.11099243 5891.0000000 5891.0000000 5891.0000000 5891.0000000 5891.0000000 0.0668900013 0.0300799999 0.0300799999 0.0000000000  -999.250000 0.9463999867 0.9113000035
 1431.0848400 2.2084000111 140.92689514 399.71646118 112.70400238 0.4717999995 399.19125366 399.71646118 5891.0000000 5891.0000000 5891.0000000 5891.0000000 5891.0000000 0.0604999997 0.0330899991 0.0330899991 0.0000000000  -999.250000 0.9434999824 0.9045000076
 1431.2371800 2.2037999630 141.47920227 401.08300781 112.96060181 0.4643999934 400.28625488 401.08300781 5891.0000000 5891.0000000 5891.0000000 5891.0000000 5891.0000000 0.0615600012 0.0341399983 0.0341399983 0.0000000000  -999.250000 0.9459999800 0.9036099911
 1431.3896500 2.1996998787 136.10270691 400.59863281 111.60030365 0.4395999908 397.03817749 400.59863281 5891.0000000 5891.0000000 5891.0000000 5891.0000000 5891.0000000 0.0553999990 0.0353100002 0.0353100002 0.0000000000  -999.250000 0.9524099827 0.9107099771
 1431.5419900 2.2178997993 136.64460754 403.02661133 108.96890259 0.3928999901 403.16632080 403.02661133 5891.0000000 5891.0000000 5891.0000000 5891.0000000 5891.0000000 0.0445300005 0.0344399996 0.0344399996 0.0000000000  -999.250000 0.9616100192 0.9222099781
 1431.6944600 2.2591998577 134.93049622 407.36318970 106.81400299 0.3849999905 403.42251587 407.36318970 5891.0000000 5891.0000000 5891.0000000 5891.0000000 5891.0000000 0.0499400012 0.0464200005 0.0464200005 0.0000000000  -999.250000 0.9733999968 0.9344000220
 1431.8468000 2.2921998501 136.42909241 413.92218018 106.63970184 0.3711000085 398.56533813 413.92218018 5891.0000000 5891.0000000 5891.0000000 5891.0000000 5891.0000000 0.0542199984 0.0416399986 0.0416399986 0.0000000000  -999.250000 0.9745900035 0.9380900264
