# LAS format log file from PETREL
# Project units are specified as depth units
#==================================================================
~Version information
VERS.   2.0:
WRAP.   NO:
#==================================================================
~Well
STRT .m      1110.7399900 :
STOP .m      2724.9606900 :
STEP .m     0.00000000 :
NULL .        -999.250000 :
COMP.           : COMPANY
WELL.  16/7-6   : WELL
FLD.            : FIELD
LOC.            : LOCATION
SRVC.           : SERVICE COMPANY
DATE.  2018-06-09 11:12:04   : Log Export Date {yyyy-MM-dd HH:mm:ss}
PROV.           : PROVINCE
UWI.   3067   : UNIQUE WELL ID
API.            : API NUMBER
#==================================================================
~Curve
DEPT .m                   : DEPTH
DEN .g/cm3                : DEN
DT .us/ft                 : DT
DTS .us/ft                : DTS
GR .gAPI                  : GR
NPHI .m3/m3               : NPHI
DTS_i7 ._                 : DTS_i7
DTS_mlFilled ._           : DTS_mlFilled
LITHesa10 ._              : LITHesa10
LITHesa9_filtr ._         : LITHesa9_filtr
LITHesa9_i4 ._            : LITHesa9_i4
LITHesa9_i8 ._            : LITHesa9_i8
LITHesa9_i8i4 ._          : LITHesa9_i8i4
PHIE_i7 ._                : PHIE_i7
PHIE_i8 ._                : PHIE_i8
PHIE_i8i7 ._              : PHIE_i8i7
PHIE_mlfilled ._          : PHIE_mlfilled
PHIEed ._                 : PHIEed
RDEP ._                   : RDEP
RMED ._                   : RMED
~Parameter
#==================================================================
~Ascii
# ...
 2164.2812500 2.2811000347 134.93280029 376.99240112 91.193969727 0.3770999908 365.77932739 376.99240112 5891.0000000 5891.0000000 5891.0000000 5891.0000000 5891.0000000 0.0506800003 0.0306000002 0.0306000002 0.0000000000  -999.250000 0.4560999870 0.4512099922
 2164.4335900 2.2703001499 135.77760315 376.51977539 90.639709473 0.3510999978 366.04696655 376.51977539 5891.0000000 5891.0000000 5891.0000000 5891.0000000 5891.0000000 0.0519500002 0.0275899991 0.0275899991 0.0055300002  -999.250000 0.4576100111 0.4535099864
 2164.5859400 2.2788000107 134.87229919 376.76510620 90.918899536 0.3711999953 362.46176147 376.76510620 5891.0000000 5891.0000000 5891.0000000 5891.0000000 5891.0000000 0.0558100007 0.0287500005 0.0287500005 0.0006900000  -999.250000 0.4625099897 0.4583100080
 2164.7382800 2.2978999615 134.86560059 376.80050659 89.830596924 0.3486999869 377.26589966 376.80050659 5891.0000000 5891.0000000 5891.0000000 5891.0000000 5891.0000000 0.0302300006 0.0288600009 0.0288600009 0.0000000000  -999.250000 0.4693099856 0.4634999931
 2164.8908700 2.3122000694 132.20370483 369.33410645 86.810630798 0.3944000006 364.46145630 369.33410645 5891.0000000 5891.0000000 5891.0000000 5891.0000000 5891.0000000 0.0258000009 0.0355699994 0.0355699994 0.0000000000  -999.250000 0.4745000005 0.4675000012
 2165.0432100 2.3046000004 132.77879333 372.00628662 84.012069702 0.4375999868 362.55117798 372.00628662 5891.0000000 5891.0000000 5891.0000000 5891.0000000 5891.0000000 0.0280600004 0.0348300003 0.0348300003 0.0000000000  -999.250000 0.4776999950 0.4695999920
 2165.1955600 2.2856998444 134.55479431 374.41964722 83.841072083 0.4553000033 368.23208618 374.41964722 5891.0000000 5891.0000000 5891.0000000 5891.0000000 5891.0000000 0.0510299988 0.0396200009 0.0396200009 0.0000000000  -999.250000 0.4805099964 0.4719099998
 2165.3479000 2.2858998775 134.44560242 366.71630859 85.211280823 0.4219000041 364.98831177 366.71630859 5891.0000000 5891.0000000 5891.0000000 5891.0000000 5891.0000000 0.0362799987 0.0310600009 0.0310600009 0.0000000000  -999.250000 0.4850099981 0.4767099917
 2165.5004900 2.3026001453 133.07200623 367.69808960 86.913368225 0.3898000121 366.35952759 367.69808960 5891.0000000 5891.0000000 5891.0000000 5891.0000000 5891.0000000 0.0281700008 0.0320499986 0.0320499986 0.0000000000  -999.250000 0.4910100102 0.4827100039
 2165.6528300 2.3666999340 129.55889893 379.06890869 88.158432007 0.3792999983 380.07479858 379.06890869 5891.0000000 5891.0000000 5891.0000000 5891.0000000 5891.0000000 0.0320100002 0.0330599993 0.0330599993 0.0000000000  -999.250000 0.4971899986 0.4898900092
 2165.8051800 2.4254999161 129.16040039 391.66687012 88.552200317 0.3659999967 352.47097778 391.66687012 5891.0000000 5891.0000000 5891.0000000 5891.0000000 5891.0000000 0.0348600000 0.0336499996 0.0336499996 0.0000000000  -999.250000 0.4996899962 0.4931899905
 2165.9575200 2.4243998528 129.95050049 391.12930298 88.960861206 0.3794000149 385.52920532 391.12930298 5891.0000000 5891.0000000 5891.0000000 5891.0000000 5891.0000000 0.0344900005 0.0339899994 0.0339899994 0.0000000000  -999.250000 0.4981000125 0.4923999906
 2166.1101100 2.3716001511 130.70500183 388.99508667 90.206939697 0.3806000054 384.37908936 388.99508667 5891.0000000 5891.0000000 5891.0000000 5891.0000000 5891.0000000 0.0364600010 0.0313099995 0.0313099995 0.0000000000  -999.250000 0.4955999851 0.4907000065
 2166.2624500 2.3331000805 131.87879944 382.03637695 92.810867310 0.3819999993 374.53289795 382.03637695 5891.0000000 5891.0000000 5891.0000000 5891.0000000 5891.0000000 0.0271400008 0.0284899995 0.0284899995 0.0000000000  -999.250000 0.4937100112 0.4892100096
 2166.4147900 2.3266000748 135.90539551 379.76971436 95.647293091 0.3783999979 370.55218506 379.76971436 5891.0000000 5891.0000000 5891.0000000 5891.0000000 5891.0000000 0.0573000014 0.0336900018 0.0336900018 0.0000000000  -999.250000 0.4943999946 0.4909999967
 2166.5671400 2.3331000805 134.38810730 378.14901733 97.087486267 0.3901999891 367.32595825 378.14898682 5891.0000000 5891.0000000 5891.0000000 5891.0000000 5891.0000000 0.0691300035 0.0356200002 0.0356200002 0.0000000000  -999.250000 0.4968999922 0.4943999946
 2166.7194800 2.3428001404 135.94070435 374.93496704 97.004768372 0.3986999989 374.23297119 374.93496704 5891.0000000 5891.0000000 5891.0000000 5891.0000000 5891.0000000 0.0669599995 0.0369299985 0.0369299985 0.0000000000  -999.250000 0.4992899895 0.4979999959
 2166.8720700 2.3346998692 135.57800293 370.43679810 96.606811523 0.4016000032 374.83526611 370.43679810 5891.0000000 5891.0000000 5891.0000000 5891.0000000 5891.0000000 0.0646800026 0.0367799997 0.0367799997 0.0000000000  -999.250000 0.4994899929 0.5000900030
 2167.0244100 2.3287999630 135.07150269 378.13858032 97.097969055 0.4129999876 372.34173584 378.13858032 5891.0000000 5891.0000000 5891.0000000 5891.0000000 5891.0000000 0.0742300004 0.0380599983 0.0380599983 0.0000000000  -999.250000 0.4970999956 0.4993999898
 2167.1767600 2.3231000900 135.12120056 371.10540771 97.103523254 0.3984999955 368.89523315 371.10540771 5891.0000000 5891.0000000 5891.0000000 5891.0000000 5891.0000000 0.0688500032 0.0367799997 0.0367799997 0.0000000000  -999.250000 0.4931899905 0.4968999922
 2167.3291000 2.3213999271 135.72120667 374.77313232 95.067253113 0.3962999880 373.56866455 374.77313232 5891.0000000 5891.0000000 5891.0000000 5891.0000000 5891.0000000 0.0499700010 0.0363599993 0.0363599993 0.0000000000  -999.250000 0.4882999957 0.4930999875
 2167.4816900 2.3156001568 135.51499939 377.29565430 92.139717102 0.4061000049 361.39761353 377.29568481 5891.0000000 5891.0000000 5891.0000000 5891.0000000 5891.0000000 0.0342600010 0.0336400010 0.0336400010 0.0000000000  -999.250000 0.4835000038 0.4891000092
 2167.6340300 2.2967000008 135.85620117 377.71331787 89.761520386 0.4275000095 375.08743286 377.71331787 5891.0000000 5891.0000000 5891.0000000 5891.0000000 5891.0000000 0.0403099991 0.0379300006 0.0379300006 0.0000000000  -999.250000 0.4803099930 0.4863100052
 2167.7863800 2.2846000195 135.17829895 377.28201294 90.237129211 0.4365000129 374.22613525 377.28201294 5891.0000000 5891.0000000 5891.0000000 5891.0000000 5891.0000000 0.0594599992 0.0436600000 0.0436600000 0.0000000000  -999.250000 0.4800100029 0.4863100052
 2167.9387200 2.2904999256 134.77630615 372.23028564 93.376029968 0.4327000082 365.42163086 372.23025513 5891.0000000 5891.0000000 5891.0000000 5891.0000000 5891.0000000 0.0621900000 0.0372699983 0.0372699983 0.0000000000  -999.250000 0.4828000069 0.4893000126
 2168.0913100 2.2993998528 136.19059753 365.19470215 95.494422913 0.4226000011 357.54260254 365.19470215 5891.0000000 5891.0000000 5891.0000000 5891.0000000 5891.0000000 0.0721699968 0.0390099995 0.0390099995 0.0000000000  -999.250000 0.4880999923 0.4945000112
 2168.2436500 2.3028998375 134.41200256 366.98883057 94.544006348 0.4208000004 364.75027466 366.98883057 5891.0000000 5891.0000000 5891.0000000 5891.0000000 5891.0000000 0.0429599993 0.0358700007 0.0358700007 0.0000000000  -999.250000 0.4955900013 0.5017899871
 2168.3960000 2.3216998577 132.87699890 357.21166992 91.801933289 0.4174000025 356.22152710 357.21166992 5891.0000000 5891.0000000 5891.0000000 5891.0000000 5891.0000000 0.0354899988 0.0339000002 0.0339000002 0.0000000000  -999.250000 0.5030000210 0.5092999935
 2168.5483400 2.3345000744 130.30130005 366.22763062 90.069763184 0.4092999995 364.63153076 366.22763062 5891.0000000 5891.0000000 5891.0000000 5891.0000000 5891.0000000 0.0292799994 0.0385800004 0.0385800004 0.0000000000  -999.250000 0.5100100040 0.5166100264
 2168.7006800 2.3338000774 129.77839661 375.60995483 89.702133179 0.3887000084 367.08676147 375.60995483 5891.0000000 5891.0000000 5891.0000000 5891.0000000 5891.0000000 0.0246399995 0.0328399986 0.0328399986 0.0000000000  -999.250000 0.5167000294 0.5234000087
 2168.8532700 2.3261001110 131.04400635 375.96914673 88.209587097 0.3916999996 366.74996948 375.96914673 5891.0000000 5891.0000000 5891.0000000 5891.0000000 5891.0000000 0.0266699996 0.0346900001 0.0346900001 0.0000000000  -999.250000 0.5219900012 0.5288900137
