# LAS format log file from PETREL
# Project units are specified as depth units
#==================================================================
~Version information
VERS.   2.0:
WRAP.   NO:
#==================================================================
~Well
STRT .m      1110.7399900 :
STOP .m      2724.9606900 :
STEP .m     0.00000000 :
NULL .        -999.250000 :
COMP.           : COMPANY
WELL.  16/7-6   : WELL
FLD.            : FIELD
LOC.            : LOCATION
SRVC.           : SERVICE COMPANY
DATE.  2018-06-09 11:12:04   : Log Export Date {yyyy-MM-dd HH:mm:ss}
PROV.           : PROVINCE
UWI.   3067   : UNIQUE WELL ID
API.            : API NUMBER
#==================================================================
~Curve
DEPT .m                   : DEPTH
DEN .g/cm3                : DEN
DT .us/ft                 : DT
DTS .us/ft                : DTS
GR .gAPI                  : GR
NPHI .m3/m3               : NPHI
DTS_i7 ._                 : DTS_i7
DTS_mlFilled ._           : DTS_mlFilled
LITHesa10 ._              : LITHesa10
LITHesa9_filtr ._         : LITHesa9_filtr
LITHesa9_i4 ._            : LITHesa9_i4
LITHesa9_i8 ._            : LITHesa9_i8
LITHesa9_i8i4 ._          : LITHesa9_i8i4
PHIE_i7 ._                : PHIE_i7
PHIE_i8 ._                : PHIE_i8
PHIE_i8i7 ._              : PHIE_i8i7
PHIE_mlfilled ._          : PHIE_mlfilled
PHIEed ._                 : PHIEed
RDEP ._                   : RDEP
RMED ._                   : RMED
~Parameter
#==================================================================
~Ascii
# ...
 2272.9423800 2.4632999897 71.531204224 127.30832672 6.7107000351 0.1688999981 127.49295807 127.30832672 5877.0000000 5877.0000000 5877.0000000 5877.0000000 5877.0000000 0.1355500072 0.1353999972 0.1353999972 0.1362999976 0.1362999976 1.3667999506 1.3984099627
 2273.0947300 2.4763000011 72.181594849 126.81958771 7.0333499908 0.1510999948 127.32369232 126.81958771 5877.0000000 5877.0000000 5877.0000000 5877.0000000 5877.0000000 0.1283099949 0.1283199936 0.1283199936 0.1290200055 0.1290200055 1.3709000349 1.4127000570
 2273.2473100 2.4879000187 71.897796631 127.84504700 7.3666300774 0.1568000019 128.54147339 127.84504700 5877.0000000 5877.0000000 5877.0000000 5877.0000000 5877.0000000 0.1208100021 0.1228799969 0.1228799969 0.1215500012 0.1215500012 1.3732000589 1.4211900234
 2273.3996600 2.4871001244 72.127998352 128.51310730 7.4265398979 0.1650000066 128.24011230 128.51310730 5877.0000000 5877.0000000 5877.0000000 5877.0000000 5877.0000000 0.1212100014 0.1220799983 0.1220799983 0.1217999980 0.1217999980 1.3731000423 1.4186799526
 2273.5520000 2.4835000038 71.973800659 128.80110168 7.3527097702 0.1775999963 129.69592285 128.80110168 5877.0000000 5877.0000000 5877.0000000 5877.0000000 5877.0000000 0.1234899983 0.1248300001 0.1248300001 0.1240200028 0.1240200028 1.3732000589 1.4092799425
 2273.7043500 2.4728000164 72.197502136 128.85351563 7.4495902061 0.1775999963 128.52479553 128.85351563 5877.0000000 5877.0000000 5877.0000000 5877.0000000 5877.0000000 0.1298699975 0.1298400015 0.1298400015 0.1296200007 0.1296200007 1.3739000559 1.3993999958
 2273.8566900 2.4800000191 72.278495789 128.60279846 7.5488901138 0.1753000021 128.93029785 128.60279846 5877.0000000 5877.0000000 5877.0000000 5877.0000000 5877.0000000 0.1250600070 0.1256099939 0.1256099939 0.1253399998 0.1253399998 1.3732099533 1.3933099508
 2274.0092800 2.4732999802 72.239799500 128.26049805 7.6292200089 0.1749999970 128.07608032 128.26049805 5877.0000000 5877.0000000 5877.0000000 5877.0000000 5877.0000000 0.1287800074 0.1286100000 0.1286100000 0.1287800074 0.1287800074 1.3778400421 1.3966399431
 2274.1616200 2.4751999378 71.917098999 127.99170685 7.7569999695 0.1671999991 126.81372833 127.99170685 5877.0000000 5877.0000000 5877.0000000 5877.0000000 5877.0000000 0.1271400005 0.1279900074 0.1279900074 0.1273300052 0.1273300052 1.3978500366 1.4150500298
 2274.3139600 2.4637999535 71.782997131 127.03312683 7.9041399956 0.1653999984 127.09364319 127.03312683 5877.0000000 5877.0000000 5877.0000000 5877.0000000 5877.0000000 0.1330900043 0.1326200068 0.1326200068 0.1331499964 0.1331499964 1.4247399569 1.4383300543
 2274.4663100 2.4660000801 71.769203186 126.65100098 7.9123802185 0.1656000018 126.48961639 126.65100098 5877.0000000 5877.0000000 5877.0000000 5877.0000000 5877.0000000 0.1315899938 0.1324599981 0.1324599981 0.1319199950 0.1319199950 1.4625699520 1.4680600166
 2274.6189000 2.4632999897 71.766304016 125.78678894 7.6527099609 0.1726000011 126.38674164 125.78678894 5877.0000000 5877.0000000 5877.0000000 5877.0000000 5877.0000000 0.1352400035 0.1341799945 0.1341799945 0.1342300028 0.1342300028 1.5131700039 1.5129899979
 2274.7712400 2.4776999950 71.344100952 125.41329956 7.5450201035 0.1750999987 126.68506622 125.41329956 5877.0000000 5877.0000000 5877.0000000 5877.0000000 5877.0000000 0.1255899966 0.1262100041 0.1262100041 0.1266199946 0.1266199946 1.5624899864 1.5689200163
 2274.9235800 2.4948000908 70.857200623 124.79629517 7.5518097878 0.1699000001 126.01938629 124.79630280 5877.0000000 5877.0000000 5877.0000000 5877.0000000 5877.0000000 0.1167899966 0.1174099967 0.1174099967 0.1171599999 0.1171599999 1.6132299900 1.6316399574
 2275.0759300 2.5046999454 70.131599426 124.45495605 7.3052301407 0.1552000046 124.82747650 124.45496368 5877.0000000 5877.0000000 5877.0000000 5877.0000000 5877.0000000 0.1125200018 0.1155100018 0.1155100018 0.1124600023 0.1124600023 1.6634399891 1.6972399950
 2275.2285200 2.5201001167 69.866096497 124.63860321 6.9978699684 0.1477999985 125.11116028 124.63860321 5877.0000000 5877.0000000 5877.0000000 5877.0000000 5877.0000000 0.1047499999 0.1049999967 0.1049999967 0.1049199998 0.1049199998 1.7075200081 1.7506999969
 2275.3808600 2.5203998089 70.180297852 124.89949799 7.0991101265 0.1533000022 125.12708282 124.89949799 5877.0000000 5877.0000000 5877.0000000 5877.0000000 5877.0000000 0.1044100001 0.1054800004 0.1054800004 0.1044400036 0.1044400036 1.7294800282 1.7684700489
 2275.5332000 2.5044999123 70.454597473 125.17539978 7.3731598854 0.1626999974 126.16932678 125.17539978 5877.0000000 5877.0000000 5877.0000000 5877.0000000 5877.0000000 0.1127900034 0.1118699983 0.1118699983 0.1123500019 0.1123500019 1.7208700180 1.7552599907
 2275.6855500 2.5046000481 70.743400574 125.36429596 7.4029898643 0.1678999960 126.49996185 125.36430359 5877.0000000 5877.0000000 5877.0000000 5877.0000000 5877.0000000 0.1123600006 0.1113900021 0.1113900021 0.1121999994 0.1121999994 1.7078499794 1.7368299961
 2275.8378900 2.5021998882 71.156105042 125.22263336 7.2080001831 0.1615000069 126.26201630 125.22263336 5877.0000000 5877.0000000 5877.0000000 5877.0000000 5877.0000000 0.1134200022 0.1147800013 0.1147800013 0.1141500026 0.1141500026 1.7278200388 1.7427999973
 2275.9904800 2.5134999752 70.475097656 124.63879395 7.1915001869 0.1529999971 124.88137054 124.63880157 5877.0000000 5877.0000000 5877.0000000 5877.0000000 5877.0000000 0.1081900001 0.1080200002 0.1080200002 0.1079600006 0.1079600006 1.8002099991 1.7962900400
 2276.1428200 2.5215001106 70.648399353 124.22280121 7.3424401283 0.1429000050 125.15469360 124.22280121 5877.0000000 5877.0000000 5877.0000000 5877.0000000 5877.0000000 0.1026699990 0.1032600030 0.1032600030 0.1030599996 0.1030599996 1.9221099615 1.9049700499
 2276.2951700 2.5432000160 68.874900818 123.62316132 7.3642601967 0.1326999962 124.82231140 123.62316132 5877.0000000 5877.0000000 5877.0000000 5877.0000000 5877.0000000 0.0907900035 0.0909899995 0.0909899995 0.0910200030 0.0910200030 2.0814800262 2.0473899841
 2276.4475100 2.5521998405 68.650001526 122.87730408 7.0506401062 0.1272000074 124.54873657 122.87729645 5877.0000000 5877.0000000 5877.0000000 5877.0000000 5877.0000000 0.0872799978 0.0871800035 0.0871800035 0.0870300010 0.0870300010 2.2302498817 2.1877698898
 2276.6001000 2.5545001030 68.132698059 122.19079590 6.6831598282 0.1255999953 122.54319000 122.19080353 5877.0000000 5877.0000000 5877.0000000 5877.0000000 5877.0000000 0.0864299983 0.0865200013 0.0865200013 0.0859099999 0.0859099999 2.3199300766 2.2892498970
 2276.7524400 2.5493998528 68.150497437 122.25150299 6.8310899734 0.1345999986 123.50132751 122.25150299 5877.0000000 5877.0000000 5877.0000000 5877.0000000 5877.0000000 0.0885799974 0.0887399986 0.0887399986 0.0887300000 0.0887300000 2.3566200733 2.3382198811
 2276.9047900 2.5399999619 67.790199280 122.23792267 7.4957399368 0.1378999949 123.29057312 122.23792267 5877.0000000 5877.0000000 5877.0000000 5877.0000000 5877.0000000 0.0934000015 0.0922499970 0.0922499970 0.0923499987 0.0923499987 2.3666899204 2.3481900692
 2277.0571300 2.5504000187 67.571701050 121.97842407 8.3224496841 0.1360999942 122.04593658 121.97841644 5877.0000000 5877.0000000 5877.0000000 5877.0000000 5877.0000000 0.0853400007 0.0839999989 0.0839999989 0.0839900002 0.0839900002 2.3706200123 2.3490300179
 2277.2097200 2.5611999035 67.922599792 121.78589630 8.5987796783 0.1325999945 122.47382355 121.78589630 5877.0000000 5877.0000000 5877.0000000 5877.0000000 5877.0000000 0.0785200000 0.0770099983 0.0770099983 0.0771500021 0.0771500021 2.3822000027 2.3637199402
 2277.3620600 2.5666000843 67.634696960 121.86380005 8.2594499588 0.1335999966 122.15292358 121.86380005 5877.0000000 5877.0000000 5877.0000000 5877.0000000 5877.0000000 0.0769099966 0.0760800019 0.0760800019 0.0752400011 0.0752400011 2.3859701157 2.3786098957
 2277.5144000 2.5551002026 67.607795715 121.93880463 7.6850299835 0.1421000063 123.01663208 121.93879700 5877.0000000 5877.0000000 5877.0000000 5877.0000000 5877.0000000 0.0829899982 0.0852899998 0.0852899998 0.0834100023 0.0834100023 2.3693799973 2.3834300041
