# LAS format log file from PETREL
# Project units are specified as depth units
#==================================================================
~Version information
VERS.   2.0:
WRAP.   NO:
#==================================================================
~Well
STRT .m      1110.7399900 :
STOP .m      2724.9606900 :
STEP .m     0.00000000 :
NULL .        -999.250000 :
COMP.           : COMPANY
WELL.  16/7-6   : WELL
FLD.            : FIELD
LOC.            : LOCATION
SRVC.           : SERVICE COMPANY
DATE.  2018-06-09 11:12:04   : Log Export Date {yyyy-MM-dd HH:mm:ss}
PROV.           : PROVINCE
UWI.   3067   : UNIQUE WELL ID
API.            : API NUMBER
#==================================================================
~Curve
DEPT .m                   : DEPTH
DEN .g/cm3                : DEN
DT .us/ft                 : DT
DTS .us/ft                : DTS
GR .gAPI                  : GR
NPHI .m3/m3               : NPHI
DTS_i7 ._                 : DTS_i7
DTS_mlFilled ._           : DTS_mlFilled
LITHesa10 ._              : LITHesa10
LITHesa9_filtr ._         : LITHesa9_filtr
LITHesa9_i4 ._            : LITHesa9_i4
LITHesa9_i8 ._            : LITHesa9_i8
LITHesa9_i8i4 ._          : LITHesa9_i8i4
PHIE_i7 ._                : PHIE_i7
PHIE_i8 ._                : PHIE_i8
PHIE_i8i7 ._              : PHIE_i8i7
PHIE_mlfilled ._          : PHIE_mlfilled
PHIEed ._                 : PHIEed
RDEP ._                   : RDEP
RMED ._                   : RMED
~Parameter
#==================================================================
~Ascii
# ...
 1323.3380100 2.1568999290 136.18089294 349.81311035 107.08339691 0.4736999869 350.22842407 349.81311035 5891.0000000 5891.0000000 5891.0000000 5891.0000000 5891.0000000 0.0326300003 0.0453400016 0.0453400016 0.0000000000  -999.250000 1.4420000315 1.3891999722
 1323.4903600 2.1565999985 134.88650513 350.78472900 106.66999817 0.4665000141 353.68527222 350.78472900 5891.0000000 5891.0000000 5891.0000000 5891.0000000 5891.0000000 0.0301600005 0.0465199985 0.0465199985 0.0000000000  -999.250000 1.4555000067 1.3983000517
 1323.6428200 2.1601998806 134.93710327 348.99285889 106.51219940 0.4582000077 352.43960571 348.99285889 5891.0000000 5891.0000000 5891.0000000 5891.0000000 5891.0000000 0.0278399996 0.0476999991 0.0476999991 0.0000000000  -999.250000 1.4594000578 1.3961999416
 1323.7951700 2.1586000919 135.44560242 348.60119629 105.59909821 0.4084999859 348.93002319 348.60119629 5891.0000000 5891.0000000 5891.0000000 5891.0000000 5891.0000000 0.0317500010 0.0382299982 0.0382299982 0.0000000000  -999.250000 1.4479899406 1.3826899529
 1323.9476300 2.1565001011 135.82940674 350.33758545 103.98919678 0.4375000000 350.55358887 350.33758545 5891.0000000 5891.0000000 5891.0000000 5891.0000000 5891.0000000 0.0312799998 0.0395799987 0.0395799987 0.0000000000  -999.250000 1.4338999987 1.3696000576
 1324.0999800 2.1519999504 136.74060059 352.84960938 101.81030273 0.4550000131 352.61242676 352.84960938 5891.0000000 5891.0000000 5891.0000000 5891.0000000 5891.0000000 0.0398899987 0.0388199985 0.0388199985 0.0000000000  -999.250000 1.4227999449 1.3607000113
 1324.2524400 2.1568999290 137.71672058 354.47579956 99.694076538 0.4686999917 355.21380615 354.47579956 5891.0000000 5891.0000000 5891.0000000 5891.0000000 5891.0000000 0.0355900005 0.0374700017 0.0374700017 0.0000000000  -999.250000 1.4163999557 1.3551000357
 1324.4047900 2.1591999531 138.07080078 355.38967896 99.701187134 0.4783000052 354.69314575 355.38967896 5891.0000000 5891.0000000 5891.0000000 5891.0000000 5891.0000000 0.0410699993 0.0368900001 0.0368900001 0.0000000000  -999.250000 1.4149999619 1.3532999754
 1324.5572500 2.1681001186 137.97430420 355.52621460 101.08409882 0.4905000031 354.99761963 355.52621460 5891.0000000 5891.0000000 5891.0000000 5891.0000000 5891.0000000 0.0450199991 0.0377099998 0.0377099998 0.0000000000  -999.250000 1.4132000208 1.3509999514
 1324.7095900 2.1672999859 138.01989746 353.35449219 102.20600128 0.4993000031 354.81634521 353.35449219 5891.0000000 5891.0000000 5891.0000000 5891.0000000 5891.0000000 0.0450199991 0.0273199994 0.0273199994 0.0000000000  -999.250000 1.4101999998 1.3471000195
 1324.8620600 2.1716001034 137.69940186 354.94424438 101.91819763 0.5066999793 354.33834839 354.94427490 5891.0000000 5891.0000000 5891.0000000 5891.0000000 5891.0000000 0.0429700017 0.0288100000 0.0288100000 0.0000000000  -999.250000 1.4062000513 1.3421000242
 1325.0144000 2.1711001396 137.85299683 355.47543335 100.62740326 0.4754000008 352.80917358 355.47543335 5891.0000000 5891.0000000 5891.0000000 5891.0000000 5891.0000000 0.0439199992 0.0397399999 0.0397399999 0.0000000000  -999.250000 1.4021999836 1.3380999565
 1325.1667500 2.1706001759 137.61709595 356.33670044 99.474082947 0.5073000193 357.22924805 356.33670044 5891.0000000 5891.0000000 5891.0000000 5891.0000000 5891.0000000 0.0424499996 0.0414200015 0.0414200015 0.0000000000  -999.250000 1.3997000456 1.3366999626
 1325.3192100 2.1568000317 137.87770081 356.98278809 99.263473511 0.5396000147 355.69363403 356.98278809 5891.0000000 5891.0000000 5891.0000000 5891.0000000 5891.0000000 0.0375300013 0.0331300013 0.0331300013 0.0013400000  -999.250000 1.4007999897 1.3381999731
 1325.4715600 2.1443998814 138.00559998 356.76159668 101.14270020 0.5388000011 355.96667480 356.76159668 5891.0000000 5891.0000000 5891.0000000 5891.0000000 5891.0000000 0.0291700009 0.0362799987 0.0362799987 0.0023800000  -999.250000 1.4031000137 1.3409999609
 1325.6240200 2.1423997879 138.25540161 356.72573853 104.99459839 0.5174000263 355.21362305 356.72573853 5891.0000000 5891.0000000 5891.0000000 5891.0000000 5891.0000000 0.0348300003 0.0434999987 0.0434999987 0.0000000000  -999.250000 1.4048000574 1.3421000242
 1325.7763700 2.1368000507 138.50109863 356.19494629 108.99120331 0.5063999891 357.11233521 356.19491577 5891.0000000 5891.0000000 5891.0000000 5891.0000000 5891.0000000 0.0308899991 0.0313000008 0.0313000008 0.0000000000  -999.250000 1.4034999609 1.3400000334
 1325.9288300 2.1416001320 138.62460327 354.29370117 110.85849762 0.4855999947 354.53717041 354.29370117 5891.0000000 5891.0000000 5891.0000000 5891.0000000 5891.0000000 0.0359200016 0.0304700006 0.0304700006 0.0000000000  -999.250000 1.3989000320 1.3358999491
 1326.0811800 2.1476001740 138.75920105 352.13055420 110.28859711 0.5167999864 352.78509521 352.13058472 5891.0000000 5891.0000000 5891.0000000 5891.0000000 5891.0000000 0.0464899987 0.0333800018 0.0333800018 0.0000000000  -999.250000 1.3940999508 1.3315999508
 1326.2336400 2.1619999409 138.56059265 351.57595825 108.96520233 0.5228999853 351.84024048 351.57595825 5891.0000000 5891.0000000 5891.0000000 5891.0000000 5891.0000000 0.0540300012 0.0305300001 0.0305300001 0.0000000000  -999.250000 1.3883999586 1.3269000053
 1326.3859900 2.1749999523 138.67469788 352.12213135 108.25959778 0.5791000128 349.60073853 352.12213135 5891.0000000 5891.0000000 5891.0000000 5891.0000000 5891.0000000 0.0645999983 0.0277600009 0.0277600009 0.0000000000  -999.250000 1.3809000254 1.3210999966
 1326.5384500 2.1849999428 138.71099854 353.16561890 107.74310303 0.5115000010 351.68368530 353.16561890 5891.0000000 5891.0000000 5891.0000000 5891.0000000 5891.0000000 0.0666700006 0.0334599987 0.0334599987 0.0000000000  -999.250000 1.3762999773 1.3173999786
 1326.6908000 2.1891999245 138.40080261 354.21130371 106.37239838 0.4986999929 352.23880005 354.21130371 5891.0000000 5891.0000000 5891.0000000 5891.0000000 5891.0000000 0.0672300011 0.0331600010 0.0331600010 0.0000000000  -999.250000 1.3724999428 1.3142999411
 1326.8431400 2.1835000515 138.31658936 351.53039551 103.87699890 0.4927000105 350.54214478 351.53039551 5891.0000000 5891.0000000 5891.0000000 5891.0000000 5891.0000000 0.0561599992 0.0303700007 0.0303700007 0.0000000000  -999.250000 1.3704999685 1.3126000166
 1326.9956100 2.1758999825 138.02400208 350.99911499 101.88349915 0.4760000110 351.97341919 350.99911499 5891.0000000 5891.0000000 5891.0000000 5891.0000000 5891.0000000 0.0545499995 0.0248799995 0.0248799995 0.0000000000  -999.250000 1.3693000078 1.3112000227
 1327.1479500 2.1711001396 137.91459656 349.52481079 101.48760223 0.4977999926 350.53814697 349.52481079 5891.0000000 5891.0000000 5891.0000000 5891.0000000 5891.0000000 0.0432399996 0.0340100005 0.0340100005 0.0000000000  -999.250000 1.3725099564 1.3140100241
 1327.3004200 2.1748998165 137.34039307 347.69848633 102.76670074 0.4880999923 351.11584473 347.69848633 5891.0000000 5891.0000000 5891.0000000 5891.0000000 5891.0000000 0.0527400002 0.0350599997 0.0350599997 0.0000000000  -999.250000 1.3849999905 1.3250999451
 1327.4527600 2.1740000248 136.43989563 345.96688843 105.15720367 0.4709999859 346.77474976 345.96688843 5891.0000000 5891.0000000 5891.0000000 5891.0000000 5891.0000000 0.0431700014 0.0390600003 0.0390600003 0.0000000000  -999.250000 1.4036099911 1.3417099714
 1327.6052200 2.1751000881 136.31309509 346.00201416 106.31130219 0.3718999922 349.37716675 346.00201416 5891.0000000 5891.0000000 5891.0000000 5891.0000000 5891.0000000 0.0827400014 0.0526899993 0.0526899993 0.0000000000  -999.250000 1.4250999689 1.3608000278
 1327.7575700 2.1708998680 135.83770752 347.48831177 105.38760376 0.3506000042 350.50131226 347.48831177 5891.0000000 5891.0000000 5891.0000000 5891.0000000 5891.0000000 0.0812000036 0.0510100015 0.0510100015 0.0000000000  -999.250000 1.4427100420 1.3781100512
 1327.9100300 2.1673998833 136.02830505 349.11358643 104.16960144 0.3813000023 348.95501709 349.11358643 5891.0000000 5891.0000000 5891.0000000 5891.0000000 5891.0000000 0.0670000017 0.0378799997 0.0378799997 0.0000000000  -999.250000 1.4560999870 1.3926000595
