# LAS format log file from PETREL
# Project units are specified as depth units
#==================================================================
~Version information
VERS.   2.0:
WRAP.   NO:
#==================================================================
~Well
STRT .m      1110.7399900 :
STOP .m      2724.9606900 :
STEP .m     0.00000000 :
NULL .        -999.250000 :
COMP.           : COMPANY
WELL.  16/7-6   : WELL
FLD.            : FIELD
LOC.            : LOCATION
SRVC.           : SERVICE COMPANY
DATE.  2018-06-09 11:12:04   : Log Export Date {yyyy-MM-dd HH:mm:ss}
PROV.           : PROVINCE
UWI.   3067   : UNIQUE WELL ID
API.            : API NUMBER
#==================================================================
~Curve
DEPT .m                   : DEPTH
DEN .g/cm3                : DEN
DT .us/ft                 : DT
DTS .us/ft                : DTS
GR .gAPI                  : GR
NPHI .m3/m3               : NPHI
DTS_i7 ._                 : DTS_i7
DTS_mlFilled ._           : DTS_mlFilled
LITHesa10 ._              : LITHesa10
LITHesa9_filtr ._         : LITHesa9_filtr
LITHesa9_i4 ._            : LITHesa9_i4
LITHesa9_i8 ._            : LITHesa9_i8
LITHesa9_i8i4 ._          : LITHesa9_i8i4
PHIE_i7 ._                : PHIE_i7
PHIE_i8 ._                : PHIE_i8
PHIE_i8i7 ._              : PHIE_i8i7
PHIE_mlfilled ._          : PHIE_mlfilled
PHIEed ._                 : PHIEed
RDEP ._                   : RDEP
RMED ._                   : RMED
~Parameter
#==================================================================
~Ascii
# ...
 2589.4772900 2.3671998978 87.929306030 144.83357239 74.590713501 0.1913000047 152.77807617 144.83357239 5868.0000000 5868.0000000 5868.0000000 5868.0000000 5868.0000000 0.1466100067 0.1469099969 0.1469099969 0.1455799937 0.1455799937 0.6876199841 0.7098199725
 2589.6296400 2.3717000484 86.502197266 140.79147339 74.310363770 0.1753000021 146.91531372 140.79147339 5868.0000000 5868.0000000 5868.0000000 5868.0000000 5868.0000000 0.1351400018 0.1386300027 0.1386300027 0.1395100057 0.1395100057 0.7010200024 0.7235199809
 2589.7819800 2.3741998672 86.101600647 143.53656006 71.668601990 0.1791999936 147.72447205 143.53656006 5868.0000000 5868.0000000 5868.0000000 5868.0000000 5868.0000000 0.1344600022 0.1314900070 0.1314900070 0.1331900060 0.1331900060 0.7138100266 0.7366099954
 2589.9343300 2.3566000462 84.059906006 146.24777222 67.909690857 0.2152999938 153.43780518 146.24777222 5868.0000000  -999.250000 5868.0000000 5868.0000000 5868.0000000 0.1484400034 0.1369599998 0.1369599998 0.1373800039 0.1373800039 0.7296100259 0.7514100075
 2590.0869100 2.3413999081 84.217597961 147.54872131 64.520446777 0.2858999968 152.67465210 147.54872131 5868.0000000 5868.0000000 5868.0000000 5868.0000000 5868.0000000 0.1267099977 0.1196900010 0.1196900010 0.1401699930 0.1401699930 0.7447100282 0.7650099993
 2590.2392600 2.3556001186 85.260597229 153.78298950 62.647941589 0.3407000005 163.18472290 153.78298950 5868.0000000 5868.0000000 5868.0000000 5868.0000000 5868.0000000 0.1341699958 0.1218099967 0.1218099967 0.1271599978 0.1271599978 0.7533900142 0.7746000290
 2590.3916000 2.4000000954 85.694801331 159.51643372 61.715091705 0.3750999868 167.66720581 159.51643372 5868.0000000 5868.0000000 5868.0000000 5868.0000000 5868.0000000 0.1198500022 0.1043300033 0.1043300033 0.0989200026 0.0989200026 0.7515699863 0.7763699889
 2590.5439500 2.4391999245 85.975502014 172.06408691 60.770908356 0.3899999857 172.53829956 172.06408691 5868.0000000 5868.0000000 5868.0000000 5868.0000000 5868.0000000 0.0835400000 0.0746600032 0.0746600032 0.0762500018 0.0762500018 0.7327399850 0.7603300214
 2590.6962900 2.3518998623 82.778503418 177.54812622 58.932418823 0.4086000025 213.96290588 177.54812622 5868.0000000 5868.0000000 5868.0000000 5868.0000000 5868.0000000 0.1303199977 0.1277099997 0.1277099997 0.1285499930 0.1285499930 0.6915000081 0.7192999721
 2590.8488800 2.1916000843 81.113998413 180.64183044 55.577598572 0.4054000080 187.05366516 180.64183044  -999.250000  -999.250000 5868.0000000 5868.0000000 5868.0000000 0.2008499950 0.2153999954 0.2153999954 0.2248699963 0.2248699963 0.6299999952 0.6583899856
 2591.0012200 2.1099998951 89.393997192 183.27035522 52.011638641 0.3528000116 184.54893494 183.27035522 5868.0000000 5868.0000000 5868.0000000 5868.0000000 5868.0000000 0.2589299977 0.2662999928 0.2662999928 0.2774600089 0.2774600089 0.5730999708 0.5965899825
 2591.1535600 2.1191999912 89.930206299 180.84788513 49.610599518 0.2833999991 173.76866150 180.84790039  -999.250000  -999.250000 5868.0000000 5868.0000000 5868.0000000 0.2791599929 0.2760300040 0.2760300040 0.2784999907 0.2784999907 0.5297999978 0.5483000278
 2591.3059100 2.1986000538 88.788002014 176.16990662 51.025669098 0.2511999905 175.93711853 176.16990662 5868.0000000 5868.0000000 5868.0000000 5868.0000000 5868.0000000 0.2551000118 0.2438700050 0.2438700050 0.2386199981 0.2386199981 0.5043200254 0.5220199823
 2591.4585000 2.2414999008 89.125900269 165.31402588 57.389881134 0.2345000058 168.70989990 165.31402588 5868.0000000 5868.0000000 5868.0000000 5868.0000000 5868.0000000 0.2235299945 0.2203499973 0.2203499973 0.2181999981 0.2181999981 0.5035399795 0.5205399990
 2591.6108400 2.2980999947 83.506698608 164.62107849 65.485908508 0.2151000053 161.74346924 164.62107849 5868.0000000 5868.0000000 5868.0000000 5868.0000000 5868.0000000 0.1879100055 0.1940400004 0.1940400004 0.1884800047 0.1884800047 0.5231500268 0.5385400057
 2591.7631800 2.3576998711 84.911697388 163.04246521 69.938842773 0.2049999982 161.72697449 163.04246521 5868.0000000 5868.0000000 5868.0000000 5868.0000000 5868.0000000 0.1583299935 0.1612599939 0.1612599939 0.1558600068 0.1558600068 0.5478100181 0.5611100197
 2591.9155300 2.3763000965 83.704803467 162.69964600 67.619827271 0.2186000049 161.28199768 162.69964600 5868.0000000 5868.0000000 5868.0000000 5868.0000000 5868.0000000 0.1447300017 0.1494600028 0.1494600028 0.1457699984 0.1457699984 0.5704100132 0.5821099877
 2592.0681200 2.3519999981 83.940498352 160.81243896 61.400241852 0.2303999960 162.39273071 160.81243896 5868.0000000 5868.0000000 5868.0000000 5868.0000000 5868.0000000 0.1592999995 0.1621399969 0.1621399969 0.1598400027 0.1598400027 0.5877100229 0.5964000225
 2592.2204600 2.3381998539 85.128105164 159.29441833 57.404308319 0.2223999947 160.33642578 159.29441833 5868.0000000 5868.0000000 5868.0000000 5868.0000000 5868.0000000 0.1645800024 0.1744900048 0.1744900048 0.1679400057 0.1679400057 0.5963100195 0.6024000049
 2592.3728000 2.3269999027 85.404998779 154.88752747 58.382450104 0.2148000002 156.81231689 154.88754272 5868.0000000 5868.0000000 5868.0000000 5868.0000000 5868.0000000 0.1764300019 0.1785199940 0.1785199940 0.1747300029 0.1747300029 0.6001999974 0.6050000191
 2592.5251500 2.3393998146 85.609893799 157.04750061 62.246109009 0.2148000002 157.89706421 157.04750061 5868.0000000 5868.0000000 5868.0000000 5868.0000000 5868.0000000 0.1683100015 0.1761099994 0.1761099994 0.1682900041 0.1682900041 0.6007900238 0.6059899926
 2592.6774900 2.3587000370 85.257392883 159.60958862 65.125991821 0.2018000036 159.19430542 159.60958862 5868.0000000 5868.0000000 5868.0000000 5868.0000000 5868.0000000 0.1542599946 0.1613299996 0.1613299996 0.1580799967 0.1580799967 0.5941600204 0.5997599959
 2592.8300800 2.3638999462 84.437896729 161.33125305 64.099227905 0.2045000046 160.70411682 161.33123779 5868.0000000 5868.0000000 5868.0000000 5868.0000000 5868.0000000 0.1529999971 0.1565299928 0.1565299928 0.1560299993 0.1560299993 0.5716300011 0.5778399706
 2592.9824200 2.3429999352 84.301994324 162.83219910 59.697410583 0.2116000056 160.63075256 162.83219910 5868.0000000 5868.0000000 5868.0000000 5868.0000000 5868.0000000 0.1637499928 0.1708299965 0.1708299965 0.1688800007 0.1688800007 0.5349900126 0.5430799723
 2593.1347700 2.2909998894 84.755599976 166.89019775 54.293468475 0.2267999947 163.59536743 166.89019775  -999.250000  -999.250000 5868.0000000 5868.0000000 5868.0000000 0.2004400045 0.2070599943 0.2070599943 0.1993599981 0.1993599981 0.5003799796 0.5066800117
 2593.2871100 2.2573001385 85.243698120 170.26708984 50.162448883 0.2450000048 161.52897644 170.26708984 5868.0000000 5868.0000000 5868.0000000 5868.0000000 5868.0000000 0.2210299969 0.2239200026 0.2239200026 0.2191399932 0.2191399932 0.4714899957 0.4771899879
 2593.4397000 2.2441000938 86.752799988 171.29386902 48.805030823 0.2337000072 169.50746155 171.29386902 5868.0000000 5868.0000000 5868.0000000 5868.0000000 5868.0000000 0.2339999974 0.2376399934 0.2376399934 0.2268200070 0.2268200070 0.4535999894 0.4585900009
 2593.5920400 2.2536001205 86.890403748 169.06568909 49.432849884 0.2289000005 166.72750854 169.06568909 5868.0000000 5868.0000000 5868.0000000 5868.0000000 5868.0000000 0.2243299931 0.2315099984 0.2315099984 0.2211100012 0.2211100012 0.4478000104 0.4510000050
 2593.7443800 2.2755000591 86.497001648 167.11195374 51.834899902 0.2293999940 164.59548950 167.11195374 5868.0000000 5868.0000000 5868.0000000 5868.0000000 5868.0000000 0.2068700045 0.2117300034 0.2117300034 0.2079800069 0.2079800069 0.4460999966 0.4510999918
 2593.8967300 2.3113000393 86.887397766 166.42253113 54.167968750 0.2266000062 166.23236084 166.42251587 5868.0000000 5868.0000000 5868.0000000 5868.0000000 5868.0000000 0.1860699952 0.1923899949 0.1923899949 0.1867199987 0.1867199987 0.4455899894 0.4532999992
 2594.0493200 2.3498001099 86.377799988 164.51547241 54.926998138 0.2100999951 162.71015930 164.51547241 5868.0000000 5868.0000000 5868.0000000 5868.0000000 5868.0000000 0.1627800018 0.1644099951 0.1644099951 0.1639499962 0.1639499962 0.4420799911 0.4522899985
