# LAS format log file from PETREL
# Project units are specified as depth units
#==================================================================
~Version information
VERS.   2.0:
WRAP.   NO:
#==================================================================
~Well
STRT .m      160.22121000 :
STOP .m      2263.6457500 :
STEP .m     0.00000000 :
NULL .        -999.250000 :
COMP.           : COMPANY
WELL.  16/7-10   : WELL
FLD.            : FIELD
LOC.            : LOCATION
SRVC.           : SERVICE COMPANY
DATE.  2018-06-09 11:12:05   : Log Export Date {yyyy-MM-dd HH:mm:ss}
PROV.           : PROVINCE
UWI.   6607   : UNIQUE WELL ID
API.            : API NUMBER
#==================================================================
~Curve
DEPT .m                   : DEPTH
DEN .g/cm3                : DEN
DT .us/ft                 : DT
DTS .us/ft                : DTS
GR .gAPI                  : GR
NPHI .m3/m3               : NPHI
DTS_i7 ._                 : DTS_i7
DTS_mlFilled ._           : DTS_mlFilled
LITHesa10 ._              : LITHesa10
LITHesa9_filtr ._         : LITHesa9_filtr
LITHesa9_i4 ._            : LITHesa9_i4
LITHesa9_i8 ._            : LITHesa9_i8
LITHesa9_i8i4 ._          : LITHesa9_i8i4
PHIE_i7 ._                : PHIE_i7
PHIE_i8 ._                : PHIE_i8
PHIE_i8i7 ._              : PHIE_i8i7
PHIE_mlfilled ._          : PHIE_mlfilled
PHIEed ._                 : PHIEed
RDEP ._                   : RDEP
RMED ._                   : RMED
~Parameter
#==================================================================
~Ascii
# ...
 1279.9039300 1.9040000439 147.29570007 350.29919434 77.425003052 0.5593000054 350.91363525 350.29919434  -999.250000  -999.250000 5891.0000000 5891.0000000 5891.0000000  -999.250000  -999.250000  -999.250000  -999.250000  -999.250000 1.1581000090 1.1657999754
 1280.0562700 1.9239000082 147.84469604 351.55441284 73.896003723 0.5777999759 351.63827515 351.55441284  -999.250000  -999.250000 5891.0000000 5891.0000000 5891.0000000  -999.250000  -999.250000  -999.250000  -999.250000  -999.250000 1.1581000090 1.1657999754
 1280.2087400 1.9515999556 148.03120422 352.45449829 74.037399292 0.5512999892 351.75357056 352.45449829  -999.250000  -999.250000 5891.0000000 5891.0000000 5891.0000000  -999.250000  -999.250000  -999.250000  -999.250000  -999.250000 1.1604000330 1.1658999920
 1280.3610800 1.9729000330 147.82730103 353.61428833 75.289802551 0.5036000013 350.65136719 353.61428833  -999.250000  -999.250000 5891.0000000 5891.0000000 5891.0000000  -999.250000  -999.250000  -999.250000  -999.250000  -999.250000 1.1604000330 1.1658999920
 1280.5135500 1.9869999886 147.33740234 353.95700073 77.163101196 0.5317999721 353.45614624 353.95700073  -999.250000  -999.250000 5891.0000000 5891.0000000 5891.0000000  -999.250000  -999.250000  -999.250000  -999.250000  -999.250000 1.1631000042 1.1646000147
 1280.6658900 1.9878000021 146.66909790 353.21319580 76.769897461 0.5315999985 353.46020508 353.21319580  -999.250000  -999.250000 5891.0000000 5891.0000000 5891.0000000  -999.250000  -999.250000  -999.250000  -999.250000  -999.250000 1.1577999592 1.1655000448
 1280.8183600 1.9858000278 146.01350403 351.81765747 79.309600830 0.5626000166 352.17382813 351.81765747  -999.250000  -999.250000 5891.0000000 5891.0000000 5891.0000000  -999.250000  -999.250000  -999.250000  -999.250000  -999.250000 1.1577999592 1.1655000448
 1280.9707000 1.9824000597 145.58129883 350.13690186 77.286102295 0.5223000050 350.39871216 350.13690186  -999.250000  -999.250000 5891.0000000 5891.0000000 5891.0000000  -999.250000  -999.250000  -999.250000  -999.250000  -999.250000 1.1512999535 1.1595000029
 1281.1230500 1.9835000038 145.49150085 349.09249878 77.630996704 0.5281999707 349.69018555 349.09249878  -999.250000  -999.250000 5891.0000000 5891.0000000 5891.0000000  -999.250000  -999.250000  -999.250000  -999.250000  -999.250000 1.1576000452 1.1636999846
 1281.2755100 1.9859000444 145.55949402 349.52499390 77.742401123 0.5327000022 350.29244995 349.52499390  -999.250000  -999.250000 5891.0000000 5891.0000000 5891.0000000  -999.250000  -999.250000  -999.250000  -999.250000  -999.250000 1.1576000452 1.1636999846
 1281.4278600 1.9901999235 145.69970703 351.01348877 79.532600403 0.5374000072 351.18450928 351.01348877  -999.250000  -999.250000 5891.0000000 5891.0000000 5891.0000000  -999.250000  -999.250000  -999.250000  -999.250000  -999.250000 1.1464999914 1.1513999701
 1281.5803200 2.0000998974 145.94259644 351.44854736 81.591796875 0.5408999920 351.46151733 351.44851685  -999.250000  -999.250000 5891.0000000 5891.0000000 5891.0000000  -999.250000  -999.250000  -999.250000  -999.250000  -999.250000 1.1445000172 1.1505999565
 1281.7326700 2.0085999966 146.02929688 352.07751465 82.599700928 0.5731999874 351.99114990 352.07751465  -999.250000  -999.250000 5891.0000000 5891.0000000 5891.0000000  -999.250000  -999.250000  -999.250000  -999.250000  -999.250000 1.1445000172 1.1505999565
 1281.8851300 2.0141000748 146.20111084 352.11550903 83.731201172 0.5691999793 352.55667114 352.11550903  -999.250000  -999.250000 5891.0000000 5891.0000000 5891.0000000  -999.250000  -999.250000  -999.250000  -999.250000  -999.250000 1.1440999508 1.1497000456
 1282.0374800 2.0146999359 146.04930115 351.64709473 81.649902344 0.5439000130 351.75433350 351.64709473  -999.250000  -999.250000 5891.0000000 5891.0000000 5891.0000000  -999.250000  -999.250000  -999.250000  -999.250000  -999.250000 1.1505000591 1.1588000059
 1282.1899400 2.0125000477 145.36509705 351.42050171 82.140800476 0.4939000010 351.56057739 351.42050171  -999.250000  -999.250000 5891.0000000 5891.0000000 5891.0000000  -999.250000  -999.250000  -999.250000  -999.250000  -999.250000 1.1640000343 1.1669000387
 1282.3422900 2.0067999363 145.57110596 349.75900269 81.656097412 0.5235999823 350.37985229 349.75900269  -999.250000  -999.250000 5891.0000000 5891.0000000 5891.0000000  -999.250000  -999.250000  -999.250000  -999.250000  -999.250000 1.1640000343 1.1669000387
 1282.4947500 1.9938000441 146.19808960 348.64749146 79.837097168 0.5715000033 351.02392578 348.64749146  -999.250000  -999.250000 5891.0000000 5891.0000000 5891.0000000  -999.250000  -999.250000  -999.250000  -999.250000  -999.250000 1.1699999571 1.1733000278
 1282.6470900 1.9812999964 145.99710083 347.95541382 76.056098938 0.6194999814 349.52850342 347.95541382  -999.250000  -999.250000 5891.0000000 5891.0000000 5891.0000000  -999.250000  -999.250000  -999.250000  -999.250000  -999.250000 1.1762000322 1.1840000153
 1282.7995600 1.9768999815 145.48570251 348.01458740 74.174499512 0.5730000138 347.34173584 348.01458740  -999.250000  -999.250000 5891.0000000 5891.0000000 5891.0000000  -999.250000  -999.250000  -999.250000  -999.250000  -999.250000 1.1852999926 1.1861000061
 1282.9519000 1.9744999409 145.33270264 348.96929932 76.889701843 0.5421000123 348.57977295 348.96929932  -999.250000  -999.250000 5891.0000000 5891.0000000 5891.0000000  -999.250000  -999.250000  -999.250000  -999.250000  -999.250000 1.1890000105 1.1885000467
 1283.1042500 1.9725999832 145.63150024 350.09851074 78.229499817 0.4832000136 348.90222168 350.09851074  -999.250000  -999.250000 5891.0000000 5891.0000000 5891.0000000  -999.250000  -999.250000  -999.250000  -999.250000  -999.250000 1.1936999559 1.1948000193
 1283.2567100 1.9716999531 146.07650757 351.47061157 80.574401855 0.5661000013 350.47097778 351.47061157  -999.250000  -999.250000 5891.0000000 5891.0000000 5891.0000000  -999.250000  -999.250000  -999.250000  -999.250000  -999.250000 1.1737999916 1.1776000261
 1283.4090600 1.9771999121 146.43469238 353.29339600 82.142799377 0.5583000183 353.85140991 353.29339600  -999.250000  -999.250000 5891.0000000 5891.0000000 5891.0000000  -999.250000  -999.250000  -999.250000  -999.250000  -999.250000 1.1485999823 1.1539000273
 1283.5615200 1.9844000340 146.70109558 354.93859863 79.044296265 0.6161000133 355.80908203 354.93859863  -999.250000  -999.250000 5891.0000000 5891.0000000 5891.0000000  -999.250000  -999.250000  -999.250000  -999.250000  -999.250000 1.1460000277 1.1533000469
 1283.7138700 1.9890999794 146.85189819 355.91891479 81.730903625 0.5655999780 355.57888794 355.91891479  -999.250000  -999.250000 5891.0000000 5891.0000000 5891.0000000  -999.250000  -999.250000  -999.250000  -999.250000  -999.250000 1.1507999897 1.1561000347
 1283.8663300 1.9913001060 146.83509827 356.21099854 87.421501160 0.5771999955 354.35675049 356.21099854  -999.250000  -999.250000 5891.0000000 5891.0000000 5891.0000000  -999.250000  -999.250000  -999.250000  -999.250000  -999.250000 1.1447000504 1.1543999910
 1284.0186800 1.9960000515 146.72210693 355.79150391 94.973701477 0.5516999960 356.90258789 355.79150391 5891.0000000 5891.0000000 5891.0000000 5891.0000000 5891.0000000  -999.250000  -999.250000  -999.250000  -999.250000  -999.250000 1.1598000526 1.1647000313
 1284.1711400 2.0039999485 146.68469238 355.62930298 98.204101563 0.5643000007 355.16452026 355.62930298 5891.0000000 5891.0000000 5891.0000000 5891.0000000 5891.0000000  -999.250000  -999.250000  -999.250000  -999.250000  -999.250000 1.1756000519 1.1790000200
 1284.3234900 2.0155999660 146.65539551 355.51550293 94.304901123 0.5938000083 354.96401978 355.51550293 5891.0000000 5891.0000000 5891.0000000 5891.0000000 5891.0000000  -999.250000  -999.250000  -999.250000  -999.250000  -999.250000 1.1822999716 1.1902999878
 1284.4759500 2.0299999714 146.30000305 352.96920776 92.195098877 0.5953000188 355.01998901 352.96920776 5891.0000000 5891.0000000 5891.0000000 5891.0000000 5891.0000000  -999.250000  -999.250000  -999.250000  -999.250000  -999.250000 1.1892999411 1.1966999769
